     3.03           OBSERVATION DATA    M                   RINEX VERSION / TYPE
BNC 2.12.6          rtproc              20171231 235945 UTC PGM / RUN BY / DATE
PORTIONS OF THIS HEADER GENERATED BY BKG AT 21-Dec-17 11:51 COMMENT
FROM SITELOG abmf_20170809.log                              COMMENT
OBS TYPES from mgex.igs-ip.net/ABMF7                        COMMENT
RTCM_3 mgex.igs-ip.net/ABMF7                                COMMENT
ABMF                                                        MARKER NAME
97103M001                                                   MARKER NUMBER
                                                            MARKER TYPE
                    IGN-SGN                                 OBSERVER / AGENCY
1830399             LEICA GR25          4.11                REC # / TYPE / VERS
1441112501          TRM57971.00     NONE                    ANT # / TYPE
  2919786.0000 -5383745.0000  1774604.0000                  APPROX POSITION XYZ
        0.0000        0.0000        0.0000                  ANTENNA: DELTA H/E/N
E   16 C1C L1C D1C S1C C7Q L7Q D7Q S7Q C8Q L8Q D8Q S8Q C5Q  SYS / # / OBS TYPES
       L5Q D5Q S5Q                                          SYS / # / OBS TYPES
G   12 C1C L1C D1C S1C C2W L2W D2W S2W C5Q L5Q D5Q S5Q      SYS / # / OBS TYPES
R    8 C1C L1C D1C S1C C2P L2P D2P S2P                      SYS / # / OBS TYPES
S    4 C1C L1C D1C S1C                                      SYS / # / OBS TYPES
  2018     1     1     0     0    0.0000000     GPS         TIME OF FIRST OBS
E L1C  0.00000                                              SYS / PHASE SHIFT
E L7Q  0.00000                                              SYS / PHASE SHIFT
E L8Q  0.00000                                              SYS / PHASE SHIFT
E L5Q  0.00000                                              SYS / PHASE SHIFT
G L1C  0.00000                                              SYS / PHASE SHIFT
G L2W  0.00000                                              SYS / PHASE SHIFT
G L5Q  0.00000                                              SYS / PHASE SHIFT
R L1C  0.00000                                              SYS / PHASE SHIFT
R L2P  0.00000                                              SYS / PHASE SHIFT
S L1C  0.00000                                              SYS / PHASE SHIFT
                                                            GLONASS COD/PHS/BIS
  0                                                         GLONASS SLOT / FRQ #
                                                            END OF HEADER
> 2018 01 01 00 00  0.0000000  0 29
G03  24424219.520   128349744.306       -1249.615          39.562    24424216.680   100012906.962        -973.728          36.875    24424217.220    95845960.367        -933.375          46.875
G08  21780789.300   114459483.932        2714.857          47.562    21780785.640    89188891.627        2115.474          43.688    21780786.200    85472175.529        2027.261          51.625
G09  24877255.760   130731137.341        3212.797          40.562    24877252.820   101868418.577        2503.480          37.625    24877254.500    97623534.503        2399.121          46.938
G14  22784162.540   119731026.687       -3307.840          43.375    22784156.440    93296905.044       -2577.537          37.562
G16  21423701.360   112581890.145       -1280.583          48.125    21423694.080    87726155.928        -997.856          44.000
G21  25447396.700   133727090.457        -915.487          42.000    25447388.020   104203349.340        -713.367          28.688
G22  24252339.560   127447049.052       -1181.942          42.875    24252330.700    99309463.762        -920.994          36.750
G23  22351773.440   117459230.459        2407.587          48.000    22351764.320    91527053.571        1876.042          41.000
G26  22664221.400   119102095.004       -1716.766          47.125    22664218.060    92805872.688       -1337.740          41.500    22664218.760    88939359.536       -1282.028          50.438
G27  19991202.540   105055230.534         613.689          49.938    19991197.720    81861012.231         478.200          49.750    19991198.720    78449704.501         458.175          52.812
G31  22492168.800   118197677.057        -819.597          48.938    22492161.160    92102122.800        -638.647          41.688
G32                                                                                                                                  25126596.680    98602322.068       -2712.723          45.125
R01  22669633.020   121181644.258       -3463.126          42.188    22669634.960    94252394.344       -2693.544          36.688
R02  21341595.580   113883388.513       -1212.817          47.500    21341595.880    88575540.080        -943.302          45.188
R03  23548152.820   126054526.754        1683.251          40.562    23548150.140    98042409.959        1309.196          39.688
R11  22639041.680   120977081.790        -441.261          43.125    22639042.560    94093318.872        -343.203          41.312
R12  21735587.080   116107603.094         684.724          43.750
R13  23833544.980   127269299.011        1436.845          37.625    23833546.020    98987261.357        1117.547          28.938
R21  23406312.800   125252192.998       -3370.904          39.875    23406311.100    97418212.970       -2621.817          41.000
R22  20020858.960   106873349.230        -226.579          49.375    20020858.880    83123740.112        -176.227          48.688
R23  21031676.580   112505507.541        3617.982          47.750    21031677.480    87503630.294        2813.985          41.125
E02  25136733.540   132093857.060          28.184          50.375    25136730.700   101214793.844          21.542          52.312    25136732.000    99928298.313          21.274          48.875    25136732.380    98641538.776          21.007          50.625
E03  25526455.140   134143093.059       -2402.243          49.875    25526453.960   102784929.984       -1840.688          51.875    25526454.800   101478298.332       -1817.299          47.625    25526455.360   100171710.678       -1793.978          49.125
E07  27539434.420   144720103.964        1345.348          44.375    27539431.300   110889823.929        1030.720          48.625    27539432.860   109479719.157        1017.601          42.750    27539436.120   108070339.373        1004.578          44.625
E08  22909372.780   120390084.201        -717.561          51.125    22909369.240    92246952.101        -549.942          52.562    22909370.340    91074490.985        -542.908          49.125    22909370.760    89901691.872        -535.899          50.500
E30  24654924.780   129562002.075         653.394          48.188    24654922.880    99275176.627         500.600          50.688    24654923.500    98013211.657         494.281          45.625    24654924.440    96751234.691         487.872          47.188
S20  38226594.240   200882591.677          39.106          42.500
S35  40665704.320   213699147.227          -3.864          40.125
S38  38181658.760   200646405.170          -1.374          46.500
> 2018 01 01 00 00  1.0000000  0 29
G03  24424457.320   128350994.032       -1249.355          39.625    24424454.520   100013880.777        -973.526          37.875    24424455.020    95846893.598        -933.114          46.875
G08  21780272.700   114456769.184        2714.826          47.562    21780269.060    89186776.240        2115.450          43.250    21780269.580    85470148.279        2027.232          51.562
G09  24876644.400   130727924.567        3212.775          40.625    24876641.440   101865915.125        2503.466          35.375    24876643.140    97621135.352        2399.244          46.938
G14  22784792.000   119734334.587       -3307.600          43.375    22784785.920    93299482.634       -2577.350          38.125
G16  21423945.020   112583170.616       -1280.321          48.062    21423937.760    87727153.696        -997.652          44.000
G21  25447570.940   133728005.989        -915.535          41.812    25447562.260   104204062.760        -713.402          31.312
G22  24252564.480   127448230.923       -1181.640          43.062    24252555.580    99310384.698        -920.761          36.750
G23  22351315.320   117456823.045        2407.436          47.938    22351306.200    91525177.662        1875.925          41.500
G26  22664548.060   119103811.572       -1716.191          47.062    22664544.700    92807210.278       -1337.290          41.375    22664545.420    88940641.391       -1281.607          50.375
G27  19991085.800   105054617.092         613.388          49.875    19991080.980    81860534.227         477.965          49.438    19991081.980    78449246.410         458.003          52.750
G31  22492324.760   118198496.614        -819.418          48.875    22492317.120    92102761.418        -638.507          41.750
G32  25127286.240   132044720.354       -3631.731          40.938    25127286.480   102891781.240       -2829.921          39.750    25127288.300    98605034.304       -2712.051          49.125
R01  22670280.800   121185107.034       -3462.456          42.250    22670282.740    94255087.615       -2693.023          36.938
R02  21341822.880   113884601.416       -1213.011          47.500    21341823.180    88576483.447        -943.453          45.188
R03  23547838.360   126052843.553        1683.040          40.625    23547835.720    98041100.801        1309.032          39.688
R11  22639124.240   120977523.045        -441.072          43.312    22639125.140    94093662.069        -343.057          41.250
R12  21735458.860   116106918.192         685.077          43.625
R13  23833275.840   127267861.850        1437.723          37.875    23833276.840    98986143.564        1118.228          29.188
R21  23406942.760   125255563.990       -3371.045          39.750    23406941.060    97420834.855       -2621.926          40.875
R22  20020901.440   106873576.087        -227.037          49.375    20020901.380    83123916.559        -176.584          48.625
R23  21031000.280   112501889.664        3617.872          47.688    21031001.140    87500816.392        2813.900          40.875
E02  25136728.160   132093828.708          28.583          50.438    25136725.320   101214772.121          21.932          52.312    25136726.600    99928276.864          21.678          48.875    25136727.000    98641517.612          21.350          50.625
E03  25526912.240   134145495.115       -2401.879          49.875    25526911.060   102786770.516       -1840.359          51.875    25526911.880   101480115.466       -1816.901          47.688    25526912.440   100173504.413       -1793.577          49.188
E07  27539178.420   144718758.774        1345.309          44.188    27539175.380   110888793.204        1030.698          48.625    27539176.880   109478701.542        1017.528          42.625    27539180.140   108069334.853        1004.622          44.562
E08  22909509.360   120390801.906        -717.585          51.125    22909505.820    92247502.028        -549.888          52.562    22909506.920    91075033.925        -542.876          49.188    22909507.320    89902227.819        -535.897          50.500
E30  24654800.420   129561348.475         653.978          48.125    24654798.500    99274675.822         500.998          50.688    24654799.120    98012717.222         494.614          45.625    24654800.060    96750746.618         488.194          47.188
S20  38226586.620   200882552.622          39.032          42.312
S35  40665705.060   213699151.113          -3.543          40.250
S38  38181659.020   200646406.350           -.802          46.625
> 2018 01 01 00 00  2.0000000  0 29
G03  24424695.100   128352243.588       -1249.285          39.562    24424692.400   100014854.453        -973.470          38.875    24424692.780    95847826.723        -933.223          47.000
G08  21779756.120   114454054.622        2714.401          47.562    21779752.500    89184660.997        2115.118          43.875    21779753.000    85468121.163        2027.047          51.625
G09  24876033.020   130724711.775        3212.576          40.812    24876030.080   101863411.650        2503.308          35.250    24876031.780    97618736.191        2399.082          47.000
G14  22785421.460   119737642.522       -3308.007          43.375    22785415.380    93302060.243       -2577.667          37.500
G16  21424188.660   112584450.958       -1280.261          48.188    21424181.420    87728151.370        -997.604          43.750
G21  25447745.200   133728921.647        -915.871          41.812    25447736.620   104204776.276        -713.660          29.625
G22  24252789.320   127449412.496       -1181.416          43.125    24252780.380    99311305.401        -920.586          35.750
G23  22350857.240   117454415.864        2407.071          47.938    22350848.140    91523301.940        1875.641          41.438
G26  22664874.660   119105527.853       -1716.103          47.125    22664871.300    92808547.642       -1337.222          41.688    22664872.020    88941923.027       -1281.530          50.438
G27  19990969.160   105054004.108         612.682          49.938    19990964.340    81860056.579         477.416          49.625    19990965.340    78448788.656         457.540          52.812
G31  22492480.720   118199316.194        -819.585          48.938    22492473.080    92103400.053        -638.637          41.625
G32  25127977.780   132048351.951       -3631.762          41.688    25127977.580   102894611.052       -2829.944          28.125    25127979.360    98607746.575       -2711.555          39.062
R01  22670928.500   121188569.549       -3462.406          42.000    22670930.460    94257780.682       -2692.983          36.688
R02  21342050.260   113885814.683       -1213.485          47.375    21342050.520    88577427.100        -943.822          45.125
R03  23547524.020   126051160.773        1682.417          40.625    23547521.380    98039791.972        1308.547          39.875
R11  22639206.820   120977964.127        -440.995          43.125    22639207.660    94094005.135        -342.996          41.250
R12  21735330.560   116106232.943         685.239          43.562
R13  23833006.700   127266424.291        1437.925          37.750    23833007.580    98985025.463        1118.385          29.875
R21  23407572.700   125258935.245       -3371.423          39.375    23407571.080    97423456.946       -2622.219          40.875
R22  20020944.060   106873803.608        -227.893          49.312    20020944.000    83124093.520        -177.250          48.750
R23  21030323.980   112498271.931        3617.561          47.625    21030324.840    87498002.601        2813.659          41.188
E02  25136722.700   132093800.013          28.726          50.438    25136719.840   101214750.131          22.117          52.375    25136721.140    99928255.156          21.833          48.875    25136721.560    98641496.173          21.551          50.625
E03  25527369.300   134147897.019       -2401.877          49.875    25527368.120   102788610.936       -1840.333          51.875    25527368.960   101481932.492       -1816.983          47.688    25527369.500   100175298.040       -1793.470          49.188
E07  27538922.420   144717413.727        1344.822          44.125    27538919.480   110887762.569        1030.570          48.750    27538920.920   109477684.004        1017.481          42.812    27538924.180   108068330.428        1004.353          44.500
E08  22909645.960   120391519.746        -717.925          51.125    22909642.420    92248052.057        -550.093          52.625    22909643.520    91075576.967        -543.129          49.188    22909643.900    89902763.869        -536.140          50.500
E30  24654676.000   129560694.570         654.075          48.125    24654674.080    99274174.769         501.190          50.688    24654674.680    98012222.540         494.772          45.625    24654675.600    96750258.303         488.387          47.312
S20  38226579.380   200882513.529          39.305          42.375
S35  40665705.760   213699154.742          -3.234          40.500
S38  38181659.200   200646407.304           -.836          46.562
> 2018 01 01 00 00  3.0000000  0 29
G03  24424932.840   128353492.986       -1249.063          38.938    24424930.180   100015828.018        -973.296          38.250    24424930.500    95848759.705        -932.922          46.938
G08  21779239.580   114451340.246        2714.402          47.375    21779235.960    89182545.895        2115.119          43.375    21779236.460    85466094.196        2026.995          51.625
G09  24875421.660   130721498.948        3212.608          41.062    24875418.740   101860908.141        2503.331          36.000    24875420.420    97616337.001        2399.272          47.125
G14  22786050.940   119740950.467       -3307.720          43.562    22786044.860    93304637.866       -2577.443          37.375
G16  21424432.280   112585731.163       -1280.009          48.125    21424425.040    87729148.934        -997.408          43.875
G21  25447919.480   133729837.426        -915.728          41.812    25447910.940   104205489.862        -713.552          30.188
G22  24253014.120   127450593.771       -1181.077          43.250    24253005.160    99312225.870        -920.321          35.875
G23  22350399.200   117452008.894        2406.946          47.938    22350390.100    91521426.382        1875.543          41.500
G26  22665201.200   119107243.825       -1715.663          47.250    22665197.840    92809884.764       -1336.880          41.000    22665198.540    88943204.425       -1281.156          50.375
G27  19990852.580   105053391.524         612.438          50.000    19990847.760    81859579.238         477.225          49.625    19990848.780    78448331.206         457.375          52.812
G31  22492636.680   118200135.785        -819.511          49.000    22492629.060    92104038.695        -638.579          41.625
G32  25128669.580   132051983.720       -3631.488          39.625    25128667.320   102897441.134       -2829.731          35.812    25128670.520    98610458.158       -2711.673          46.875
R01  22671576.160   121192031.789       -3461.903          41.938    22671578.140    94260473.533       -2692.593          37.125
R02  21342277.700   113887028.303       -1213.795          47.312    21342277.940    88578371.028        -944.063          45.062
R03  23547209.800   126049478.370        1682.343          40.562    23547207.100    98038483.438        1308.490          39.625
R11  22639289.300   120978404.950        -440.696          42.938    22639290.140    94094347.999        -342.763          41.125
R12  21735202.200   116105547.313         685.936          43.625
R13  23832737.360   127264986.239        1438.330          37.562    23832738.220    98983906.975        1118.701          28.875
R21  23408202.740   125262306.702       -3371.348          38.875    23408201.120    97426079.195       -2622.159          41.125
R22  20020986.800   106874031.765        -228.403          49.312    20020986.740    83124270.976        -177.646          48.688
R23  21029647.740   112494654.327        3617.624          47.562    21029648.580    87495188.911        2813.709          41.188
E02  25136717.160   132093770.953          29.317          50.500    25136714.320   101214727.866          22.510          52.312    25136715.600    99928233.170          22.226          48.875    25136716.040    98641474.476          21.890          50.625
E03  25527826.340   134150298.735       -2401.413          49.875    25527825.160   102790451.216       -1840.074          51.875    25527825.980   101483749.379       -1816.668          47.625    25527826.520   100177091.541       -1793.354          49.188
E07  27538666.440   144716068.766        1344.914          44.062    27538663.600   110886732.021        1030.614          48.688    27538665.000   109476666.557        1017.532          42.688    27538668.240   108067326.079        1004.398          44.312
E08  22909782.580   120392237.697        -717.830          51.250    22909779.040    92248602.178        -550.055          52.562    22909780.140    91076120.090        -543.085          49.125    22909780.520    89903300.001        -536.122          50.500
E30  24654551.500   129560040.311         654.436          48.125    24654549.580    99273673.451         501.518          50.688    24654550.180    98011727.590         495.177          45.625    24654551.100    96749769.719         488.842          47.312
S20  38226571.660   200882474.251          39.405          42.625
S35  40665706.400   213699158.102          -3.209          40.312
S38  38181659.360   200646408.084           -.610          46.375
> 2018 01 01 00 00  4.0000000  0 29
G03  24425170.560   128354742.118       -1249.086          39.375    24425167.880   100016801.357        -973.316          38.562    24425168.180    95849692.497        -932.917          47.062
G08  21778723.040   114448625.952        2714.033          47.375    21778719.460    89180430.862        2114.832          43.500    21778719.940    85464067.292        2026.703          51.562
G09  24874810.260   130718285.978        3212.804          41.000    24874807.340   101858404.527        2503.485          36.750    24874809.020    97613937.720        2399.101          47.188
G14  22786680.400   119744258.312       -3307.961          43.562    22786674.300    93307215.410       -2577.631          37.375
G16  21424675.840   112587011.127       -1280.101          48.188    21424668.620    87730146.308        -997.480          43.500
G21  25448093.740   133730753.211        -915.977          41.875    25448085.200   104206203.436        -713.754          33.188
G22  24253238.820   127451774.624       -1180.974          43.375    24253229.860    99313146.020        -920.241          36.625
G23  22349941.180   117449602.033        2406.519          47.875    22349932.080    91519550.905        1875.211          41.188
G26  22665527.660   119108959.381       -1715.577          47.312    22665524.300    92811221.557       -1336.813          41.625    22665525.020    88944485.530       -1281.105          50.375
G27  19990736.060   105052779.260         611.805          49.938    19990731.240    81859102.151         476.732          49.625    19990732.260    78447874.002         456.899          52.812
G31  22492792.620   118200955.282        -819.671          49.000    22492785.020    92104677.264        -638.705          41.938
G32  25129359.920   132055614.612       -3631.165          44.625    25129358.120   102900270.313       -2829.480          33.250    25129361.340    98613169.512       -2711.275          43.375
R01  22672223.760   121195493.641       -3461.840          41.812    22672225.760    94263166.084       -2692.544          37.125
R02  21342505.180   113888242.170       -1214.226          47.250    21342505.400    88579315.146        -944.397          45.000
R03  23546895.600   126047796.267        1681.627          40.562    23546892.880    98037175.138        1307.934          39.812
R11  22639371.740   120978845.420        -440.602          42.812    22639372.560    94094690.589        -342.689          41.312
R12  21735073.740   116104861.231         686.006          43.625
R13  23832467.960   127263547.629        1438.646          37.375    23832468.740    98982788.058        1118.946          28.312
R21  23408832.740   125265678.273       -3372.011          38.875    23408831.180    97428701.530       -2622.674          41.125
R22  20021029.640   106874260.451        -229.208          49.312    20021029.600    83124448.845        -178.271          48.688
R23  21028971.480   112491036.770        3617.279          47.625    21028972.300    87492375.258        2813.440          41.125
E02  25136711.560   132093741.438          29.397          50.438    25136708.700   101214705.249          22.650          52.312    25136710.000    99928210.843          22.383          48.875    25136710.420    98641452.436          22.046          50.625
E03  25528283.340   134152700.186       -2401.515          49.875    25528282.140   102792291.291       -1840.146          51.875    25528282.960   101485566.059       -1816.707          47.688    25528283.500   100178884.827       -1793.337          49.125
E07  27538410.500   144714723.803        1344.884          44.125    27538407.720   110885701.478        1030.344          48.688    27538409.060   109475649.104        1017.343          42.625    27538412.300   108066321.737        1004.196          44.125
E08  22909919.220   120392955.673        -718.244          51.125    22909915.660    92249152.314        -550.293          52.562    22909916.760    91076663.235        -543.314          49.125    22909917.140    89903836.151        -536.303          50.500
E30  24654426.920   129559385.593         654.684          48.062    24654425.000    99273171.790         501.695          50.688    24654425.600    98011232.307         495.311          45.562    24654426.500    96749280.815         488.985          47.250
S20  38226563.920   200882434.631          39.700          42.625
S35  40665706.940   213699161.055          -3.264          40.188
S38  38181659.400   200646408.547           -.496          46.375
> 2018 01 01 00 00  5.0000000  0 29
G03  24425408.260   128355991.246       -1249.149          39.438    24425405.580   100017774.707        -973.363          38.000    24425405.860    95850625.267        -932.659          46.875
G08  21778206.600   114445911.989        2714.112          47.312    21778203.000    89178316.088        2114.894          43.812    21778203.500    85462040.641        2026.585          51.562
G09  24874198.880   130715073.139        3212.974          41.250    24874195.960   101855901.010        2503.614          35.125    24874197.660    97611538.527        2399.174          47.125
G14  22787309.880   119747566.347       -3307.898          43.750    22787303.820    93309793.099       -2577.581          38.188
G16  21424919.400   112588291.120       -1280.087          48.188    21424912.200    87731143.706        -997.470          43.188
G21  25448268.060   133731669.271        -916.190          41.938    25448259.520   104206917.240        -713.918          32.125
G22  24253463.520   127452955.328       -1180.431          43.625    24253454.500    99314066.051        -919.815          35.125
G23  22349483.240   117447195.542        2406.445          47.812    22349474.140    91517675.722        1875.153          41.875
G26  22665854.100   119110674.790       -1715.188          47.312    22665850.740    92812558.239       -1336.511          41.562    22665851.440    88945766.519       -1280.877          50.375
G27  19990619.660   105052167.592         611.462          49.938    19990614.840    81858625.529         476.465          49.625    19990615.880    78447417.239         456.640          52.812
G31  22492948.600   118201774.952        -819.597          49.000    22492940.980    92105315.967        -638.647          41.812
G32  25130050.500   132059245.314       -3629.948          38.125    25130050.140   102903099.321       -2828.541          19.750
R01  22672871.320   121198955.367       -3461.345          41.812    22672873.340    94265858.534       -2692.158          36.875
R02  21342732.760   113889456.593       -1214.599          47.312    21342732.980    88580259.699        -944.688          45.062
R03  23546581.480   126046114.710        1681.423          40.625    23546578.760    98035867.258        1307.775          39.625
R11  22639454.160   120979285.838        -440.276          42.688    22639454.960    94095033.140        -342.435          41.125
R12  21734945.260   116104174.933         686.539          43.500
R13  23832198.500   127262108.717        1439.321          37.125    23832199.200    98981668.902        1119.471          28.250
R21  23409462.800   125269050.175       -3371.637          38.625    23409461.300    97431324.124       -2622.383          41.375
R22  20021072.640   106874489.954        -229.754          49.312    20021072.580    83124627.348        -178.696          48.625
R23  21028295.260   112487419.514        3617.200          47.688    21028296.100    87489561.841        2813.380          41.125
E02  25136705.900   132093711.713          29.989          50.500    25136703.040   101214682.478          22.962          52.250    25136704.340    99928188.362          22.686          48.812    25136704.780    98641430.242          22.393          50.625
E03  25528740.320   134155101.622       -2401.356          49.875    25528739.120   102794131.348       -1840.018          51.875    25528739.940   101487382.732       -1816.639          47.625    25528740.460   100180678.113       -1793.286          49.125
E07  27538154.580   144713379.126        1344.748          44.125    27538151.880   110884671.132        1030.428          48.625    27538153.180   109474631.871        1017.212          42.562    27538156.400   108065317.597        1004.081          44.000
E08  22910055.900   120393673.924        -718.172          51.125    22910052.340    92249702.662        -550.298          52.562    22910053.440    91077206.583        -543.298          49.062    22910053.800    89904372.511        -536.379          50.375
E30  24654302.300   129558730.711         655.029          48.062    24654300.400    99272669.991         501.966          50.625    24654300.980    98010736.891         495.537          45.562    24654301.880    96748791.785         489.136          47.188
S20  38226556.400   200882394.750          40.099          42.375
S35  40665707.400   213699163.883          -2.319          40.562
S38  38181659.480   200646408.847           -.142          46.562
> 2018 01 01 00 00  6.0000000  0 28
G03  24425645.960   128357240.399       -1249.200          39.562    24425643.300   100018748.072        -973.402          37.812    24425643.540    95851558.087        -932.958          46.875
G08  21777690.220   114443198.465        2713.138          47.188    21777686.640    89176201.654        2114.134          43.625    21777687.120    85460014.292        2026.121          51.625
G09  24873587.560   130711860.502        3212.639          41.500    24873584.620   101853397.657        2503.354          35.375    24873586.320    97609139.481        2398.893          47.188
G14  22787939.420   119750874.604       -3308.401          43.750    22787933.380    93312370.962       -2577.974          36.375
G16  21425162.980   112589571.168       -1280.198          48.250    21425155.780    87732141.147        -997.556          43.688
G21  25448442.460   133732585.649        -916.590          42.062    25448433.980   104207631.292        -714.231          33.812
G22  24253688.180   127454135.964       -1180.688          43.625    24253679.180    99314986.033        -920.016          37.062
G23  22349025.380   117444789.487        2405.768          47.875    22349016.280    91515800.874        1874.626          41.125
G26  22666180.540   119112390.115       -1715.309          47.312    22666177.160    92813894.852       -1336.605          41.625    22666177.860    88947047.444       -1280.941          50.375
G27  19990503.400   105051556.568         610.628          50.000    19990498.560    81858149.406         475.814          49.625    19990499.600    78446960.953         455.998          52.750
G31  22493104.620   118202594.856        -820.107          49.000    22493097.000    92105954.853        -639.044          41.875
R01  22673518.900   121202417.054       -3461.686          41.875    22673520.920    94268550.955       -2692.424          37.250
R02  21342960.460   113890671.639       -1215.368          47.500    21342960.660    88581204.735        -945.286          45.250
R03  23546267.500   126044433.808        1680.396          40.562    23546264.780    98034559.886        1306.973          39.688
R11  22639536.600   120979726.302        -440.715          42.875    22639537.360    94095375.723        -342.777          40.938
R12  21734816.740   116103488.487         686.516          43.750
R13  23831929.020   127260669.597        1439.250          37.562    23831929.620    98980549.581        1119.415          28.562
R21  23410092.980   125272422.564       -3372.702          39.250    23410091.540    97433947.091       -2623.214          41.562
R22  20021115.800   106874720.326        -230.892          49.375    20021115.740    83124806.527        -179.581          48.625
R23  21027619.120   112483802.615        3616.567          47.812    21027619.960    87486748.697        2812.887          41.000
E02  25136700.220   132093681.864          29.833          50.500    25136697.360   101214659.605          22.796          52.250    25136698.660    99928165.779          22.533          48.750    25136699.100    98641407.949          22.265          50.562
E03  25529197.300   134157503.105       -2401.712          49.875    25529196.120   102795971.439       -1840.227          51.875    25529196.920   101489199.432       -1816.834          47.562    25529197.440   100182471.416       -1793.450          49.125
E07  27537898.760   144712034.786        1344.017          44.250    27537896.120   110883641.057        1029.856          48.625    27537897.360   109473614.880        1016.833          42.375    27537900.560   108064313.702        1003.667          44.000
E08  22910192.640   120394392.524        -718.751          51.250    22910189.080    92250253.279        -550.832          52.500    22910190.180    91077750.203        -543.809          49.000    22910190.540    89904909.118        -536.749          50.375
E30  24654177.660   129558075.692         654.945          48.125    24654175.760    99272168.101         501.888          50.625    24654176.340    98010241.381         495.443          45.438    24654177.220    96748302.647         489.091          47.125
S20  38226548.880   200882354.751          39.947          42.625
S35  40665708.020   213699166.620          -2.550          40.750
S38  38181659.500   200646409.086           -.291          46.625
> 2018 01 01 00 00  7.0000000  0 28
G03  24425883.760   128358490.080       -1250.072          39.562    24425881.140   100019721.849        -974.084          37.875    24425881.320    95852491.273        -933.291          46.938
G08  21777174.000   114440485.763        2712.288          47.062    21777170.420    89174087.862        2113.473          44.062    21777170.900    85457988.580        2025.421          51.562
G09  24872976.320   130708648.542        3211.437          41.500    24872973.360   101850894.836        2502.417          35.875    24872975.100    97606740.916        2398.396          47.312
G14  22788569.100   119754183.545       -3309.211          43.812    22788563.040    93314949.353       -2578.606          36.688
G16  21425406.680   112590851.773       -1280.900          48.188    21425399.480    87733139.019        -998.102          43.625
G21  25448617.000   133733502.838        -917.544          42.062    25448608.620   104208345.998        -714.971          32.500
G22  24253912.920   127455316.960       -1181.291          43.375    24253903.900    99315906.289        -920.484          35.812
G23  22348567.680   117442384.334        2404.703          47.812    22348558.580    91513926.726        1873.795          41.375
G26  22666507.020   119114105.803       -1715.841          47.250    22666503.640    92815231.756       -1337.019          41.688    22666504.360    88948328.635       -1281.303          50.375
G27  19990387.320   105050946.637         609.416          50.000    19990382.480    81857674.135         474.870          49.438    19990383.540    78446505.485         455.115          52.750
G31  22493260.780   118203415.453        -820.907          48.875    22493253.180    92106594.282        -639.668          42.062
R01  22674166.540   121205879.152       -3462.276          42.000    22674168.580    94271243.695       -2692.884          36.750
R02  21343188.360   113891887.760       -1216.577          47.562    21343188.560    88582150.606        -946.227          45.000
R03  23545953.680   126042753.994        1679.459          40.812    23545950.980    98033253.364        1306.245          39.625
R11  22639619.100   120980167.208        -441.178          43.125    22639619.840    94095718.648        -343.138          40.938
R12  21734688.300   116102802.381         685.747          43.875
R13  23831659.600   127259230.684        1438.891          37.562    23831660.080    98979430.423        1119.135          28.500
R21  23410723.340   125275795.858       -3373.894          39.625    23410721.940    97436570.756       -2624.143          41.625
R22  20021159.220   106874952.051        -232.384          49.375    20021159.160    83124986.760        -180.741          48.625
R23  21026943.140   112480186.537        3615.698          47.875    21026943.960    87483936.195        2812.211          41.125
E02  25136694.620   132093652.326          29.385          50.375    25136691.740   101214636.968          22.547          52.250    25136693.040    99928143.432          22.250          48.688    25136693.500    98641385.889          21.985          50.625
E03  25529654.400   134159905.082       -2402.300          49.875    25529653.200   102797811.915       -1840.649          51.875    25529654.000   101491016.512       -1817.239          47.625    25529654.520   100184265.102       -1793.832          49.125
E07  27537643.060   144710691.223        1343.208          44.125    27537640.500   110882611.571        1029.204          48.625    27537641.700   109472598.478        1016.280          42.375    27537644.880   108063310.388        1003.031          43.938
E08  22910329.540   120395111.917        -719.758          51.125    22910325.960    92250804.501        -551.495          52.500    22910327.080    91078294.418        -544.484          49.062    22910327.420    89905446.333        -537.479          50.375
E30  24654053.080   129557421.014         654.586          48.062    24654051.180    99271666.461         501.554          50.625    24654051.760    98009746.114         495.172          45.375    24654052.620    96747813.762         488.806          47.125
S20  38226541.260   200882315.273          39.371          42.562
S35  40665708.600   213699169.735          -3.677          40.188
S38  38181659.660   200646409.739           -.901          46.625
> 2018 01 01 00 00  8.0000000  0 28
G03  24426121.620   128359740.048       -1250.081          39.562    24426119.040   100020695.846        -974.090          38.812    24426119.160    95853424.727        -933.692          47.000
G08  21776657.900   114437773.749        2711.627          46.938    21776654.340    89171974.607        2112.957          44.500    21776654.820    85455963.378        2024.954          51.625
G09  24872365.220   130705437.033        3211.118          41.562    24872362.180   101848392.362        2502.171          34.875    24872364.000    97604342.719        2398.034          47.375
G14  22789198.860   119757493.012       -3309.733          43.562    22789192.800    93317528.158       -2579.012          38.562
G16  21425650.440   112592132.727       -1281.116          48.125    21425643.240    87734137.168        -998.272          43.812
G21  25448791.680   133734420.627        -918.240          41.875    25448783.280   104209061.159        -715.513          28.625
G22  24254137.660   127456498.157       -1181.443          43.375    24254128.660    99316826.710        -920.602          35.875
G23  22348110.120   117439979.884        2404.026          47.688    22348101.020    91512053.129        1873.268          41.188
G26  22666833.540   119115821.693       -1716.060          47.188    22666830.140    92816568.811       -1337.189          41.688    22666830.880    88949609.975       -1281.390          50.500
G27  19990271.440   105050337.631         608.504          49.938    19990266.600    81857199.585         474.159          49.625    19990267.660    78446050.710         454.443          52.750
G31  22493417.020   118204236.534        -821.280          48.875    22493409.420    92107234.085        -639.958          42.125
R01  22674814.220   121209341.471       -3462.561          42.188    22674816.280    94273936.605       -2693.105          37.250
R02  21343416.420   113893104.766       -1217.431          47.625    21343416.600    88583097.165        -946.891          45.250
R03  23545640.080   126041075.127        1678.368          40.500    23545637.360    98031947.576        1305.396          39.375
R11  22639701.660   120980608.380        -441.432          43.188    22639702.380    94096061.785        -343.336          41.125
R12  21734559.860   116102116.390         685.930          43.750
R13  23831390.160   127257791.852        1438.579          38.062    23831390.600    98978311.329        1118.893          28.500
R21  23411353.820   125279169.873       -3374.444          39.875    23411352.480    97439194.986       -2624.570          41.875
R22  20021202.860   106875184.925        -233.474          49.438    20021202.780    83125167.885        -181.589          48.688
R23  21026267.260   112476571.094        3615.059          47.875    21026268.080    87481124.179        2811.714          41.125
E02  25136689.020   132093622.924          29.335          50.375    25136686.140   101214614.441          22.507          52.250    25136687.440    99928121.191          22.243          48.812    25136687.920    98641363.933          21.952          50.625
E03  25530111.540   134162307.377       -2402.547          49.875    25530110.340   102799652.641       -1840.865          51.875    25530111.140   101492833.838       -1817.428          47.562    25530111.640   100186059.032       -1794.020          49.188
E07  27537387.480   144709348.261        1342.837          43.875    27537385.000   110881582.557        1028.823          48.750    27537386.140   109471582.552        1015.735          42.500    27537389.300   108062307.538        1002.718          43.875
E08  22910466.560   120395831.928        -720.351          51.125    22910462.980    92251356.197        -551.891          52.562    22910464.100    91078839.099        -544.841          49.062    22910464.420    89905984.003        -537.828          50.438
E30  24653928.520   129556766.492         654.481          48.062    24653926.640    99271164.952         501.451          50.625    24653927.220    98009250.974         495.142          45.438    24653928.060    96747324.991         488.760          47.188
S20  38226533.660   200882276.165          39.015          42.625
S35  40665709.180   213699173.040          -3.731          40.375
S38  38181659.800   200646410.620           -.962          46.375
> 2018 01 01 00 00  9.0000000  0 29
G03  24426359.500   128360990.219       -1250.245          39.375    24426356.940   100021670.013        -974.217          38.062    24426357.020    95854358.265        -933.499          47.125
G08  21776141.900   114435062.246        2711.217          47.000    21776138.360    89169861.747        2112.638          43.625    21776138.820    85453938.544        2024.752          51.625
G09  24871754.140   130702225.810        3211.306          41.625    24871751.080   101845890.113        2502.318          33.250    24871752.940    97601944.735        2397.914          47.562
G14  22789828.700   119760802.827       -3309.969          43.500    22789822.620    93320107.240       -2579.195          38.062
G16  21425894.220   112593413.866       -1281.157          48.125    21425887.040    87735135.455        -998.305          43.688
G21  25448966.440   133735338.857        -918.312          41.938    25448958.040   104209776.682        -715.563          31.750
G22  24254362.440   127457679.361       -1181.235          43.125    24254353.440    99317747.131        -920.439          36.375
G23  22347652.680   117437575.976        2403.706          47.688    22347643.560    91510179.958        1873.020          41.688
G26  22667160.060   119117537.590       -1715.890          47.125    22667156.680    92817905.876       -1337.058          41.812    22667157.400    88950891.326       -1281.268          50.500
G27  19990155.680   105049729.371         608.080          49.938    19990150.840    81856725.617         473.829          49.688    19990151.920    78445596.486         454.074          52.812
G31  22493573.340   118205057.977        -821.562          48.812    22493565.740    92107874.171        -640.178          41.938
G32                                                                                                                                  25132816.520    98626731.632       -2711.903          45.188
R01  22675461.940   121212803.842       -3462.165          42.250    22675463.980    94276629.557       -2692.798          36.938
R02  21343644.620   113894322.458       -1217.941          47.375    21343644.800    88584044.259        -947.288          45.312
R03  23545326.620   126039396.996        1677.565          40.312    23545323.860    98030642.361        1304.773          39.625
R11  22639784.240   120981049.636        -441.227          43.188    22639784.940    94096404.981        -343.177          40.938
R12  21734431.440   116101430.385         686.023          43.812
R13  23831120.700   127256352.900        1439.107          37.625    23831121.040    98977192.144        1119.304          28.500
R21  23411984.440   125282544.427       -3374.830          39.875    23411983.120    97441819.633       -2624.871          42.000
R22  20021246.680   106875418.772        -234.247          49.375    20021246.600    83125349.769        -182.191          48.812
R23  21025591.480   112472956.132        3614.801          47.750    21025592.280    87478312.540        2811.512          41.125
E02  25136683.420   132093593.501          29.483          50.375    25136680.540   101214591.892          22.645          52.250    25136681.840    99928098.929          22.358          48.750    25136682.320    98641341.960          22.071          50.625
E03  25530568.720   134164709.829       -2402.511          49.875    25530567.520   102801493.477       -1840.757          51.875    25530568.300   101494651.272       -1817.392          47.625    25530568.800   100187853.063       -1793.985          49.188
E07  27537131.980   144708005.750        1342.440          43.875    27537129.560   110880553.867        1028.575          48.688    27537130.660   109470566.939        1015.490          42.500    27537133.800   108061304.995        1002.472          43.812
E08  22910603.660   120396552.386        -720.703          51.062    22910600.080    92251908.232        -552.098          52.438    22910601.180    91079384.116        -545.068          49.000    22910601.500    89906522.005        -538.108          50.438
E30  24653803.960   129556111.956         654.613          48.062    24653802.100    99270663.412         501.686          50.625    24653802.660    98008755.812         495.317          45.500    24653803.500    96746836.211         488.930          47.188
S20  38226526.200   200882236.965          39.330          42.375
S35  40665709.860   213699176.482          -3.147          40.250
S38  38181659.940   200646411.592           -.948          46.312
> 2018 01 01 00 00 10.0000000  0 29
G03  24426597.360   128362240.318       -1249.967          39.625    24426594.880   100022644.119        -973.998          38.875    24426594.880    95855291.798        -933.602          47.125
G08  21775625.960   114432351.036        2710.868          47.125    21775622.440    89167749.120        2112.366          44.562    21775622.900    85451913.948        2024.393          51.625
G09  24871143.100   130699014.701        3210.732          41.812    24871140.060   101843387.957        2501.871          34.938    24871141.900    97599546.829        2397.727          47.625
G14  22790458.560   119764112.761       -3310.228          43.750    22790452.500    93322686.409       -2579.397          38.625
G16  21426138.020   112594695.001       -1281.272          48.188    21426130.840    87736133.740        -998.394          44.125
G21  25449141.220   133736257.327        -918.651          41.875    25449132.800   104210492.379        -715.827          31.375
G22  24254587.200   127458860.412       -1181.149          42.875    24254578.140    99318667.441        -920.371          37.312
G23  22347195.300   117435172.431        2403.096          47.875    22347186.160    91508307.066        1872.543          41.125
G26  22667486.560   119119253.296       -1715.710          47.125    22667483.160    92819242.788       -1336.917          42.375    22667483.900    88952172.544       -1281.333          50.438
G27  19990040.020   105049121.676         607.129          49.938    19990035.200    81856252.086         473.087          49.750    19990036.280    78445142.686         453.443          52.812
G31  22493729.660   118205879.555        -821.720          48.875    22493722.080    92108514.357        -640.302          42.375
G32                                                                                                                                  25133507.860    98629443.450       -2711.865          47.750
R01  22676109.640   121216266.100       -3462.362          42.188    22676111.660    94279322.418       -2692.952          36.875
R02  21343872.920   113895540.665       -1218.691          47.562    21343873.100    88584991.753        -947.870          45.188
R03  23545013.220   126037719.378        1676.926          40.375    23545010.480    98029337.545        1304.274          39.750
R11  22639866.800   120981490.855        -441.478          43.188    22639867.480    94096748.156        -343.370          40.875
R12  21734302.980   116100744.149         686.195          43.625
R13  23830851.220   127254913.644        1438.914          37.750    23830851.460    98976072.720        1119.153          29.125
R21  23412615.140   125285919.358       -3375.168          40.188    23412613.820    97444444.568       -2625.136          42.188
R22  20021290.620   106875653.396        -235.147          49.375    20021290.540    83125532.250        -182.893          48.688
R23  21024915.740   112469341.440        3614.299          47.688    21024916.540    87475501.111        2811.120          41.000
E02  25136677.800   132093563.844          29.593          50.375    25136674.880   101214569.168          22.681          52.250    25136676.200    99928076.494          22.380          48.812    25136676.700    98641319.815          22.075          50.625
E03  25531025.900   134167112.245       -2402.519          49.812    25531024.680   102803334.285       -1840.846          51.875    25531025.460   101496468.680       -1817.451          47.625    25531025.960   100189647.079       -1794.113          49.188
E07  27536876.520   144706663.477        1341.930          43.875    27536874.200   110879525.383        1028.165          48.750    27536875.240   109469551.520        1015.200          42.438    27536878.360   108060302.641        1002.234          43.750
E08  22910740.820   120397273.100        -721.031          51.125    22910737.220    92252460.470        -552.460          52.562    22910738.340    91079929.336        -545.468          49.062    22910738.640    89907060.204        -538.453          50.500
E30  24653679.360   129555457.213         654.658          48.062    24653677.520    99270161.730         501.605          50.625    24653678.080    98008260.513         495.177          45.375    24653678.900    96746347.285         488.850          47.250
S20  38226518.460   200882197.768          39.014          42.375
S35  40665710.420   213699179.827          -3.287          40.312
S38  38181660.120   200646412.396           -.997          46.438
> 2018 01 01 00 00 11.0000000  0 28
G03  24426835.260   128363490.564       -1250.202          39.500    24426832.800   100023618.347        -974.181          37.500    24426832.760    95856225.428        -933.644          47.188
G08  21775110.120   114429640.323        2710.378          46.938    21775106.600    89165636.874        2111.983          44.688    21775107.060    85449889.716        2024.081          51.625
G09  24870532.120   130695803.877        3210.515          41.875    24870529.100   101840886.020        2501.701          35.875    24870530.920    97597149.133        2397.633          47.688
G14  22791088.480   119767423.013       -3310.385          43.500    22791082.440    93325265.830       -2579.519          37.625
G16  21426381.860   112595976.291       -1281.240          48.188    21426374.660    87737132.145        -998.370          43.938
G21  25449316.100   133737176.215        -919.306          41.812    25449307.760   104211208.388        -716.340          32.875
G22  24254811.940   127460041.441       -1180.984          42.750    24254802.880    99319587.714        -920.246          37.312
G23  22346738.000   117432769.387        2402.703          47.750    22346728.880    91506434.558        1872.235          40.938
G26  22667813.040   119120969.018       -1715.719          47.125    22667809.640    92820579.710       -1336.925          42.875    22667810.380    88953453.765       -1281.193          50.562
G27  19989924.520   105048514.699         606.484          49.875    19989919.680    81855779.115         472.584          49.812    19989920.780    78444689.421         453.056          52.812
G31  22493886.060   118206701.451        -822.097          48.812    22493878.500    92109154.793        -640.596          42.562
G32                                                                                                                                  25134198.800    98632155.359       -2711.691          45.625
R01  22676757.340   121219728.384       -3462.217          42.312    22676759.320    94282015.307       -2692.838          36.688
R02  21344101.320   113896759.548       -1219.200          47.562    21344101.520    88585939.775        -948.266          45.250
R03  23544699.960   126036042.476        1676.590          40.312    23544697.220    98028033.285        1304.013          39.438
R11  22639949.400   120981932.159        -441.324          43.250    22639950.040    94097091.392        -343.252          40.875
R12  21734174.500   116100057.850         686.345          43.875
R13  23830581.660   127253474.220        1439.127          37.812    23830581.880    98974953.161        1119.317          28.312
R21  23413245.920   125289294.824       -3375.873          40.562    23413244.640    97447069.925       -2625.684          42.000
R22  20021334.760   106875888.962        -236.077          49.250    20021334.680    83125715.468        -183.616          48.750
R23  21024240.100   112465727.184        3613.941          47.688    21024240.900    87472690.017        2810.842          41.125
E02  25136672.140   132093534.127          29.700          50.312    25136669.220   101214546.400          22.846          52.250    25136670.540    99928054.013          22.575          48.750    25136671.040    98641297.626          22.277          50.625
E03  25531483.100   134169514.768       -2402.499          49.812    25531481.880   102805175.190       -1840.842          51.875    25531482.640   101498286.185       -1817.481          47.625    25531483.140   100191441.177       -1794.058          49.250
E07  27536621.160   144705321.601        1341.751          43.875    27536618.900   110878497.186        1028.102          48.875    27536619.900   109468536.410        1014.955          42.625    27536622.980   108059300.602        1002.028          43.625
E08  22910878.040   120397994.236        -721.440          51.062    22910874.440    92253013.022        -552.660          52.438    22910875.560    91080474.867        -545.677          49.062    22910875.860    89907598.704        -538.593          50.438
E30  24653554.760   129554802.427         654.599          47.938    24653552.920    99269660.009         501.799          50.625    24653553.480    98007765.164         495.405          45.438    24653554.300    96745858.314         489.070          47.250
S35  40665711.080   213699183.263          -3.584          40.062
S38  38181660.300   200646413.261          -1.026          46.312
> 2018 01 01 00 00 12.0000000  0 28
G03  24427073.200   128364740.819       -1250.022          39.625    24427070.740   100024592.565        -974.043          38.625    24427070.660    95857159.056        -933.740          47.188
G08  21774594.340   114426929.952        2710.129          46.938    21774590.820    89163524.896        2111.789          44.625    21774591.280    85447865.742        2023.762          51.625
G09  24869921.160   130692593.195        3210.478          42.000    24869918.140   101838384.181        2501.671          35.625    24869919.960    97594751.539        2397.441          47.688
G14  22791718.420   119770733.452       -3310.597          43.375    22791712.400    93327845.393       -2579.684          39.125
G16  21426625.680   112597257.624       -1281.486          48.125    21426618.500    87738130.586        -998.561          43.812
G21  25449491.020   133738095.362        -919.335          41.750    25449482.700   104211924.610        -716.362          31.750
G22  24255036.680   127461222.350       -1180.902          42.750    24255027.580    99320507.897        -920.183          36.562
G23  22346280.780   117430366.738        2402.389          47.750    22346271.660    91504562.363        1871.991          41.750
G26  22668139.500   119122684.588       -1715.552          47.188    22668136.100    92821916.515       -1336.794          41.875    22668136.840    88954734.869       -1281.123          50.500
G27  19989809.120   105047908.318         605.927          49.875    19989804.280    81855306.609         472.150          49.688    19989805.380    78444236.612         452.482          52.812
G31  22494042.500   118207523.527        -822.284          48.812    22494034.940    92109795.372        -640.741          42.312
G32                                                                                                                                  25134889.740    98634866.941       -2711.968          47.062
R01  22677405.000   121223190.563       -3462.290          42.250    22677406.980    94284708.112       -2692.895          36.188
R02  21344329.860   113897979.004       -1219.766          47.375    21344330.040    88586888.239        -948.706          45.375
R03  23544386.820   126034366.137        1676.102          40.625    23544384.060    98026729.465        1303.633          39.625
R11  22640032.000   120982373.417        -441.116          43.562    22640032.580    94097434.591        -343.090          40.875
R12  21734045.980   116099371.362         686.528          43.750
R13  23830312.060   127252034.533        1439.746          38.000    23830312.240    98973833.399        1119.799          27.938
R21  23413876.800   125292670.651       -3376.309          40.750    23413875.500    97449695.566       -2626.023          42.062
R22  20021379.040   106876125.334        -236.777          49.312    20021378.960    83125899.312        -184.161          48.625
R23  21023564.520   112462113.247        3613.704          47.625    21023565.300    87469879.176        2810.657          41.062
E02  25136666.460   132093504.226          29.901          50.375    25136663.540   101214523.491          22.879          52.250    25136664.860    99928031.397          22.573          48.750    25136665.380    98641275.299          22.291          50.688
E03  25531940.300   134171917.312       -2402.629          49.812    25531939.060   102807016.098       -1840.989          51.812    25531939.820   101500103.690       -1817.607          47.562    25531940.320   100193235.278       -1794.171          49.250
E07  27536365.840   144703980.023        1341.283          43.688    27536363.660   110877469.223        1027.730          48.875    27536364.620   109467521.506        1014.623          42.562    27536367.660   108058298.777        1001.548          43.688
E08  22911015.320   120398715.652        -721.648          51.062    22911011.720    92253565.804        -552.977          52.438    22911012.840    91081020.620        -545.944          48.938    22911013.120    89908137.433        -538.940          50.500
E30  24653430.120   129554147.469         654.880          48.000    24653428.280    99269158.158         501.843          50.625    24653428.840    98007269.696         495.446          45.375    24653429.660    96745369.226         489.032          47.312
S35  40665711.740   213699186.692          -3.567          40.125
S38  38181660.460   200646414.109           -.923          46.312
> 2018 01 01 00 00 13.0000000  0 28
G03  24427311.120   128365991.139       -1250.127          39.875    24427308.700   100025566.828        -974.128          39.250    24427308.560    95858092.717        -933.482          47.375
G08  21774078.640   114424219.986        2709.949          46.875    21774075.140    89161413.236        2111.650          44.188    21774075.600    85445842.069        2023.639          51.625
G09  24869310.220   130689382.697        3210.612          41.875    24869307.160   101835882.499        2501.777          35.500    24869309.040    97592354.095        2397.561          47.688
G14  22792348.420   119774044.116       -3310.647          43.375    22792342.380    93330425.135       -2579.722          37.500
G16  21426869.520   112598539.023       -1281.174          48.188    21426862.340    87739129.078        -998.317          44.125
G21  25449666.000   133739014.854        -919.381          41.688    25449657.760   104212641.099        -716.398          32.125
G22  24255261.380   127462403.175       -1180.651          42.938    24255252.260    99321428.010        -919.992          37.375
G23  22345823.640   117427964.519        2402.183          47.812    22345814.520    91502690.505        1871.831          41.750
G26  22668465.960   119124400.086       -1715.234          47.188    22668462.540    92823253.267       -1336.547          42.375    22668463.300    88956015.919       -1280.846          50.562
G27  19989693.860   105047302.585         605.540          49.938    19989689.020    81854834.611         471.850          49.750    19989690.120    78443784.282         452.140          52.812
G31  22494198.980   118208345.822        -822.123          48.750    22494191.420    92110436.122        -640.616          42.125
G32  25135578.480   132089119.986       -3630.544          39.688    25135579.260   102926586.583       -2828.995          32.875    25135580.880    98637578.497       -2710.789          43.625
R01  22678052.660   121226652.676       -3461.776          42.375    22678054.620    94287400.869       -2692.492          36.875
R02  21344558.500   113899199.062       -1220.126          47.500    21344558.700    88587837.175        -948.986          45.375
R03  23544073.800   126032690.426        1675.581          40.688    23544071.040    98025426.134        1303.228          39.938
R11  22640114.560   120982814.657        -441.148          43.375    22640115.140    94097777.773        -343.116          40.875
R12  21733917.460   116098684.748         686.827          43.875
R13  23830042.440   127250594.617        1440.326          38.000    23830042.560    98972713.473        1120.252          28.312
R21  23414507.740   125296046.907       -3376.161          41.000    23414506.440    97452321.538       -2625.907          42.375
R22  20021423.480   106876362.577        -237.417          49.312    20021423.400    83126083.835        -184.657          48.625
R23  21022889.000   112458499.692        3613.669          47.625    21022889.780    87467068.635        2810.631          41.125
E02  25136660.740   132093474.190          30.261          50.375    25136657.820   101214500.473          23.233          52.188    25136659.140    99928008.674          22.934          48.688    25136659.680    98641252.864          22.617          50.625
E03  25532397.500   134174319.891       -2402.468          49.812    25532396.260   102808857.033       -1840.817          51.812    25532397.020   101501921.225       -1817.431          47.500    25532397.500   100195029.416       -1794.059          49.250
E07  27536110.580   144702638.766        1341.243          43.625    27536108.480   110876441.515        1027.661          48.875    27536109.380   109466506.857        1014.560          42.625    27536112.400   108057297.185        1001.587          43.750
E08  22911152.680   120399437.418        -721.770          51.125    22911149.060    92254118.843        -553.016          52.438    22911150.180    91081566.629        -545.951          48.938    22911150.460    89908676.415        -538.944          50.562
E30  24653305.460   129553492.389         655.287          47.938    24653303.620    99268656.222         502.106          50.625    24653304.200    98006774.140         495.649          45.312    24653304.980    96744880.051         489.273          47.312
S35  40665712.300   213699190.100          -3.057          40.188
S38  38181660.600   200646414.903           -.595          46.250
> 2018 01 01 00 00 14.0000000  0 28
G03  24427549.020   128367241.417       -1249.966          39.875    24427546.680   100026541.063        -974.002          37.500    24427546.460    95859026.380        -933.574          47.375
G08  21773563.020   114421510.368        2709.300          46.875    21773559.500    89159301.848        2111.143          44.812    21773559.960    85443818.654        2023.244          51.625
G09  24868699.340   130686172.351        3210.131          41.750    24868696.260   101833380.920        2501.398          35.625    24868698.140    97589956.759        2397.245          47.750
G14  22792978.460   119777354.964       -3311.013          43.250    22792972.440    93333005.021       -2580.008          38.750
G16  21427113.380   112599820.460       -1281.498          48.125    21427106.200    87740127.603        -998.568          44.188
G21  25449841.040   133739934.636        -920.030          41.688    25449832.800   104213357.805        -716.906          32.375
G22  24255486.080   127463583.858       -1180.747          43.250    24255476.920    99322348.014        -920.066          36.250
G23  22345366.580   117425562.682        2401.596          47.875    22345357.460    91500818.941        1871.373          41.562
G26  22668792.380   119126115.422       -1715.269          47.125    22668788.980    92824589.894       -1336.573          42.000    22668789.700    88957296.855       -1280.860          50.562
G27  19989578.700   105046697.431         604.751          49.938    19989573.860    81854363.064         471.234          49.688    19989574.980    78443332.379         451.674          52.812
G31  22494355.480   118209168.300        -822.582          48.812    22494347.940    92111077.014        -640.974          42.250
G32  25136270.340   132092751.147       -3630.873          38.500                                                                    25136271.980    98640289.855       -2711.927          42.938
R01  22678700.280   121230114.686       -3462.143          42.375    22678702.260    94290093.545       -2692.777          36.500
R02  21344787.240   113900419.671       -1220.910          47.500    21344787.440    88588786.537        -949.597          45.312
R03  23543760.900   126031015.303        1674.809          40.500    23543758.120    98024123.256        1302.628          39.875
R11  22640197.100   120983255.809        -441.424          43.250    22640197.660    94098120.893        -343.329          40.625
R12  21733788.880   116097997.926         686.942          43.875
R13  23829772.780   127249154.412        1440.261          38.062    23829772.860    98971593.322        1120.205          27.812
R21  23415138.780   125299423.576       -3376.979          41.312    23415137.480    97454947.835       -2626.544          42.625
R22  20021468.080   106876600.636        -238.518          49.312    20021468.000    83126268.992        -185.513          48.625
R23  21022213.540   112454886.452        3613.033          47.625    21022214.320    87464258.339        2810.137          41.312
E02  25136655.000   132093443.953          30.237          50.375    25136652.060   101214477.306          23.238          52.125    25136653.380    99927985.801          22.938          48.625    25136653.920    98641230.286          22.651          50.688
E03  25532854.700   134176722.464       -2402.663          49.938    25532853.460   102810697.965       -1841.001          51.750    25532854.220   101503738.755       -1817.588          47.375    25532854.700   100196823.543       -1794.200          49.250
E07  27535855.380   144701297.784        1340.770          43.875    27535853.340   110875413.999        1027.475          48.812    27535854.220   109465492.408        1014.411          42.375    27535857.200   108056295.809        1001.197          43.625
E08  22911290.080   120400159.468        -722.198          51.125    22911286.460    92254672.104        -553.415          52.375    22911287.580    91082112.855        -546.329          48.875    22911287.860    89909215.604        -539.300          50.562
E30  24653180.760   129552837.133         655.192          47.938    24653178.940    99268154.137         502.120          50.438    24653179.500    98006278.432         495.771          45.125    24653180.280    96744390.729         489.401          47.250
S35  40665712.920   213699193.400          -3.132          40.125
S38  38181660.700   200646415.623           -.678          46.188
> 2018 01 01 00 00 15.0000000  0 28
G03  24427786.900   128368491.535       -1250.162          40.000    24427784.580   100027515.188        -974.153          39.125    24427784.340    95859959.905        -933.583          47.375
G08  21773047.420   114418800.906        2709.040          46.875    21773043.920    89157190.584        2110.942          44.562    21773044.360    85441795.346        2023.183          51.688
G09  24868088.420   130682961.916        3210.580          41.750    24868085.300   101830879.293        2501.752          35.625    24868087.240    97587559.378        2397.277          47.875
G14  22793608.500   119780665.803       -3310.909          43.312    22793602.460    93335584.895       -2579.928          37.875
G16  21427357.200   112601101.724       -1281.314          48.250    21427350.020    87741125.995        -998.426          44.000
G21  25450016.080   133740854.513        -920.352          41.688    25450007.900   104214074.583        -717.160          31.625
G22  24255710.700   127464764.194       -1180.245          43.625    24255701.520    99323267.750        -919.677          36.188
G23  22344909.560   117423161.043        2401.413          47.875    22344900.460    91498947.535        1871.231          41.562
G26  22669118.740   119127830.440       -1714.936          47.125    22669115.320    92825926.272       -1336.313          41.625    22669116.060    88958577.550       -1280.642          50.562
G27  19989463.620   105046092.681         604.458          49.938    19989458.760    81853891.832         471.007          49.750    19989459.900    78442880.782         451.409          52.812
G31  22494512.000   118209990.771        -822.590          48.875    22494504.460    92111717.901        -640.979          42.375
G32  25136961.620   132096382.171       -3631.060          37.938    25136961.100   102931383.094       -2829.398          28.250
R01  22679347.880   121233576.381       -3461.655          42.438    22679349.820    94292785.976       -2692.399          36.750
R02  21345016.040   113901640.650       -1221.208          47.500    21345016.260    88589736.190        -949.828          45.375
R03  23543448.040   126029340.544        1674.487          40.875    23543445.280    98022820.664        1302.377          39.812
R11  22640279.620   120983696.727        -440.962          43.188    22640280.160    94098463.832        -342.970          40.750
R12  21733660.220   116097310.728         687.302          43.750
R13  23829503.020   127247713.736        1440.661          38.062    23829503.020    98970472.808        1120.518          27.062
R21  23415769.840   125302800.423       -3377.035          41.625    23415768.540    97457574.269       -2626.587          42.562
R22  20021512.800   106876839.320        -239.160          49.375    20021512.720    83126454.637        -186.013          48.688
R23  21021538.120   112451273.315        3613.037          47.625    21021538.860    87461448.120        2810.140          41.188
E02  25136649.180   132093413.332          30.756          50.375    25136646.240   101214453.847          23.529          52.188    25136647.560    99927962.642          23.217          48.688    25136648.120    98641207.427          22.907          50.688
E03  25533311.840   134179124.830       -2402.477          49.938    25533310.600   102812538.745       -1840.847          51.750    25533311.360   101505556.132       -1817.459          47.375    25533311.840   100198617.524       -1794.017          49.250
E07  27535600.200   144699956.886        1340.871          43.875    27535598.240   110874386.570        1027.328          48.875    27535599.060   109464478.037        1014.215          42.562    27535602.000   108055294.483        1001.236          43.625
E08  22911427.500   120400881.615        -722.273          51.125    22911423.880    92255225.436        -553.443          52.375    22911425.000    91082659.157        -546.379          48.875    22911425.260    89909754.877        -539.405          50.562
E30  24653056.000   129552181.510         655.668          47.875    24653054.180    99267651.776         502.441          50.562    24653054.740    98005782.463         496.003          45.312    24653055.520    96743901.151         489.478          47.375
S35  40665713.460   213699196.354          -2.989          40.375
S38  38181660.780   200646416.062           -.376          46.312
> 2018 01 01 00 00 16.0000000  0 28
G03  24428024.760   128369741.645       -1250.421          40.062    24428022.480   100028489.306        -974.352          37.938    24428022.200    95860893.427        -933.668          47.500
G08  21772531.880   114416091.794        2708.676          47.000    21772528.380    89155079.588        2110.658          44.125    21772528.840    85439772.319        2022.729          51.688
G09  24867477.540   130679751.670        3210.099          41.812    24867474.400   101828377.800        2501.375          34.750    24867476.360    97585162.116        2397.043          47.812
G14  22794238.560   119783976.858       -3311.472          43.250    22794232.580    93338164.936       -2580.367          38.875
G16  21427601.020   112602383.031       -1281.476          48.312    21427593.840    87742124.415        -998.552          43.688
G21  25450191.180   133741774.655        -920.473          41.875    25450183.040   104214791.566        -717.256          33.562
G22  24255935.280   127465944.420       -1180.446          43.688    24255926.080    99324187.396        -919.833          37.375
G23  22344452.620   117420759.800        2400.804          47.875    22344443.500    91497076.434        1870.756          41.562
G26  22669445.080   119129545.331       -1715.174          47.188    22669441.660    92827262.555       -1336.499          42.062    22669442.400    88959858.151       -1280.724          50.562
G27  19989348.640   105045488.536         603.594          49.938    19989343.800    81853421.070         470.334          49.750    19989344.940    78442429.635         450.731          52.812
G31  22494668.540   118210813.434        -823.031          48.875    22494661.000    92112358.936        -641.322          42.312
G32  25137652.020   132100013.022       -3631.875          38.125    25137655.040   102934212.257       -2830.032          36.688    25137654.160    98645714.622       -2711.548          47.250
R01  22679995.440   121237037.984       -3461.731          42.250    22679997.380    94295478.335       -2692.457          36.625
R02  21345244.960   113902862.189       -1222.172          47.562    21345245.200    88590686.273        -950.578          45.375
R03  23543135.300   126027666.414        1673.502          40.688    23543132.560    98021518.564        1301.611          39.938
R11  22640362.100   120984137.631        -441.211          42.938    22640362.640    94098806.759        -343.163          40.812
R12  21733531.520   116096623.345         687.251          44.062
R13  23829233.220   127246272.776        1440.902          37.875    23829233.160    98969352.066        1120.705          27.625
R21  23416400.980   125306177.703       -3377.735          41.688    23416399.700    97460201.042       -2627.130          42.625
R22  20021557.680   106877078.833        -240.170          49.312    20021557.580    83126640.928        -186.798          48.688
R23  21020862.720   112447660.498        3612.396          47.625    21020863.480    87458638.153        2809.642          41.375
E02  25136643.340   132093382.545          30.639          50.375    25136640.360   101214430.257          23.496          52.188    25136641.700    99927939.350          23.217          48.688    25136642.260    98641184.432          22.925          50.688
E03  25533769.000   134181527.204       -2402.670          49.938    25533767.780   102814379.521       -1840.988          51.812    25533768.520   101507373.513       -1817.603          47.375    25533768.980   100200411.498       -1794.216          49.312
E07  27535345.060   144698616.297        1340.080          43.875    27535343.180   110873359.357        1026.863          48.938    27535343.960   109463463.879        1013.819          42.625    27535346.880   108054293.381        1000.897          43.375
E08  22911564.980   120401604.078        -722.851          51.125    22911561.360    92255779.005        -553.833          52.438    22911562.480    91083205.688        -546.798          48.875    22911562.740    89910294.371        -539.758          50.562
E30  24652931.200   129551525.729         655.626          47.938    24652929.380    99267149.295         502.391          50.500    24652929.960    98005286.367         495.986          45.250    24652930.720    96743411.431         489.607          47.375
S35  40665713.980   213699199.268          -3.118          40.125
S38  38181660.860   200646416.440           -.569          46.188
> 2018 01 01 00 00 17.0000000  0 28
G03  24428262.680   128370992.031       -1250.370          39.938    24428260.440   100029463.635        -974.311          38.938    24428260.140    95861827.168        -933.810          47.375
G08  21772016.460   114413383.306        2708.355          47.125    21772012.980    89152969.079        2110.409          44.000    21772013.440    85437749.750        2022.419          51.625
G09  24866866.740   130676541.852        3209.679          41.750    24866863.600   101825876.639        2501.047          33.812    24866865.560    97582765.166        2396.827          47.750
G14  22794868.720   119787288.353       -3311.806          43.188    22794862.740    93340745.326       -2580.627          38.750
G16  21427844.900   112603664.652       -1281.647          48.375    21427837.720    87743123.079        -998.686          43.312
G21  25450366.400   133742695.389        -920.877          41.812    25450358.280   104215509.042        -717.565          27.812
G22  24256159.900   127467124.780       -1180.352          43.812    24256150.660    99325107.164        -919.757          36.250
G23  22343995.800   117418359.216        2400.370          47.875    22343986.680    91495205.848        1870.417          41.500
G26  22669771.440   119131260.362       -1714.994          47.188    22669768.000    92828598.945       -1336.359          42.188    22669768.760    88961138.848       -1280.674          50.562
G27  19989233.840   105044885.261         603.056          49.938    19989229.000    81852950.986         469.914          49.688    19989230.140    78441979.139         450.231          52.812
G31  22494825.180   118211636.546        -823.210          48.812    22494817.640    92113000.321        -641.463          42.375
G32  25138343.060   132103644.228       -3630.814          41.500    25138344.780   102937041.719       -2829.206          28.562    25138345.240    98648426.479       -2711.213          41.250
R01  22680643.020   121240499.772       -3461.834          42.438    22680644.980    94298170.836       -2692.538          36.750
R02  21345474.040   113904084.516       -1222.633          47.562    21345474.260    88591636.971        -950.936          45.375
R03  23542822.720   126025993.125        1672.907          40.750    23542820.000    98020217.116        1301.150          39.875
R11  22640444.640   120984578.767        -441.019          42.812    22640445.160    94099149.866        -343.013          40.688
R12  21733402.860   116095936.058         687.453          44.125
R13  23828963.400   127244831.824        1440.885          37.938    23828963.280    98968231.324        1120.691          27.250
R21  23417032.300   125309555.622       -3378.185          41.750    23417030.960    97462828.313       -2627.480          42.625
R22  20021602.740   106877319.474        -241.088          49.375    20021602.660    83126828.090        -187.512          48.625
R23  21020187.460   112444048.280        3612.027          47.625    21020188.220    87455828.648        2809.355          41.375
E02  25136637.500   132093351.843          30.780          50.375    25136634.520   101214406.734          23.550          52.250    25136635.860    99927916.122          23.239          48.750    25136636.440    98641161.509          22.934          50.688
E03  25534226.220   134183929.856       -2402.747          49.875    25534224.980   102816220.506       -1840.984          51.812    25534225.720   101509191.098       -1817.618          47.500    25534226.180   100202205.680       -1794.180          49.250
E07  27535090.040   144697276.231        1339.984          43.875    27535088.220   110872332.564        1026.660          49.062    27535088.960   109462450.138        1013.639          42.625    27535091.840   108053292.706        1000.503          43.125
E08  22911702.580   120402327.086        -723.099          51.125    22911698.940    92256333.001        -554.121          52.438    22911700.060    91083752.642        -547.108          49.000    22911700.320    89910834.282        -540.058          50.500
E30  24652806.420   129550870.050         655.708          47.875    24652804.620    99266646.895         502.379          50.562    24652805.200    98004790.344         496.090          45.375    24652805.940    96742921.797         489.689          47.250
S35  40665714.600   213699202.410          -3.127          40.375
S38  38181660.920   200646417.012           -.562          46.125
> 2018 01 01 00 00 18.0000000  0 28
G03  24428500.660   128372242.590       -1250.309          40.250    24428498.420   100030438.101        -974.265          38.188    24428498.100    95862761.029        -933.840          47.375
G08  21771501.160   114410675.374        2707.626          47.188    21771497.660    89150859.006        2109.841          44.375    21771498.120    85435727.590        2021.955          51.625
G09  24866256.020   130673332.374        3209.251          41.750    24866252.880   101823375.737        2500.714          32.188    24866254.820    97580368.466        2396.605          47.688
G14  22795498.940   119790600.221       -3311.899          43.125    22795493.000    93343326.000       -2580.700          39.250
G16  21428088.820   112604946.480       -1281.948          48.250    21428081.660    87744121.899        -998.921          43.625
G21  25450541.680   133743616.578        -921.312          41.562    25450533.600   104216226.848        -717.905          31.688
G22  24256384.540   127468305.179       -1180.440          43.688    24256375.280    99326026.967        -919.822          35.688
G23  22343539.080   117415959.201        2399.789          47.875    22343529.960    91493335.710        1869.965          41.375
G26  22670097.820   119132975.426       -1715.083          47.188    22670094.380    92829935.356       -1336.428          41.688    22670095.120    88962419.584       -1280.686          50.500
G27  19989119.200   105044282.768         602.050          49.938    19989114.340    81852481.509         469.130          49.812    19989115.500    78441529.226         449.577          52.812
G31  22494981.880   118212460.021        -823.626          48.812    22494974.340    92113641.989        -641.787          42.312
G32  25139035.260   132107275.805       -3630.351          35.562    25139034.260   102939871.597       -2828.846          34.375    25139036.160    98651138.109       -2712.085          45.250
R01  22681290.660   121243961.629       -3461.889          42.250    22681292.580    94300863.390       -2692.580          36.938
R02  21345703.240   113905307.588       -1223.421          47.500    21345703.480    88592588.246        -951.550          45.375
R03  23542510.300   126024320.642        1672.052          40.625    23542507.580    98018916.296        1300.483          39.875
R11  22640527.260   120985020.038        -441.372          43.000    22640527.720    94099493.078        -343.288          40.688
R12  21733274.240   116095248.755         687.459          44.125
R13  23828693.560   127243390.762        1441.522          38.062    23828693.360    98967110.479        1121.181          27.625
R21  23417663.620   125312934.110       -3378.698          41.750    23417662.320    97465456.027       -2627.877          42.625
R22  20021648.020   106877561.120        -242.187          49.500    20021647.940    83127016.038        -188.366          48.625
R23  21019512.280   112440436.543        3611.544          47.500    21019513.040    87453019.520        2808.978          41.375
E02  25136631.660   132093321.146          30.616          50.375    25136628.680   101214383.204          23.543          52.250    25136630.020    99927892.894          23.260          48.688    25136630.600    98641138.579          22.922          50.625
E03  25534683.460   134186332.681       -2402.924          49.875    25534682.220   102818061.636       -1841.182          51.812    25534682.960   101511008.819       -1817.752          47.500    25534683.420   100203999.998       -1794.315          49.188
E07  27534835.100   144695936.657        1339.298          44.062    27534833.340   110871306.125        1026.362          49.000    27534834.060   109461436.747        1013.348          42.562    27534836.900   108052292.357        1000.235          43.375
E08  22911840.260   120403050.576        -723.682          51.125    22911836.620    92256887.363        -554.525          52.438    22911837.740    91084299.961        -547.505          49.000    22911837.980    89911374.550        -540.421          50.500
E30  24652681.640   129550214.379         655.742          47.875    24652679.840    99266144.494         502.454          50.562    24652680.420    98004294.341         496.049          45.188    24652681.160    96742432.183         489.617          47.188
S35  40665715.180   213699205.726          -3.237          40.375
S38  38181661.080   200646417.740           -.755          46.625
> 2018 01 01 00 00 19.0000000  0 28
G03  24428738.620   128373493.141       -1250.696          40.375    24428736.420   100031412.567        -974.565          38.625    24428736.080    95863694.863        -933.760          47.562
G08  21770985.900   114407967.714        2707.534          47.250    21770982.420    89148749.141        2109.768          44.125    21770982.880    85433705.636        2021.860          51.625
G09  24865645.280   130670122.945        3209.465          41.625    24865642.020   101820874.894        2500.882          33.875    24865644.100    97577971.822        2396.758          47.688
G14  22796129.180   119793912.210       -3311.890          43.125    22796123.260    93345906.767       -2580.694          37.812
G16  21428332.760   112606228.277       -1281.728          48.312    21428325.580    87745120.705        -998.751          44.062
G21  25450717.020   133744537.999        -921.530          41.625    25450709.000   104216944.828        -718.078          30.812
G22  24256609.140   127469485.394       -1180.144          43.375    24256599.840    99326946.610        -919.594          36.812
G23  22343082.420   117413559.524        2399.534          47.875    22343073.300    91491465.831        1869.767          41.562
G26  22670424.160   119134690.300       -1714.784          47.188    22670420.700    92831271.621       -1336.195          42.188    22670421.460    88963700.173       -1280.510          50.375
G27  19989004.640   105043680.815         601.685          49.938    19988999.800    81852012.456         468.846          49.812    19989000.960    78441079.713         449.297          52.812
G31  22495138.600   118213283.622        -823.612          48.812    22495131.080    92114283.756        -641.776          42.062
G32  25139726.260   132110906.754       -3631.277          40.312    25139725.240   102942700.790       -2829.566          35.062    25139726.980    98653849.316       -2711.345          43.500
R01  22681938.220   121247423.310       -3461.675          42.125    22681940.160    94303555.808       -2692.413          36.688
R02  21345932.540   113906531.168       -1223.846          47.375    21345932.780    88593539.920        -951.881          45.375
R03  23542197.980   126022648.667        1671.648          41.000    23542195.240    98017615.869        1300.169          39.875
R11  22640609.780   120985461.147        -441.024          43.125    22640610.220    94099836.162        -343.019          40.688
R12  21733145.540   116094561.218         687.766          44.062
R13  23828423.680   127241949.423        1441.343          38.125    23828423.440    98965989.427        1121.041          26.875
R21  23418295.060   125316312.987       -3378.883          41.812    23418293.760    97468084.047       -2628.020          42.688
R22  20021693.420   106877803.516        -242.743          49.562    20021693.340    83127204.568        -188.800          48.688
R23  21018837.140   112436825.053        3611.488          47.375    21018837.900    87450210.581        2808.934          41.688
E02  25136625.780   132093290.186          31.139          50.375    25136622.780   101214359.490          23.814          52.250    25136624.120    99927869.481          23.503          48.812    25136624.720    98641115.466          23.191          50.625
E03  25535140.700   134188735.441       -2402.623          49.875    25535139.460   102819902.714       -1840.979          51.812    25535140.200   101512826.496       -1817.601          47.562    25535140.640   100205794.273       -1794.215          49.188
E07  27534580.200   144694597.312        1339.019          44.125    27534578.520   110870279.877        1026.189          49.125    27534579.200   109460423.542        1013.167          42.688    27534582.000   108051292.190        1000.157          43.062
E08  22911977.980   120403774.305        -723.759          51.188    22911974.340    92257441.912        -554.613          52.438    22911975.460    91084847.457        -547.601          49.062    22911975.700    89911914.997        -540.528          50.375
E30  24652556.800   129549558.483         656.186          47.875    24652555.020    99265641.930         502.657          50.562    24652555.620    98003798.162         496.296          45.375    24652556.340    96741942.386         489.897          47.125
S35  40665715.780   213699208.942          -3.077          40.188
S38  38181661.200   200646418.329           -.296          46.312
> 2018 01 01 00 00 20.0000000  0 28
G03  24428976.480   128374743.259       -1250.113          40.125    24428974.320   100032386.678        -974.112          39.375    24428973.960    95864628.400        -933.394          47.562
G08  21770470.640   114405260.030        2707.602          47.188    21770467.180    89146639.260        2109.821          44.250    21770467.620    85431683.667        2021.901          51.625
G09  24865034.500   130666913.295        3209.787          41.375    24865031.240   101818373.862        2501.131          31.125    24865033.360    97575575.022        2396.807          47.500
G14  22796759.400   119797224.017       -3311.766          43.062    22796753.480    93348487.392       -2580.598          38.250
G16  21428576.620   112607509.741       -1281.330          48.188    21428569.440    87746119.246        -998.441          43.500
G21  25450892.340   133745459.307        -920.922          41.750    25450884.360   104217662.709        -717.608          29.875
G22  24256833.620   127470665.108       -1179.569          43.188    24256824.340    99327865.871        -919.145          36.625
G23  22342625.780   117411159.859        2399.427          47.875    22342616.660    91489595.956        1869.682          41.500
G26  22670750.380   119136404.658       -1714.233          47.125    22670746.920    92832607.485       -1335.766          41.750    22670747.700    88964980.377       -1280.154          50.375
G27  19988890.140   105043079.079         601.473          49.875    19988885.280    81851543.571         468.681          49.812    19988886.460    78440630.365         449.132          52.812
G31  22495295.280   118214107.030        -823.392          48.875    22495287.780    92114925.371        -641.605          42.250
G32  25140417.060   132114537.452       -3630.443          40.375    25140416.280   102945529.787       -2828.930          37.625    25140417.920    98656560.593       -2711.088          47.688
R01  22682585.700   121250884.525       -3461.236          41.938    22682587.640    94306247.865       -2692.072          36.875
R02  21346161.880   113907754.930       -1223.916          47.375    21346162.120    88594491.733        -951.937          45.375
R03  23541885.660   126020976.847        1671.527          40.688    23541882.940    98016315.562        1300.074          39.875
R11  22640692.260   120985901.860        -440.579          43.312    22640692.680    94100178.940        -342.672          40.875
R12  21733016.740   116093873.098         688.256          43.875
R13  23828153.660   127240507.425        1441.867          38.375    23828153.380    98964867.869        1121.448          27.312
R21  23418926.500   125319691.853       -3379.023          41.688    23418925.180    97470712.048       -2628.131          42.438
R22  20021738.920   106878046.351        -243.190          49.375    20021738.840    83127393.441        -189.147          48.625
R23  21018162.000   112433213.499        3611.412          47.375    21018162.780    87447401.599        2808.876          41.562
E02  25136619.780   132093258.679          31.682          50.375    25136616.780   101214335.342          24.267          52.250    25136618.120    99927845.640          23.978          48.750    25136618.740    98641091.932          23.641          50.625
E03  25535597.860   134191137.831       -2402.239          49.875    25535596.620   102821743.504       -1840.731          51.812    25535597.340   101514643.887       -1817.338          47.562    25535597.800   100207588.263       -1793.903          49.188
E07  27534325.280   144693257.861        1339.251          44.125    27534323.680   110869253.540        1026.228          49.188    27534324.320   109459410.254        1013.177          42.750    27534327.080   108050291.949        1000.162          42.938
E08  22912115.700   120404497.946        -723.723          51.188    22912112.040    92257996.385        -554.541          52.438    22912113.160    91085394.882        -547.486          49.062    22912113.380    89912455.373        -540.387          50.438
E30  24652431.880   129548902.053         656.544          47.688    24652430.100    99265138.945         503.064          50.562    24652430.700    98003301.573         496.626          45.250    24652431.420    96741452.182         490.369          47.125
S35  40665716.320   213699211.819          -3.171          40.312
S38  38181661.220   200646418.461            .077          46.250
> 2018 01 01 00 00 21.0000000  0 28
G03  24429214.360   128375993.287       -1250.125          40.062    24429212.200   100033360.720        -974.122          37.625    24429211.840    95865561.869        -933.534          47.500
G08  21769955.420   114402552.581        2707.235          47.250    21769951.960    89144529.559        2109.534          44.375    21769952.400    85429661.870        2021.586          51.625
G09  24864423.740   130663703.674        3209.662          41.312    24864420.500   101815872.859        2501.034          29.125    24864422.600    97573178.237        2396.655          47.500
G14  22797389.620   119800535.877       -3312.052          43.125    22797383.680    93351068.056       -2580.822          37.375
G16  21428820.460   112608791.121       -1281.510          48.125    21428813.280    87747117.722        -998.580          44.000
G21  25451067.720   133746380.833        -921.812          41.812    25451059.720   104218380.787        -718.297          32.938
G22  24257058.080   127471844.566       -1179.324          43.125    24257048.800    99328784.934        -918.952          36.688
G23  22342169.200   117408760.449        2399.156          47.875    22342160.040    91487726.286        1869.471          41.812
G26  22671076.580   119138118.771       -1714.096          47.000    22671073.120    92833943.156       -1335.659          41.875    22671073.880    88966260.397       -1280.025          50.375
G27  19988775.720   105042477.813         600.803          49.875    19988770.860    81851075.052         468.158          49.875    19988772.040    78440181.368         448.696          52.750
G31  22495452.000   118214930.507        -823.664          48.812    22495444.500    92115567.037        -641.818          42.625
G32  25141107.880   132118167.883       -3630.488          38.750    25141106.240   102948358.659       -2828.960          28.250    25141108.740    98659271.529       -2710.773          43.562
R01  22683233.160   121254345.506       -3461.063          42.312    22683235.080    94308939.735       -2691.940          36.812
R02  21346391.280   113908979.120       -1224.625          47.375    21346391.540    88595443.877        -952.487          45.375
R03  23541573.420   126019305.495        1670.971          40.188    23541570.720    98015015.616        1299.642          39.688
R11  22640774.720   120986342.458        -440.612          43.375    22640775.100    94100521.627        -342.698          40.688
R12  21732887.880   116093184.671         688.376          43.688
R13  23827883.560   127239064.970        1442.408          38.500    23827883.220    98963745.957        1121.870          26.375
R21  23419557.980   125323070.985       -3379.612          42.000    23419556.680    97473340.258       -2628.590          42.312
R22  20021784.540   106878289.891        -243.988          49.375    20021784.460    83127582.860        -189.769          48.625
R23  21017486.900   112429602.134        3611.162          47.375    21017487.680    87444592.761        2808.683          41.562
E02  25136613.740   132093226.854          31.939          50.375    25136610.720   101214310.961          24.441          52.188    25136612.080    99927821.567          24.154          48.688    25136612.700    98641068.173          23.794          50.625
E03  25536055.000   134193540.096       -2402.362          49.875    25536053.760   102823584.201       -1840.771          51.812    25536054.480   101516461.182       -1817.347          47.625    25536054.920   100209382.161       -1793.906          49.188
E07  27534070.400   144691918.557        1339.316          44.062    27534068.880   110868227.335        1026.036          49.188    27534069.480   109458397.090        1013.060          42.688    27534072.220   108049291.839         999.879          42.875
E08  22912253.440   120405221.759        -724.005          51.188    22912249.780    92258550.997        -554.795          52.500    22912250.900    91085942.443        -547.731          49.062    22912251.120    89912995.886        -540.665          50.375
E30  24652306.880   129548245.320         656.736          47.625    24652305.120    99264635.739         503.208          50.562    24652305.740    98002804.759         496.834          45.312    24652306.440    96740961.779         490.409          47.125
S35  40665716.820   213699214.575          -2.900          40.188
S38  38181661.180   200646418.421           -.054          46.125
> 2018 01 01 00 00 22.0000000  0 28
G03  24429452.280   128377243.639       -1250.692          40.188    24429450.120   100034335.022        -974.567          38.125    24429449.780    95866495.575        -933.916          47.562
G08  21769440.340   114399845.799        2706.545          47.375    21769436.860    89142420.376        2108.996          43.875    21769437.320    85427640.576        2021.013          51.625
G09  24863813.060   130660494.529        3209.047          41.375    24863809.700   101813372.226        2500.557          32.812    24863811.940    97570781.788        2396.312          47.500
G14  22798019.940   119803848.231       -3312.507          43.188    22798014.000    93353649.107       -2581.176          39.750
G16  21429064.360   112610072.825       -1281.769          48.125    21429057.180    87748116.449        -998.782          43.875
G21  25451243.200   133747302.936        -922.550          41.625    25451235.180   104219099.320        -718.869          32.750
G22  24257282.560   127473024.195       -1179.697          43.250    24257273.260    99329704.132        -919.243          37.062
G23  22341712.740   117406361.752        2398.378          47.875    22341703.580    91485857.171        1868.865          41.375
G26  22671402.780   119139833.051       -1714.322          47.125    22671399.320    92835278.958       -1335.835          41.875    22671400.100    88967540.537       -1280.277          50.375
G27  19988661.480   105041877.463         599.881          49.875    19988656.620    81850607.247         467.439          49.688    19988657.820    78439733.058         447.937          52.750
G31  22495608.780   118215754.470        -824.165          48.812    22495601.280    92116209.087        -642.208          42.438
G32  25141798.480   132121798.652       -3630.566          40.562    25141797.540   102951187.822       -2829.035          30.875    25141799.700    98661982.808       -2710.800          44.000
R01  22683880.640   121257806.695       -3461.272          42.375    22683882.560    94311631.768       -2692.102          36.812
R02  21346620.860   113910204.152       -1225.386          47.500    21346621.120    88596396.677        -953.080          45.312
R03  23541261.340   126017635.008        1670.114          40.188    23541258.660    98013716.344        1298.975          39.875
R11  22640857.260   120986783.349        -440.949          43.500    22640857.580    94100864.541        -342.960          40.688
R12  21732759.020   116092496.353         688.227          43.875
R13  23827613.500   127237622.568        1442.419          38.125    23827613.060    98962624.091        1121.879          26.562
R21  23420189.560   125326450.801       -3380.127          42.250    23420188.280    97475968.997       -2628.991          42.312
R22  20021830.380   106878534.565        -245.220          49.438    20021830.280    83127773.161        -190.726          48.688
R23  21016811.900   112425991.419        3610.397          47.375    21016812.720    87441784.428        2808.088          41.750
E02  25136607.720   132093195.164          31.645          50.312    25136604.680   101214286.679          24.180          52.188    25136606.040    99927797.595          23.884          48.750    25136606.680    98641044.508          23.555          50.562
E03  25536512.180   134195942.667       -2402.686          49.812    25536510.960   102825425.134       -1841.099          51.875    25536511.680   101518278.717       -1817.709          47.625    25536512.120   100211176.294       -1794.315          49.125
E07  27533815.620   144690579.858        1338.406          44.000    27533814.180   110867201.572        1025.548          49.250    27533814.740   109457384.369        1012.540          42.688    27533817.440   108048292.159         999.348          42.875
E08  22912391.300   120405946.179        -724.725          51.125    22912387.620    92259106.072        -555.324          52.500    22912388.740    91086490.465        -548.270          49.062    22912388.980    89913536.853        -541.232          50.500
E30  24652181.900   129547588.732         656.578          47.500    24652180.180    99264132.637         502.990          50.562    24652180.800    98002308.054         496.597          45.250    24652181.500    96740471.472         490.197          47.062
S35  40665717.380   213699217.516          -2.856          40.000
S38  38181661.260   200646418.684           -.221          46.188
> 2018 01 01 00 00 23.0000000  0 28
G03  24429690.280   128378494.358       -1250.726          40.375    24429688.120   100035309.605        -974.591          38.688    24429687.780    95867429.558        -934.122          47.625
G08  21768925.380   114397139.779        2705.602          47.375    21768921.940    89140311.789        2108.263          43.875    21768922.380    85425619.845        2020.414          51.625
G09  24863202.480   130657285.904        3208.534          41.625    24863199.100   101810871.999        2500.155          33.688    24863201.360    97568385.750        2395.757          47.375
G14  22798650.360   119807161.179       -3313.290          43.375    22798644.480    93356230.626       -2581.786          38.625
G16  21429308.340   112611354.982       -1282.453          48.125    21429301.180    87749115.535        -999.314          44.125
G21  25451418.800   133748225.692        -922.952          41.625    25451410.720   104219818.352        -719.184          33.312
G22  24257507.100   127474204.095       -1180.140          43.250    24257497.780    99330623.528        -919.590          37.750
G23  22341256.420   117403963.836        2397.449          47.875    22341247.280    91483988.668        1868.143          41.375
G26  22671729.060   119141547.598       -1714.817          47.188    22671725.580    92836614.967       -1336.223          42.000    22671726.360    88968820.879       -1280.520          50.375
G27  19988547.420   105041278.102         598.825          49.938    19988542.560    81850140.213         466.617          49.750    19988543.760    78439285.483         447.189          52.750
G31  22495765.680   118216579.028        -824.897          48.875    22495758.200    92116851.598        -642.777          42.562
G32  25142489.200   132125429.727       -3631.177          39.000    25142488.820   102954017.158       -2829.518          36.375    25142490.660    98664694.281       -2711.657          45.938
R01  22684528.200   121261268.189       -3461.476          42.625    22684530.080    94314324.037       -2692.261          36.812
R02  21346850.600   113911430.145       -1226.495          47.625    21346850.860    88597350.225        -953.942          45.375
R03  23540949.440   126015965.501        1669.103          40.188    23540946.800    98012417.840        1298.188          39.688
R11  22640939.800   120987224.561        -441.380          43.438    22640940.140    94101207.705        -343.296          40.812
R12  21732630.220   116091808.271         687.828          43.875
R13  23827343.420   127236180.292        1442.315          38.812    23827342.920    98961502.316        1121.797          26.625
R21  23420821.320   125329831.448       -3381.208          42.500    23420820.020    97478598.384       -2629.832          42.188
R22  20021876.440   106878780.468        -246.597          49.500    20021876.340    83127964.420        -191.797          48.625
R23  21016137.060   112422381.419        3609.571          47.562    21016137.880    87438976.652        2807.445          41.688
E02  25136601.740   132093163.686          31.306          50.375    25136598.680   101214262.556          24.019          52.250    25136600.060    99927773.779          23.699          48.812    25136600.700    98641020.998          23.405          50.625
E03  25536969.460   134198345.643       -2403.274          49.875    25536968.220   102827266.371       -1841.478          51.875    25536968.940   101520096.544       -1818.054          47.625    25536969.380   100212970.716       -1794.630          49.125
E07  27533561.000   144689241.865        1337.391          43.875    27533559.620   110866176.348        1024.975          49.312    27533560.140   109456372.178        1011.935          42.812    27533562.780   108047292.994         998.860          42.875
E08  22912529.300   120406671.287        -725.476          51.188    22912525.620    92259661.676        -555.913          52.562    22912526.740    91087039.006        -548.888          49.125    22912526.940    89914078.330        -541.790          50.375
E30  24652056.980   129546932.381         656.102          47.312    24652055.280    99263629.716         502.803          50.562    24652055.900    98001811.529         496.383          45.375    24652056.580    96739981.328         490.083          47.125
S35  40665718.000   213699220.727          -3.383          40.375
S38  38181661.360   200646419.320           -.912          46.312
> 2018 01 01 00 00 24.0000000  0 28
G03  24429928.360   128379745.577       -1251.252          40.625    24429926.220   100036284.586        -975.001          38.375    24429925.900    95868363.900        -934.242          47.625
G08  21768410.600   114394434.570        2704.901          47.500    21768407.140    89138203.834        2107.716          44.125    21768407.580    85423599.716        2019.987          51.625
G09  24862592.040   130654077.915        3207.998          41.625    24862588.540   101808372.253        2499.735          31.875    24862590.900    97565990.163        2395.646          47.312
G14  22799280.900   119810474.768       -3313.756          43.312    22799275.040    93358812.642       -2582.148          37.938
G16  21429552.420   112612637.618       -1282.717          48.062    21429545.260    87750114.992        -999.520          44.062
G21  25451594.560   133749149.225        -923.973          41.625    25451586.440   104220537.997        -719.976          31.750
G22  24257731.680   127475384.306       -1180.157          43.375    24257722.420    99331543.168        -919.602          36.188
G23  22340800.260   117401566.774        2396.846          47.875    22340791.140    91482120.831        1867.673          41.625
G26  22672055.400   119143262.463       -1714.843          47.188    22672051.920    92837951.219       -1336.242          41.750    22672052.700    88970101.462       -1280.564          50.375
G27  19988433.560   105040679.801         597.954          49.938    19988428.700    81849674.003         465.938          49.625    19988429.920    78438838.706         446.515          52.750
G31  22495922.720   118217404.218        -825.337          48.938    22495915.240    92117494.606        -643.120          42.125
G32  25143180.060   132129061.086       -3631.179          39.312    25143179.600   102956846.704       -2829.535          34.125    25143181.700    98667405.884       -2711.617          44.625
R01  22685175.800   121264730.068       -3461.908          42.750    22685177.680    94317016.610       -2692.598          36.875
R02  21347080.560   113912657.175       -1227.444          47.812    21347080.820    88598304.580        -954.681          45.312
R03  23540637.760   126014297.062        1668.146          40.625    23540635.140    98011120.167        1297.445          39.875
R11  22641022.440   120987666.132        -441.688          43.500    22641022.740    94101551.149        -343.534          40.938
R12  21732501.500   116091120.452         687.970          43.750
R13  23827073.360   127234738.213        1442.403          38.375    23827072.780    98960380.694        1121.866          25.312
R21  23421453.260   125333212.912       -3381.690          42.500    23421451.920    97481228.413       -2630.206          41.875
R22  20021922.740   106879027.644        -247.588          49.625    20021922.640    83128156.668        -192.567          48.625
R23  21015462.360   112418772.202        3608.923          47.625    21015463.200    87436169.488        2806.941          41.875
E02  25136595.800   132093132.474          31.245          50.375    25136592.740   101214238.648          23.946          52.250    25136594.120    99927750.177          23.641          48.812    25136594.760    98640997.696          23.366          50.562
E03  25537426.820   134200749.065       -2403.598          49.875    25537425.580   102829107.956       -1841.650          51.875    25537426.280   101521914.720       -1818.215          47.625    25537426.720   100214765.481       -1794.769          49.125
E07  27533306.500   144687904.575        1337.007          43.875    27533305.180   110865151.692        1024.495          49.375    27533305.680   109455360.544        1011.483          42.875    27533308.280   108046294.365         998.615          42.812
E08  22912667.420   120407397.147        -725.977          51.188    22912663.740    92260217.859        -556.282          52.562    22912664.860    91087588.118        -549.218          49.062    22912665.080    89914620.372        -542.150          50.375
E30  24651932.100   129546276.303         655.994          47.188    24651930.420    99263127.009         502.764          50.625    24651931.060    98001315.213         496.390          45.375    24651931.720    96739491.410         490.004          47.125
S35  40665718.680   213699224.334          -3.731          40.312
S38  38181661.560   200646420.331           -.927          46.375
> 2018 01 01 00 00 25.0000000  0 27
G03  24430166.500   128380996.958       -1251.418          40.625    24430164.300   100037259.693        -975.130          38.312    24430164.040    95869298.377        -934.528          47.625
G08  21767895.940   114391729.896        2704.272          47.500    21767892.480    89136096.298        2107.226          44.688    21767892.900    85421579.997        2019.444          51.625
G09  24861981.640   130650870.258        3207.518          41.812    24861978.140   101805872.779        2499.362          33.375    24861980.520    97563594.844        2395.176          47.188
G14  22799911.520   119813788.719       -3314.169          43.188    22799905.700    93361394.946       -2582.469          39.000
G16  21429796.540   112613920.480       -1283.095          48.125    21429789.380    87751114.625        -999.814          44.312
G21  25451770.380   133750073.212        -924.326          41.562    25451762.260   104221257.989        -720.254          32.875
G22  24257956.300   127476564.592       -1180.624          43.500    24257947.020    99332462.880        -919.966          36.062
G23  22340344.220   117399170.291        2396.054          47.938    22340335.100    91480253.441        1867.055          41.188
G26  22672381.740   119144977.373       -1715.027          47.188    22672378.260    92839287.511       -1336.386          42.125    22672379.040    88971382.076       -1280.650          50.438
G27  19988319.860   105040082.287         597.040          49.875    19988315.000    81849208.410         465.227          49.750    19988316.220    78438392.506         445.894          52.750
G31  22496079.820   118218229.777        -825.857          48.938    22496072.340    92118137.896        -643.526          42.312
R01  22685823.440   121268192.027       -3462.194          42.688    22685825.300    94319709.246       -2692.817          37.062
R02  21347310.640   113913884.952       -1228.197          47.812    21347310.900    88599259.518        -955.265          45.375
R03  23540326.200   126012629.409        1667.119          40.875    23540323.620    98009823.106        1296.648          39.875
R11  22641105.100   120988107.874        -441.893          43.312    22641105.400    94101894.730        -343.694          40.875
R12  21732372.740   116090432.656         687.764          43.688
R13  23826803.320   127233296.100        1441.733          38.625    23826802.660    98959259.046        1121.345          27.000
R21  23422085.300   125336594.995       -3382.557          42.062    23422083.940    97483858.926       -2630.880          41.938
R22  20021969.240   106879275.841        -248.807          49.562    20021969.140    83128349.712        -193.516          48.625
R23  21014787.740   112415163.497        3608.363          47.688    21014788.620    87433362.723        2806.507          41.812
E02  25136589.860   132093101.278          31.041          50.375    25136586.800   101214214.732          23.917          52.312    25136588.180    99927726.567          23.526          48.875    25136588.840    98640974.398          23.242          50.625
E03  25537884.200   134203152.668       -2403.797          49.750    25537882.960   102830949.672       -1841.804          51.875    25537883.680   101523733.028       -1818.422          47.625    25537884.120   100216560.381       -1795.030          49.188
E07  27533052.100   144686567.780        1336.324          44.000    27533050.840   110864127.395        1023.987          49.438    27533051.300   109454349.264        1011.006          43.000    27533053.860   108045296.106         998.213          42.625
E08  22912805.660   120408123.498        -726.648          51.125    22912801.960    92260774.407        -556.745          52.562    22912803.080    91088137.590        -549.662          49.125    22912803.280    89915162.771        -542.653          50.375
E30  24651807.220   129545620.254         655.964          47.125    24651805.560    99262624.326         502.633          50.625    24651806.220    98000818.919         496.175          45.375    24651806.880    96739001.501         489.862          47.125
S35  40665719.420   213699228.102          -3.830          40.250
S38  38181661.800   200646421.438          -1.128          46.625
> 2018 01 01 00 00 26.0000000  0 27
G03  24430404.620   128382248.398       -1251.490          40.688    24430402.440   100038234.845        -975.186          38.312    24430402.200    95870232.897        -934.751          47.688
G08  21767381.320   114389025.636        2703.816          47.562    21767377.880    89133989.083        2106.870          44.375    21767378.300    85419560.582        2019.076          51.625
G09  24861371.300   130647662.810        3206.942          41.875    24861367.780   101803373.471        2498.912          30.625    24861370.160    97561199.652        2394.946          47.188
G14  22800542.160   119817102.910       -3314.533          43.125    22800536.400    93363977.434       -2582.753          38.188
G16  21430040.680   112615203.418       -1283.222          48.188    21430033.520    87752114.317        -999.913          44.000
G21  25451946.300   133750997.542        -924.752          41.750    25451938.120   104221978.242        -720.585          31.625
G22  24258180.880   127477744.773       -1180.515          43.625    24258171.560    99333382.499        -919.883          36.875
G23  22339888.260   117396774.244        2395.620          47.938    22339879.140    91478386.389        1866.717          41.375
G26  22672708.060   119146692.220       -1715.006          47.250    22672704.600    92840623.753       -1336.369          41.875    22672705.360    88972662.640       -1280.682          50.375
G27  19988206.280   105039485.415         596.300          49.938    19988201.420    81848743.315         464.649          49.750    19988202.640    78437946.788         445.331          52.750
G31  22496236.960   118219055.574        -826.133          49.062    22496229.480    92118781.377        -643.739          41.875
R01  22686471.060   121271653.946       -3462.230          42.812    22686472.940    94322401.852       -2692.847          36.875
R02  21347540.840   113915113.352       -1228.911          47.750    21347541.100    88600214.940        -955.820          45.375
R03  23540014.760   126010962.377        1666.641          40.812    23540012.220    98008526.526        1296.276          39.938
R11  22641187.780   120988549.684        -442.043          43.250    22641188.040    94102238.360        -343.811          40.875
R12  21732243.960   116089744.747         687.654          43.812
R13  23826533.200   127231853.696        1441.862          38.688    23826532.500    98958137.165        1121.444          26.250
R21  23422717.400   125339977.532       -3383.017          42.062    23422716.040    97486489.786       -2631.236          41.938
R22  20022015.900   106879524.915        -249.724          49.562    20022015.800    83128543.436        -194.230          48.688
R23  21014113.180   112411555.176        3607.868          47.625    21014114.100    87430556.251        2806.122          41.938
E02  25136583.900   132093069.931          31.220          50.375    25136580.840   101214190.724          23.868          52.312    25136582.200    99927702.862          23.579          48.875    25136582.880    98640950.984          23.348          50.625
E03  25538341.600   134205556.329       -2403.913          49.875    25538340.380   102832791.436       -1841.855          51.875    25538341.080   101525551.378       -1818.474          47.625    25538341.500   100218355.323       -1795.143          49.188
E07  27532797.760   144685231.304        1335.988          44.188    27532796.560   110863103.336        1023.753          49.438    27532797.000   109453338.230        1010.709          42.875    27532799.520   108044298.123         997.556          42.500
E08  22912943.940   120408850.190        -727.123          51.125    22912940.240    92261331.226        -557.112          52.562    22912941.360    91088687.324        -550.007          49.125    22912941.560    89915705.429        -542.957          50.375
E30  24651682.340   129544964.073         656.036          47.125    24651680.700    99262121.547         502.632          50.562    24651681.360    98000322.527         496.235          45.375    24651682.000    96738511.496         489.903          47.062
S35  40665720.040   213699231.796          -3.842          40.125
S38  38181662.040   200646422.551          -1.478          46.312
> 2018 01 01 00 00 27.0000000  0 27
G03  24430642.860   128383500.271       -1252.346          40.938    24430640.640   100039210.338        -975.853          37.125    24430640.420    95871167.723        -935.155          47.688
G08  21766866.860   114386322.131        2702.881          47.500    21766863.420    89131882.455        2106.141          44.750    21766863.840    85417541.727        2018.500          51.625
G09  24860761.080   130644455.896        3206.397          41.375    24860757.520   101800874.567        2498.486          32.750    24860759.920    97558804.874        2394.521          47.250
G14  22801172.920   119820417.715       -3315.520          43.125    22801167.200    93366560.395       -2583.523          38.125
G16  21430284.900   112616486.794       -1283.687          48.125    21430277.740    87753114.353       -1000.276          43.688
G21  25452122.320   133751922.572        -925.709          41.875    25452114.160   104222699.055        -721.328          29.000
G22  24258405.500   127478925.225       -1180.709          43.812    24258396.180    99334302.328        -920.033          36.375
G23  22339432.440   117394378.996        2394.689          47.875    22339423.340    91476519.962        1865.991          41.562
G26  22673034.440   119148407.325       -1715.452          47.188    22673030.980    92841960.202       -1336.716          41.812    22673031.740    88973943.398       -1281.013          50.375
G27  19988092.880   105038889.552         595.175          49.875    19988088.020    81848279.004         463.773          49.688    19988089.260    78437501.824         444.469          52.750
G31  22496394.220   118219881.965        -826.887          49.062    22496386.740    92119425.320        -644.327          41.812
R01  22687118.760   121275116.171       -3462.847          42.875    22687120.600    94325094.696       -2693.324          36.812
R02  21347771.200   113916342.717       -1230.032          47.750    21347771.480    88601171.111        -956.693          45.438
R03  23539703.520   126009296.379        1665.157          40.312    23539701.000    98007230.750        1295.122          40.250
R11  22641270.520   120988991.855        -442.337          43.375    22641270.780    94102582.272        -344.039          40.875
R12  21732115.220   116089057.051         687.452          43.875
R13  23826263.120   127230411.476        1441.807          39.000
R21  23423349.640   125343360.862       -3383.906          41.875    23423348.300    97489121.265       -2631.928          41.875
R22  20022062.800   106879775.225        -251.192          49.562    20022062.680    83128738.122        -195.372          48.625
R23  21013438.780   112407947.585        3607.006          47.625    21013439.720    87427750.347        2805.450          41.875
E02  25136578.000   132093038.814          30.895          50.375    25136574.900   101214166.878          23.657          52.250    25136576.280    99927679.322          23.333          48.812    25136576.980    98640927.753          23.039          50.625
E03  25538799.080   134207960.384       -2404.429          49.750    25538797.860   102834633.508       -1842.301          51.875    25538798.540   101527370.038       -1818.930          47.625    25538798.980   100220150.557       -1795.467          49.125
E07  27532543.540   144683895.526        1335.265          44.125    27532542.420   110862079.824        1023.133          49.438    27532542.820   109452327.723        1010.170          42.875    27532545.280   108043300.613         997.055          42.375
E08  22913082.380   120409577.585        -728.002          51.125    22913078.660    92261888.572        -557.744          52.562    22913079.780    91089237.593        -550.678          49.125    22913079.980    89916248.607        -543.551          50.375
E30  24651557.480   129544308.153         655.549          47.062    24651555.860    99261618.947         502.430          50.500    24651556.540    97999826.319         496.017          45.312    24651557.180    96738021.687         489.607          47.062
S35  40665720.780   213699235.724          -4.110          40.125
S38  38181662.320   200646424.062          -2.023          46.250
> 2018 01 01 00 00 28.0000000  0 28
G03  24430881.120   128384752.438       -1252.290          40.938    24430878.900   100040186.040        -975.811          38.750    24430878.720    95872102.791        -935.186          47.812
G08  21766352.520   114383619.293        2702.796          47.625    21766349.100    89129776.343        2106.074          44.562    21766349.500    85415523.385        2018.132          51.625
G09  24860150.920   130641249.439        3206.338          41.062    24860147.300   101798376.000        2498.438          29.000    24860149.740    97556410.455        2394.222          47.375
G14  22801803.800   119823732.991       -3315.428          43.188    22801798.080    93369143.725       -2583.451          39.812
G16  21430529.200   112617770.524       -1283.741          48.188    21430522.020    87754114.655       -1000.319          44.000
G21  25452298.460   133752848.194        -925.868          41.875    25452290.260   104223420.323        -721.454          34.750
G22  24258630.180   127480105.871       -1180.502          43.875    24258620.840    99335222.310        -919.873          37.375
G23  22338976.780   117391984.455        2394.436          47.938    22338967.680    91474654.085        1865.795          41.375
G26  22673360.840   119150122.610       -1715.134          47.125    22673357.380    92843296.792       -1336.469          41.875    22673358.140    88975224.300       -1280.902          50.438
G27  19987979.680   105038294.600         594.697          49.938    19987974.800    81847815.408         463.400          49.625    19987976.060    78437057.546         443.979          52.812
G31  22496551.580   118220708.850        -826.980          49.125    22496544.100    92120069.646        -644.399          42.125
G32                                                                                                                                  25145946.280    98678252.934       -2711.349          44.875
R01  22687766.460   121278578.604       -3462.380          42.875    22687768.300    94327787.701       -2692.962          36.875
R02  21348001.740   113917572.925       -1230.512          47.875    21348002.020    88602127.939        -957.065          45.188
R03  23539392.480   126007631.291        1664.837          40.562    23539389.960    98005935.676        1294.873          40.125
R11  22641353.320   120989434.290        -442.328          43.625    22641353.560    94102926.389        -344.032          41.125
R12  21731986.520   116088369.503         687.607          43.812
R13  23825993.060   127228969.236        1442.447          38.938
R21  23423982.020   125346744.871       -3384.218          41.875    23423980.680    97491753.272       -2632.170          41.875
R22  20022109.900   106880026.669        -251.834          49.375    20022109.780    83128933.687        -195.871          48.625
R23  21012764.500   112404340.631        3606.819          47.625    21012765.440    87424944.941        2805.306          41.750
E02  25136572.100   132093007.832          31.162          50.375    25136569.000   101214143.146          23.731          52.250    25136570.400    99927655.885          23.448          48.812    25136571.080    98640904.615          23.195          50.625
E03  25539256.620   134210364.752       -2404.205          49.750    25539255.400   102836475.827       -1842.334          51.875    25539256.080   101529188.933       -1818.895          47.625    25539256.520   100221946.041       -1795.521          49.250
E07  27532289.440   144682560.346        1334.982          44.125    27532288.380   110861056.773        1022.844          49.625    27532288.760   109451317.677        1009.892          43.000    27532291.180   108042303.562         996.944          42.562
E08  22913220.920   120410305.572        -728.136          51.125    22913217.180    92262446.388        -557.969          52.562    22913218.300    91089788.316        -550.865          49.125    22913218.520    89916792.245        -543.801          50.500
E30  24651432.660   129543652.356         655.938          47.125    24651431.060    99261116.467         502.505          50.562    24651431.760    97999330.225         496.122          45.375    24651432.380    96737531.976         489.810          47.125
S35  40665721.580   213699239.894          -3.862          40.312
S38  38181662.660   200646425.794          -1.726          46.312
> 2018 01 01 00 00 29.0000000  0 28
G03  24431119.320   128386004.214       -1251.404          40.875    24431117.080   100041161.452        -975.120          37.812    24431116.940    95873037.555        -934.478          47.875
G08  21765838.180   114380916.433        2703.143          47.688    21765834.760    89127670.219        2106.346          44.125    21765835.160    85413505.005        2018.594          51.688
G09  24859540.720   130638042.758        3206.969          40.812    24859536.900   101795877.280        2498.929          34.125    24859539.540    97554015.843        2394.843          47.375
G14  22802434.620   119827048.072       -3314.874          43.125    22802428.940    93371726.903       -2583.020          38.125
G16  21430773.420   112619053.884       -1282.966          48.188    21430766.240    87755114.678        -999.714          43.875
G21  25452474.600   133753773.729        -925.313          42.062    25452466.340   104224141.513        -721.023          32.062
G22  24258854.740   127481285.991       -1179.638          43.688    24258845.420    99336141.883        -919.198          34.625
G23  22338521.100   117389589.922        2394.740          47.812    22338512.000    91472788.217        1866.031          41.438
G26  22673687.140   119151837.365       -1714.288          47.250    22673683.680    92844632.965       -1335.809          42.188    22673684.460    88976504.792       -1280.110          50.500
G27  19987866.500   105037699.853         594.772          49.938    19987861.620    81847351.967         463.459          49.688    19987862.880    78436613.415         444.197          52.812
G31  22496708.880   118221535.533        -826.400          49.125    22496701.420    92120713.816        -643.946          41.688
G32                                                                                                                                  25146637.280    98680964.478       -2711.507          46.375
R01  22688414.100   121282040.525       -3461.286          42.812    22688415.920    94330480.307       -2692.110          36.625
R02  21348232.300   113918803.267       -1230.216          47.875    21348232.580    88603084.871        -956.836          45.188
R03  23539081.500   126005966.379        1665.108          40.625    23539078.960    98004640.747        1295.084          39.875
R11  22641436.000   120989876.243        -441.520          43.625    22641436.240    94103270.132        -343.403          40.875
R12  21731857.700   116087681.351         688.689          43.938
R13  23825722.900   127227526.397        1443.275          39.312
R21  23424614.420   125350128.899       -3383.917          41.750    23424613.060    97494385.291       -2631.936          41.750
R22  20022157.080   106880278.549        -251.950          49.312    20022156.960    83129129.589        -195.962          48.625
R23  21012090.200   112400733.602        3607.326          47.625    21012091.160    87422139.473        2805.699          41.625
E02  25136566.100   132092976.273          32.017          50.375    25136563.000   101214118.956          24.594          52.312    25136564.380    99927632.008          24.230          48.875    25136565.080    98640881.049          23.973          50.625
E03  25539714.080   134212768.747       -2403.594          49.688    25539712.860   102838317.836       -1841.712          51.875    25539713.540   101531007.527       -1818.294          47.625    25539713.980   100223741.216       -1794.832          49.250
E07  27532035.340   144681225.054        1335.692          44.125    27532034.320   110860033.628        1023.314          49.625    27532034.680   109450307.546        1010.238          42.875    27532037.040   108041306.435         997.338          42.438
E08  22913359.440   120411033.474        -727.699          51.125    22913355.700    92263004.123        -557.527          52.562    22913356.820    91090338.962        -550.442          49.125    22913357.020    89917335.799        -543.336          50.500
E30  24651307.720   129542996.023         656.750          47.188    24651306.140    99260613.550         503.342          50.500    24651306.860    97998833.708         496.888          45.312    24651307.480    96737041.852         490.521          47.125
S35  40665722.320   213699243.573          -3.324          40.125
S38  38181662.880   200646426.968           -.818          46.375
> 2018 01 01 00 00 30.0000000  0 28
G03  24431357.400   128387255.411       -1250.996          40.875    24431355.140   100042136.407        -974.804          38.375    24431355.060    95873971.889        -934.182          47.875
G08  21765323.800   114378213.338        2703.150          47.750    21765320.400    89125563.912        2106.350          43.875    21765320.780    85411486.464        2018.578          51.750
G09  24858930.440   130634835.623        3207.124          40.312    24858926.620   101793378.208        2499.050          31.688    24858929.240    97551620.906        2395.090          47.625
G14  22803065.360   119830362.747       -3314.597          43.250    22803059.740    93374309.766       -2582.804          38.750
G16  21431017.540   112620336.689       -1282.609          48.125    21431010.360    87756114.266        -999.436          43.938
G21  25452650.680   133754698.957        -925.310          42.438    25452642.500   104224862.472        -721.019          32.562
G22  24259079.180   127482465.395       -1179.265          43.688    24259069.860    99337060.906        -918.906          36.625
G23  22338065.380   117387195.194        2394.710          47.812    22338056.280    91470922.194        1866.008          41.062
G26  22674013.320   119153551.397       -1713.842          47.250    22674009.840    92845968.576       -1335.461          41.812    22674010.620    88977784.757       -1279.709          50.562
G27  19987753.320   105037105.115         594.627          49.938    19987748.440    81846888.534         463.346          49.875    19987749.720    78436169.297         444.048          52.812
G31  22496866.120   118222361.824        -826.173          49.125    22496858.660    92121357.682        -643.770          42.188
R01  22689061.600   121285501.767       -3460.897          42.875    22689063.400    94333172.386       -2691.808          36.312
R02  21348462.840   113920033.547       -1230.462          47.875    21348463.140    88604041.754        -957.026          45.188
R03  23538770.480   126004301.451        1664.720          40.562    23538767.960    98003345.803        1294.782          39.375
R11  22641518.600   120990317.565        -441.271          43.375    22641518.800    94103613.383        -343.210          40.875
R12  21731728.740   116086992.417         689.398          44.125
R13  23825452.540   127226082.634        1444.002          39.062
R21  23425246.760   125353512.724       -3383.853          41.875    23425245.400    97497017.153       -2631.888          41.500
R22  20022204.300   106880530.642        -252.317          49.312    20022204.180    83129325.664        -196.247          48.562
R23  21011415.860   112397126.281        3607.373          47.688    21011416.820    87419333.780        2805.735          41.875
E02  25136559.960   132092943.936          32.713          50.375    25136556.840   101214094.186          24.997          52.312    25136558.220    99927607.548          24.704          48.875    25136558.940    98640856.903          24.394          50.688
E03  25540171.420   134215172.135       -2403.239          49.875    25540170.200   102840159.397       -1841.423          51.875    25540170.880   101532825.681       -1818.022          47.688    25540171.320   100225535.963       -1794.655          49.312
E07  27531781.180   144679889.481        1335.489          44.125    27531780.220   110859010.259        1023.416          49.688    27531780.540   109449297.180        1010.405          43.000    27531782.840   108040309.080         997.380          42.375
E08  22913497.900   120411761.076        -727.614          51.188    22913494.160    92263561.644        -557.472          52.562    22913495.280    91090889.398        -550.384          49.125    22913495.480    89917879.146        -543.307          50.562
E30  24651182.640   129542338.907         657.346          47.188    24651181.080    99260110.060         503.721          50.562    24651181.820    97998336.612         497.288          45.375    24651182.420    96736551.156         490.897          47.188
S20  38226367.480   200881408.204          39.756          42.625
S35  40665722.860   213699246.621          -2.888          40.312
S38  38181662.960   200646427.480           -.252          46.438
> 2018 01 01 00 00 31.0000000  0 28
G03  24431595.480   128388506.522       -1251.264          40.500    24431593.180   100043111.283        -975.015          37.000    24431593.160    95874906.166        -934.472          47.938
G08  21764809.480   114375510.518        2702.353          47.625    21764806.060    89123457.817        2105.728          44.250    21764806.440    85409468.124        2018.033          51.750
G09  24858320.160   130631628.546        3206.691          40.062    24858316.300   101790879.192        2498.715          29.375    24858318.980    97549226.037        2394.590          47.625
G14  22803696.120   119833677.518       -3315.028          43.125    22803690.520    93376892.705       -2583.141          39.000
G16  21431261.620   112621619.443       -1282.991          48.062    21431254.440    87757113.815        -999.733          44.125
G21  25452826.800   133755624.377        -925.981          42.125    25452818.620   104225583.576        -721.543          32.562
G22  24259303.580   127483644.567       -1179.324          43.188    24259294.260    99337979.742        -918.953          37.625
G23  22337609.740   117384800.764        2394.014          47.750    22337600.600    91469056.402        1865.466          41.812
G26  22674339.460   119155265.227       -1714.133          47.250    22674335.980    92847304.026       -1335.687          41.625    22674336.760    88979064.566       -1279.962          50.562
G27  19987640.260   105036510.899         593.565          49.875    19987635.380    81846425.513         462.520          49.875    19987636.640    78435725.569         443.295          52.812
G31  22497023.380   118223188.207        -826.745          49.125    22497015.940    92122001.621        -644.216          42.312
R01  22689709.060   121288962.820       -3461.314          42.875    22689710.840    94335864.316       -2692.132          36.000
R02  21348693.480   113921264.308       -1231.312          47.875    21348693.780    88604999.016        -957.687          45.062
R03  23538459.540   126002637.029        1663.651          41.125    23538457.040    98002051.255        1293.950          39.688
R11  22641601.160   120990758.763        -441.431          43.625    22641601.360    94103956.540        -343.334          40.812
R12  21731599.720   116086303.239         688.949          44.188
R13  23825182.140   127224638.531        1443.757          38.625
R21  23425879.180   125356896.883       -3384.887          42.562    23425877.800    97499649.275       -2632.691          41.375
R22  20022251.680   106880783.480        -253.516          49.250    20022251.540    83129522.317        -197.179          48.625
R23  21010741.540   112393519.189        3606.592          47.625    21010742.520    87416528.267        2805.128          41.812
E02  25136553.740   132092911.334          32.424          50.500    25136550.620   101214069.205          24.848          52.312    25136552.020    99927582.888          24.508          48.875    25136552.760    98640832.561          24.200          50.688
E03  25540628.760   134217575.441       -2403.697          49.688    25540627.540   102842000.886       -1841.718          51.875    25540628.220   101534643.762       -1818.336          47.688    25540628.660   100227330.636       -1794.997          49.250
E07  27531527.040   144678554.093        1334.739          44.125    27531526.140   110857987.037        1022.903          49.625    27531526.420   109448286.963        1009.870          43.000    27531528.680   108039311.865         996.915          42.375
E08  22913636.400   120412488.887        -728.253          51.125    22913632.660    92264119.318        -557.980          52.562    22913633.780    91091439.983        -550.923          49.125    22913633.980    89918422.642        -543.817          50.562
E30  24651057.520   129541681.547         657.157          47.125    24651055.980    99259606.372         503.532          50.500    24651056.740    97997839.327         497.146          45.250    24651057.320    96736060.280         490.721          47.125
S20  38226360.560   200881368.352          39.559          42.375
S35  40665723.460   213699249.535          -3.124          40.125
S38  38181663.040   200646427.854           -.623          46.312
> 2018 01 01 00 00 32.0000000  0 28
G03  24431833.620   128389758.041       -1251.852          40.375    24431831.300   100044086.496        -975.470          37.375    24431831.340    95875840.747        -934.928          48.062
G08  21764295.280   114372808.473        2701.440          47.625    21764291.880    89121352.330        2105.018          44.500    21764292.260    85407450.367        2017.307          51.750
G09  24857709.960   130628422.042        3206.017          39.750    24857706.140   101788380.614        2498.190          35.875    24857708.820    97546831.565        2394.149          47.562
G14  22804327.000   119836992.888       -3315.653          43.125    22804321.420    93379476.106       -2583.626          40.000
G16  21431505.820   112622902.641       -1283.567          48.062    21431498.640    87758113.712       -1000.182          44.000
G21  25453003.060   133756550.498        -926.640          41.938    25452994.860   104226305.221        -722.059          32.438
G22  24259528.020   127484824.031       -1179.765          43.125    24259518.740    99338898.812        -919.297          38.125
G23  22337154.220   117382407.145        2393.034          47.688    22337145.100    91467191.246        1864.702          41.875
G26  22674665.640   119156979.314       -1714.298          47.250    22674662.140    92848639.679       -1335.816          41.875    22674662.940    88980344.573       -1280.268          50.562
G27  19987527.380   105035917.684         592.566          49.875    19987522.480    81845963.270         461.740          49.812    19987523.760    78435282.584         442.460          52.812
G31  22497180.760   118224015.182        -827.422          49.125    22497173.300    92122646.016        -644.743          42.062
R01  22690356.600   121292424.162       -3461.546          42.812    22690358.320    94338556.472       -2692.312          36.375
R02  21348924.300   113922496.069       -1232.419          47.875    21348924.600    88605957.055        -958.547          45.000
R03  23538148.780   126000973.584        1662.847          40.938    23538146.300    98000757.469        1293.326          39.375
R11  22641683.780   120991200.341        -441.861          43.750    22641683.980    94104299.991        -343.668          41.000
R12  21731470.760   116085614.291         688.538          44.125
R13  23824911.760   127223194.554        1443.759          38.750
R21  23426511.760   125360281.836       -3385.596          42.688    23426510.360    97502282.014       -2633.241          41.500
R22  20022299.260   106881037.560        -254.854          49.250    20022299.140    83129719.936        -198.219          48.562
R23  21010067.360   112389912.828        3605.895          47.750    21010068.340    87413723.322        2804.587          41.625
E02  25136547.600   132092878.961          32.083          50.438    25136544.460   101214044.395          24.563          52.312    25136545.860    99927558.394          24.241          48.875    25136546.600    98640808.380          23.963          50.688
E03  25541086.160   134219979.144       -2404.096          49.688    25541084.960   102843842.690       -1842.140          51.875    25541085.620   101536462.148       -1818.682          47.750    25541086.060   100229125.604       -1795.273          49.375
E07  27531273.020   144677219.388        1334.064          44.062    27531272.200   110856964.353        1022.201          49.750    27531272.460   109447277.281        1009.162          43.062    27531274.660   108038315.181         996.283          42.375
E08  22913775.060   120413217.414        -729.094          51.125    22913771.280    92264677.535        -558.619          52.562    22913772.400    91091991.106        -551.561          49.125    22913772.620    89918966.669        -544.467          50.562
E30  24650932.460   129541024.431         656.857          47.188    24650930.920    99259102.870         503.265          50.500    24650931.680    97997342.227         496.859          45.375    24650932.280    96735569.575         490.485          47.250
S20  38226352.620   200881328.979          38.955          42.625
S35  40665724.060   213699252.780          -3.409          40.062
S38  38181663.220   200646428.516           -.898          46.375
> 2018 01 01 00 00 33.0000000  0 28
G03  24432071.880   128391010.156       -1252.396          40.250    24432069.520   100045062.176        -975.894          37.875    24432069.620    95876775.740        -935.031          48.062
G08  21763781.280   114370107.330        2700.938          47.625    21763777.880    89119247.541        2104.627          44.625    21763778.260    85405433.277        2016.910          51.750
G09  24857099.940   130625216.236        3205.693          39.625    24857096.040   101785882.583        2497.939          33.875    24857098.780    97544437.631        2393.786          47.500
G14  22804958.020   119840309.002       -3316.269          42.875    22804952.460    93382060.093       -2584.107          38.438
G16  21431750.120   112624186.423       -1283.818          48.000    21431742.920    87759114.063       -1000.378          43.750
G21  25453179.480   133757477.471        -927.291          41.875    25453171.240   104227027.531        -722.566          32.188
G22  24259752.540   127486003.920       -1179.855          43.188    24259743.280    99339818.198        -919.368          36.188
G23  22336698.900   117380014.475        2392.394          47.625    22336689.800    91465326.828        1864.204          41.688
G26  22674991.900   119158693.827       -1714.407          47.125    22674988.400    92849975.665       -1335.902          42.125    22674989.200    88981624.887       -1280.315          50.562
G27  19987414.700   105035325.626         591.668          49.875    19987409.820    81845501.925         461.041          49.812    19987411.100    78434840.458         441.838          52.812
G31  22497338.260   118224842.908        -827.889          49.062    22497330.820    92123290.993        -645.107          42.312
R01  22691004.240   121295885.969       -3461.702          42.625    22691005.920    94341248.987       -2692.436          35.938
R02  21349155.340   113923728.959       -1233.185          47.875    21349155.640    88606915.972        -959.144          45.000
R03  23537838.240   125999311.327        1661.755          41.250    23537835.760    97999464.605        1292.477          39.562
R11  22641766.520   120991642.401        -442.010          43.562    22641766.680    94104643.819        -343.783          41.000
R12  21731341.860   116084925.709         688.570          43.875
R13  23824641.420   127221750.868        1443.837          38.500
R21  23427144.480   125363667.737       -3386.195          42.688    23427143.100    97504915.499       -2633.707          41.625
R22  20022347.120   106881293.024        -255.962          49.250    20022346.980    83129918.634        -199.080          48.562
R23  21009393.340   112386307.356        3605.309          47.625    21009394.360    87410919.064        2804.130          41.625
E02  25136541.520   132092846.958          32.037          50.438    25136538.360   101214019.876          24.541          52.312    25136539.780    99927534.184          24.197          48.875    25136540.520    98640784.483          23.932          50.688
E03  25541543.680   134222383.410       -2404.276          49.625    25541542.460   102845684.913       -1842.309          51.875    25541543.140   101538280.957       -1818.878          47.688    25541543.580   100230921.004       -1795.467          49.312
E07  27531019.180   144675885.539        1333.462          44.062    27531018.420   110855942.301        1021.939          49.750    27531018.660   109446268.221        1008.868          43.000    27531020.780   108037319.113         995.951          42.250
E08  22913913.860   120413946.773        -729.553          51.125    22913910.080    92265236.397        -559.004          52.562    22913911.200    91092542.862        -551.914          49.125    22913911.420    89919511.321        -544.792          50.562
E30  24650807.460   129540367.715         656.771          47.188    24650805.920    99258599.669         503.194          50.500    24650806.720    97996845.423         496.810          45.375    24650807.300    96735079.165         490.423          47.250
S20  38226344.100   200881290.084          38.987          42.500
S35  40665724.780   213699256.484          -3.661          40.312
S38  38181663.400   200646429.622          -1.125          46.250
> 2018 01 01 00 00 34.0000000  0 28
G03  24432310.200   128392262.496       -1252.773          40.188    24432307.840   100046038.024        -976.188          36.375    24432307.960    95877710.947        -935.538          48.062
G08  21763267.380   114367406.807        2700.121          47.625    21763264.000    89117143.237        2103.990          44.688    21763264.360    85403416.655        2016.211          51.688
G09  24856489.960   130622010.864        3204.981          39.188    24856485.980   101783384.905        2497.390          30.562    24856488.840    97542044.007        2393.333          47.375
G14  22805589.120   119843625.570       -3316.921          42.875    22805583.580    93384644.430       -2584.614          38.875
G16  21431994.480   112625470.520       -1284.470          48.125    21431987.300    87760114.660       -1000.885          44.125
G21  25453355.980   133758404.981        -927.921          42.000    25453347.720   104227750.279        -723.053          28.625
G22  24259977.100   127487183.938       -1180.362          43.250    24259967.820    99340737.694        -919.762          37.000
G23  22336243.700   117377622.465        2391.429          47.750    22336234.600    91463462.926        1863.451          41.625
G26  22675318.180   119160408.485       -1714.878          47.125    22675314.700    92851311.760       -1336.268          42.688    22675315.500    88982905.313       -1280.651          50.500
G27  19987302.200   105034734.435         590.436          49.875    19987297.320    81845041.259         460.082          49.875    19987298.600    78434398.986         440.942          52.812
G31  22497495.860   118225671.093        -828.617          49.125    22497488.420    92123936.333        -645.676          42.062
R01  22691651.860   121299347.959       -3462.359          42.625    22691653.520    94343941.642       -2692.947          36.125
R02  21349386.540   113924962.705       -1234.359          47.812    21349386.840    88607875.550        -960.057          44.938
R03  23537527.900   125997649.943        1660.827          41.500    23537525.400    97998172.421        1291.757          39.375
R11  22641849.280   120992084.715        -442.868          43.625    22641849.420    94104987.841        -344.451          40.812
R12  21731212.980   116084237.215         688.335          43.875
R13  23824371.060   127220307.193        1443.606          38.500
R21  23427777.360   125367054.283       -3387.074          42.688    23427775.980    97507549.483       -2634.389          41.625
R22  20022395.200   106881549.585        -257.311          49.312    20022395.040    83130118.184        -200.130          48.562
R23  21008719.440   112382702.491        3604.359          47.562    21008720.480    87408115.282        2803.391          41.750
E02  25136535.440   132092815.041          31.701          50.562    25136532.280   101213995.418          24.219          52.312    25136533.700    99927510.039          23.931          48.875    25136534.460    98640760.652          23.610          50.625
E03  25542001.240   134224787.941       -2404.815          49.750    25542000.040   102847527.344       -1842.736          51.875    25542000.700   101540099.965       -1819.309          47.688    25542001.140   100232716.587       -1795.864          49.312
E07  27530765.440   144674552.239        1332.626          43.938    27530764.740   110854920.683        1021.252          49.812    27530764.960   109445259.589        1008.184          43.125    27530767.020   108036323.479         995.186          42.312
E08  22914052.760   120414676.709        -730.429          51.125    22914048.960    92265795.698        -559.711          52.562    22914050.100    91093095.053        -552.639          49.125    22914050.320    89920056.402        -545.509          50.562
E30  24650682.480   129539711.087         656.251          47.312    24650680.960    99258096.540         502.901          50.500    24650681.760    97996348.685         496.490          45.250    24650682.340    96734588.833         490.067          47.125
S20  38226338.580   200881251.417          38.176          42.375
S35  40665725.500   213699260.355          -4.082          40.250
S38  38181663.640   200646430.986          -1.650          46.188
> 2018 01 01 00 00 35.0000000  0 28
G03  24432548.580   128393515.186       -1252.410          40.375    24432546.180   100047014.148        -975.904          38.875    24432546.360    95878646.403        -935.542          48.125
G08  21762753.640   114364707.001        2699.713          47.625    21762750.240    89115039.494        2103.672          44.562    21762750.620    85401400.570        2015.905          51.750
G09  24855880.100   130618805.996        3204.674          38.750    24855876.100   101780887.614        2497.149          35.562    24855878.980    97539650.758        2393.227          47.312
G14  22806220.320   119846942.672       -3317.274          42.938    22806214.800    93387229.189       -2584.890          38.000
G16  21432238.900   112626754.987       -1284.526          48.125    21432231.720    87761115.547       -1000.928          44.125
G21  25453532.620   133759333.145        -928.441          41.625    25453524.380   104228473.539        -723.458          32.500
G22  24260201.680   127488364.175       -1180.250          43.375    24260192.400    99341657.360        -919.675          36.250
G23  22335788.660   117375231.192        2391.027          47.688    22335779.540    91461599.599        1863.139          41.312
G26  22675644.500   119162123.350       -1714.878          47.188    22675641.020    92852648.019       -1336.268          41.875    22675641.820    88984185.889       -1280.540          50.500
G27  19987189.880   105034144.184         590.022          49.875    19987185.000    81844581.323         459.759          49.688    19987186.280    78433958.219         440.526          52.812
G31  22497653.560   118226499.809        -828.815          49.062    22497646.120    92124582.086        -645.831          41.938
R01  22692299.520   121302810.180       -3462.136          42.625    22692301.180    94346634.480       -2692.772          36.562
R02  21349617.900   113926197.318       -1234.782          47.812    21349618.200    88608835.802        -960.386          45.000
R03  23537217.700   125995989.475        1659.984          41.500    23537215.180    97996880.944        1291.101          39.312
R11  22641932.100   120992527.339        -442.407          43.562    22641932.240    94105332.104        -344.094          40.750
R12  21731084.120   116083548.887         688.460          44.000
R13  23824100.740   127218863.598        1443.929          38.188
R21  23428410.380   125370441.578       -3387.504          42.875    23428408.980    97510184.050       -2634.724          41.688
R22  20022443.460   106881807.313        -258.156          49.375    20022443.320    83130318.640        -200.787          48.562
R23  21008045.660   112379098.292        3603.990          47.375    21008046.720    87405312.014        2803.105          41.688
E02  25136529.400   132092783.296          31.728          50.500    25136526.240   101213971.087          24.384          52.312    25136527.660    99927486.014          24.070          48.938    25136528.420    98640736.938          23.793          50.688
E03  25542458.880   134227192.818       -2404.811          49.750    25542457.680   102849370.047       -1842.697          51.875    25542458.320   101541919.246       -1819.290          47.812    25542458.780   100234512.443       -1795.879          49.312
E07  27530511.820   144673219.554        1332.537          44.062    27530511.180   110853899.555        1020.949          49.875    27530511.380   109444251.435        1007.973          43.188    27530513.380   108035328.302         994.892          42.125
E08  22914191.800   120415407.279        -730.762          51.125    22914187.980    92266355.488        -559.941          52.625    22914189.120    91093647.723        -552.797          49.188    22914189.340    89920601.958        -545.673          50.562
E30  24650557.520   129539054.650         656.420          47.375    24650556.020    99257593.551         503.020          50.562    24650556.860    97995852.088         496.695          45.375    24650557.420    96734098.628         490.263          47.125
S20  38226332.000   200881212.948          38.336          42.562
S35  40665726.200   213699264.445          -3.618          40.312
S38  38181664.000   200646432.646          -1.677          46.125
> 2018 01 01 00 00 36.0000000  0 29
G03  24432786.980   128394767.971       -1252.579          40.625    24432784.540   100047990.345        -976.036          37.688    24432784.780    95879581.915        -935.445          48.125
G08  21762239.960   114362007.623        2699.436          47.562    21762236.580    89112936.083        2103.457          44.500    21762236.940    85399384.797        2015.743          51.750
G09  24855270.260   130615601.316        3204.491          38.688    24855266.200   101778390.458        2497.007          31.312    24855269.160    97537257.662        2393.189          47.188
G14  22806851.560   119850260.016       -3317.339          42.625    22806846.060    93389814.130       -2584.939          39.125
G16  21432483.340   112628039.543       -1284.360          48.125    21432476.160    87762116.499       -1000.799          43.375
G21  25453709.320   133760261.654        -928.426          41.750    25453701.060   104229197.049        -723.448          33.625
G22  24260426.240   127489544.324       -1179.836          43.750    24260416.980    99342576.949        -919.355          35.625
G23  22335333.700   117372840.366        2390.916          47.688    22335324.600    91459736.618        1863.052          41.062
G26  22675970.820   119163838.129       -1714.483          47.188    22675967.320    92853984.210       -1335.961          41.812    22675968.140    88985466.413       -1280.340          50.500
G27  19987077.680   105033554.582         589.532          49.875    19987072.800    81844121.895         459.376          49.688    19987074.100    78433517.933         440.209          52.812
G31  22497811.300   118227328.771        -828.801          49.062    22497803.860    92125228.032        -645.819          42.125
G32                                                                                                                                  25151474.740    98699950.434       -2712.361          48.375
R01  22692947.200   121306272.388       -3462.000          42.688    22692948.840    94349327.311       -2692.667          35.875
R02  21349849.380   113927432.530       -1235.225          47.812    21349849.660    88609796.524        -960.731          44.875
R03  23536907.640   125994329.630        1659.560          41.562    23536905.120    97995589.955        1290.770          39.375
R11  22642014.940   120992970.016        -442.364          43.375    22642015.060    94105676.409        -344.060          40.938
R12  21730955.260   116082860.419         688.903          44.062
R13  23823830.360   127217419.779        1444.290          37.875
R21  23429043.480   125373829.327       -3387.566          42.625    23429042.080    97512818.968       -2634.772          41.688
R22  20022491.900   106882065.926        -258.880          49.312    20022491.760    83130519.784        -201.350          48.438
R23  21007371.960   112375494.467        3603.862          47.375    21007373.020    87402509.040        2803.004          41.750
E02  25136523.340   132092751.405          32.291          50.500    25136520.160   101213946.662          24.644          52.375    25136521.580    99927461.901          24.345          48.938    25136522.360    98640713.129          24.048          50.625
E03  25542916.520   134229597.743       -2404.532          49.812    25542915.320   102851212.783       -1842.564          51.875    25542915.960   101543738.557       -1819.103          47.812    25542916.420   100236308.327       -1795.683          49.375
E07  27530258.280   144671887.240        1332.290          43.875    27530257.680   110852878.675        1020.912          49.875    27530257.860   109443243.528        1007.930          43.125    27530259.780   108034333.368         994.841          42.000
E08  22914330.900   120416138.200        -730.795          51.125    22914327.080    92266915.548        -560.063          52.562    22914328.200    91094200.664        -552.924          49.125    22914328.440    89921147.779        -545.801          50.562
E30  24650432.560   129538398.095         656.729          47.188    24650431.060    99257090.477         503.291          50.562    24650431.920    97995355.410         496.935          45.438    24650432.480    96733608.342         490.561          47.250
S20  38226324.500   200881174.415          38.855          42.438
S35  40665727.020   213699268.648          -4.199          40.312
S38  38181664.300   200646434.281          -1.376          46.188
> 2018 01 01 00 00 37.0000000  0 29
G03  24433025.220   128396020.114       -1252.034          40.750    24433022.780   100048966.046        -975.610          39.000    24433023.060    95880516.957        -934.854          48.062
G08  21761726.240   114359307.967        2699.944          47.500    21761722.860    89110832.457        2103.855          45.000    21761723.220    85397368.820        2016.147          51.750
G09  24854660.340   130612396.152        3205.622          38.375    24854656.220   101775892.915        2497.885          31.312    24854659.260    97534864.207        2393.706          47.125
G14  22807482.740   119853576.921       -3316.673          42.875    22807477.260    93392398.727       -2584.422          38.125
G16  21432727.660   112629323.514       -1283.573          48.125    21432720.480    87763116.995       -1000.187          43.938
G21  25453885.920   133761189.809        -927.641          41.875    25453877.620   104229920.290        -722.836          31.688
G22  24260650.680   127490723.728       -1179.038          43.750    24260641.440    99343495.961        -918.733          36.000
G23  22334878.680   117370449.320        2391.175          47.625    22334869.580    91457873.464        1863.255          41.375
G26  22676296.980   119165552.153       -1713.585          47.188    22676293.500    92855319.813       -1335.261          41.188    22676294.320    88986746.360       -1279.626          50.500
G27  19986965.480   105032964.975         589.689          49.875    19986960.600    81843662.461         459.498          49.812    19986961.900    78433077.638         440.362          52.812
G31  22497968.960   118228157.290        -828.137          49.125    22497961.540    92125873.629        -645.301          41.812
G32  25152164.800   132175277.254       -3630.256          41.750                                                                    25152165.120    98702661.947       -2710.801          43.688
R01  22693594.740   121309733.830       -3460.711          42.375    22693596.360    94352019.544       -2691.664          35.875
R02  21350080.840   113928667.631       -1234.899          47.688    21350081.100    88610757.157        -960.478          44.938
R03  23536597.580   125992669.744        1660.048          41.375    23536595.020    97994298.933        1291.149          39.625
R11  22642097.640   120993412.004        -441.612          43.625    22642097.760    94106020.177        -343.477          40.812
R12  21730826.220   116082171.132         689.924          43.875
R13  23823559.780   127215975.051        1445.368          38.312
R21  23429676.540   125377216.857       -3387.391          42.750    23429675.160    97515453.718       -2634.635          41.812
R22  20022540.400   106882324.729        -258.839          49.250    20022540.240    83130721.075        -201.319          48.438
R23  21006698.200   112371890.335        3604.292          47.312    21006699.280    87399705.825        2803.339          41.875
E02  25136517.140   132092718.722          33.169          50.500    25136513.940   101213921.615          25.396          52.312    25136515.380    99927437.172          25.059          48.875    25136516.160    98640688.731          24.662          50.688
E03  25543374.040   134232002.056       -2403.870          49.812    25543372.840   102853055.047       -1841.976          51.875    25543373.500   101545557.403       -1818.542          47.750    25543373.940   100238103.754       -1795.137          49.375
E07  27530004.640   144670554.573        1332.795          43.688    27530004.140   110851857.549        1021.244          49.875    27530004.280   109442235.385        1008.307          43.250    27530006.140   108033338.215         995.195          41.938
E08  22914469.920   120416868.799        -730.367          51.125    22914466.100    92267475.350        -559.606          52.562    22914467.240    91094753.354        -552.540          49.125    22914467.460    89921693.353        -545.370          50.562
E30  24650307.440   129537740.738         657.836          47.188    24650305.960    99256586.795         504.029          50.562    24650306.840    97994858.135         497.635          45.375    24650307.380    96733117.470         491.174          47.188
S20  38226316.260   200881135.236          39.763          42.500
S35  40665727.660   213699272.126          -3.238          40.250
S38  38181664.480   200646435.185           -.505          46.250
> 2018 01 01 00 00 38.0000000  0 29
G03  24433263.440   128397271.830       -1251.789          40.938    24433260.940   100049941.402        -975.420          37.125    24433261.280    95881451.662        -934.476          48.125
G08  21761212.500   114356608.219        2699.834          47.562    21761209.120    89108728.759        2103.767          44.750    21761209.480    85395352.774        2016.071          51.750
G09  24854050.380   130609190.711        3205.585          38.125    24854046.200   101773395.166        2497.855          32.750    24854049.280    97532470.534        2393.781          47.000
G14  22808113.880   119856893.558       -3316.556          42.812    22808108.400    93394983.111       -2584.332          38.750
G16  21432971.920   112630607.065       -1283.247          48.125    21432964.740    87764117.165        -999.932          43.625
G21  25454062.520   133762117.833        -928.006          42.062    25454054.140   104230643.417        -723.121          31.312
G22  24260875.000   127491902.535       -1178.434          44.000    24260865.780    99344414.509        -918.262          36.250
G23  22334423.660   117368058.208        2391.120          47.625    22334414.540    91456010.262        1863.211          41.250
G26  22676623.040   119167265.592       -1713.090          47.125    22676619.540    92856654.960       -1334.874          41.750    22676620.380    88988025.874       -1279.247          50.562
G27  19986853.320   105032375.502         589.459          49.875    19986848.420    81843203.131         459.320          49.750    19986849.720    78432637.449         440.185          52.812
G31  22498126.580   118228985.546        -828.074          49.062    22498119.160    92126519.026        -645.252          42.000
G32  25152856.580   132178908.192       -3630.812          37.875    25152852.660   102997317.860       -2829.205          30.688    25152856.820    98705373.216       -2710.773          43.125
R01  22694242.180   121313194.744       -3460.423          42.438    22694243.760    94354711.364       -2691.441          36.188
R02  21350312.300   113929902.815       -1235.200          47.625    21350312.560    88611717.858        -960.711          44.875
R03  23536287.560   125991010.010        1659.654          41.125    23536284.980    97993008.026        1290.843          39.625
R11  22642180.220   120993853.463        -441.205          43.625    22642180.340    94106363.532        -343.159          40.625
R12  21730697.060   116081481.196         690.315          43.875
R13  23823289.100   127214529.589        1445.931          38.375
R21  23430309.600   125380604.329       -3387.299          42.438    23430308.200    97518088.416       -2634.564          41.750
R22  20022588.940   106882583.884        -259.213          49.125    20022588.780    83130922.643        -201.610          48.375
R23  21006024.420   112368286.045        3604.479          47.188    21006025.500    87396902.491        2803.485          41.750
E02  25136510.800   132092685.397          33.763          50.500    25136507.580   101213896.080          25.819          52.312    25136509.020    99927411.962          25.478          48.875    25136509.840    98640663.841          25.108          50.688
E03  25543831.480   134234405.903       -2403.520          49.812    25543830.280   102854896.956       -1841.666          51.875    25543830.920   101547375.897       -1818.285          47.750    25543831.380   100239898.838       -1794.960          49.375
E07  27529750.980   144669221.744        1332.884          43.625    27529750.540   110850836.280        1021.420          49.875    27529750.660   109441227.096        1008.419          43.250    27529752.440   108032342.908         995.228          42.000
E08  22914608.940   120417599.239        -730.265          51.125    22914605.080    92268035.040        -559.613          52.562    22914606.220    91095305.924        -552.474          49.125    22914606.480    89922238.811        -545.372          50.625
E30  24650182.200   129537082.779         658.274          47.250    24650180.720    99256082.640         504.416          50.562    24650181.620    97994360.387         497.988          45.375    24650182.160    96732626.135         491.545          47.312
S20  38226308.540   200881095.558          40.160          42.625
S35  40665728.180   213699275.142          -2.561          40.125
S38  38181664.560   200646435.645           -.125          46.250
> 2018 01 01 00 00 39.0000000  0 28
G03  24433501.560   128398523.153       -1251.490          40.812    24433499.040   100050916.456        -975.187          38.000    24433499.420    95882386.096        -934.409          48.188
G08  21760698.740   114353908.465        2699.469          47.562    21760695.400    89106625.055        2103.482          44.812    21760695.720    85393336.723        2015.899          51.812
G09  24853440.340   130605985.005        3205.563          37.750    24853436.080   101770897.205        2497.840          31.500    24853439.280    97530076.681        2393.821          46.938
G14  22808744.960   119860210.013       -3316.637          42.938    22808739.480    93397567.356       -2584.396          39.750
G16  21433216.120   112631890.286       -1283.211          48.250    21433208.920    87765117.078        -999.904          43.875
G21  25454239.120   133763045.748        -928.005          42.188    25454230.700   104231366.469        -723.119          33.812
G22  24261099.240   127493080.845       -1178.303          44.000    24261090.000    99345332.675        -918.160          35.312
G23  22333968.640   117365667.117        2390.828          47.812    22333959.540    91454147.072        1862.984          41.375
G26  22676949.020   119168978.531       -1712.953          47.125    22676945.520    92857989.722       -1334.768          42.250    22676946.340    88989305.021       -1279.138          50.562
G27  19986741.180   105031786.270         588.850          49.875    19986736.300    81842743.990         458.845          49.812    19986737.600    78432197.441         439.775          52.812
G31  22498284.160   118229813.630        -828.199          49.062    22498276.740    92127164.282        -645.351          42.312
R01  22694889.500   121316655.158       -3460.380          42.375    22694891.100    94357402.793       -2691.407          35.812
R02  21350543.800   113931138.199       -1235.751          47.625    21350544.060    88612678.712        -961.140          44.812
R03  23535977.540   125989350.469        1659.119          40.812    23535974.960    97991717.270        1290.426          39.562
R11  22642262.740   120994294.521        -441.022          43.750    22642262.860    94106706.577        -343.016          40.875
R12  21730567.800   116080790.707         690.561          44.125
R13  23823018.320   127213083.461        1446.629          38.125
R21  23430942.700   125383991.819       -3387.829          42.375    23430941.240    97520723.133       -2634.977          41.688
R22  20022637.580   106882843.504        -260.050          49.125    20022637.400    83131124.566        -202.260          48.438
R23  21005350.620   112364681.720        3604.138          47.312    21005351.700    87394099.131        2803.220          41.812
E02  25136504.360   132092651.533          33.899          50.562    25136501.140   101213870.131          26.000          52.312    25136502.580    99927386.344          25.668          48.938    25136503.400    98640638.552          25.299          50.688
E03  25544288.840   134236809.399       -2403.611          49.875    25544287.640   102856738.592       -1841.708          51.875    25544288.280   101549194.123       -1818.291          47.688    25544288.740   100241693.645       -1794.784          49.438
E07  27529497.300   144667888.817        1332.860          43.500    27529496.940   110849814.965        1021.202          49.875    27529497.040   109440218.765        1008.232          43.188    27529498.740   108031347.551         995.098          41.812
E08  22914747.920   120418329.605        -730.632          51.188    22914744.060    92268594.665        -559.730          52.562    22914745.220    91095858.439        -552.627          49.125    22914745.460    89922784.211        -545.518          50.625
E30  24650056.880   129536424.270         658.669          47.312    24650055.400    99255578.069         504.626          50.500    24650056.320    97993862.233         498.212          45.375    24650056.860    96732134.397         491.730          47.375
S20  38226301.360   200881055.425          40.281          42.375
S35  40665728.700   213699277.747          -2.430          40.188
S38  38181664.600   200646435.702           -.186          46.312
> 2018 01 01 00 00 40.0000000  0 28
G03  24433739.740   128399774.955       -1252.053          40.938    24433737.240   100051891.888        -975.627          38.688    24433737.660    95883320.903        -935.082          48.125
G08  21760185.160   114351209.541        2698.304          47.625    21760181.820    89104521.996        2102.574          44.625    21760182.140    85391321.301        2014.976          51.812
G09  24852830.440   130602779.965        3204.757          38.125    24852826.160   101768399.791        2497.215          33.375    24852829.380    97527683.323        2392.992          46.750
G14  22809376.160   119863527.144       -3317.595          43.375    22809370.720    93400152.133       -2585.142          37.688
G16  21433460.400   112633174.031       -1284.163          48.312    21433453.200    87766117.400       -1000.647          43.625
G21  25454415.840   133763974.449        -929.326          42.375    25454407.460   104232090.157        -724.143          30.875
G22  24261323.560   127494259.505       -1178.986          43.812    24261314.260    99346251.112        -918.691          36.250
G23  22333513.800   117363276.911        2389.642          47.875    22333504.700    91452284.581        1862.060          41.062
G26  22677275.040   119170691.825       -1713.621          47.125    22677271.540    92859324.756       -1335.288          41.688    22677272.360    88990584.429       -1279.688          50.562
G27  19986629.260   105031198.122         587.415          49.938    19986624.380    81842285.695         457.727          49.875    19986625.680    78431758.243         438.654          52.812
G31  22498441.860   118230642.381        -829.212          49.062    22498434.460    92127810.061        -646.140          42.438
R01  22695536.900   121320115.941       -3460.945          42.375    22695538.480    94360094.515       -2691.848          35.625
R02  21350775.520   113932374.662       -1237.218          47.625    21350775.760    88613640.405        -962.279          44.938
R03  23535667.760   125987692.016        1657.903          40.688    23535665.160    97990427.358        1289.480          39.562
R11  22642345.360   120994736.054        -441.856          43.562    22642345.480    94107049.990        -343.667          40.938
R12  21730438.600   116080100.528         689.780          43.938
R13  23822747.500   127211637.598        1445.412          38.250
R21  23431575.920   125387380.176       -3389.045          42.312    23431574.460    97523358.522       -2635.923          41.812
R22  20022686.460   106883104.447        -261.729          49.000    20022686.280    83131327.525        -203.565          48.500
R23  21004676.980   112361078.213        3602.905          47.250    21004678.080    87391296.404        2802.261          41.750
E02  25136497.980   132092617.967          33.255          50.625    25136494.740   101213844.411          25.501          52.312    25136496.200    99927360.949          25.185          48.938    25136497.020    98640613.484          24.852          50.750
E03  25544746.300   134239213.357       -2404.430          49.875    25544745.100   102858580.596       -1842.324          51.875    25544745.740   101551012.709       -1818.913          47.688    25544746.200   100243488.826       -1795.493          49.375
E07  27529243.780   144666556.673        1331.765          43.250    27529243.480   110848794.238        1020.355          49.938    27529243.560   109439211.015        1007.331          43.250    27529245.180   108030352.766         994.436          42.000
E08  22914887.060   120419060.745        -731.623          51.250    22914883.200    92269154.904        -560.682          52.562    22914884.340    91096411.555        -553.526          49.125    22914884.600    89923330.202        -546.415          50.625
E30  24649931.600   129535766.090         657.882          47.375    24649930.120    99255073.753         504.115          50.500    24649931.080    97993364.327         497.726          45.375    24649931.600    96731642.899         491.314          47.312
S20  38226293.260   200881015.674          39.388          42.562
S35  40665729.240   213699280.747          -3.263          40.375
S38  38181664.680   200646436.110           -.828          46.188
> 2018 01 01 00 00 41.0000000  0 28
G03  24433978.060   128401027.385       -1252.439          40.875    24433975.540   100052867.805        -975.927          38.312    24433976.020    95884256.147        -935.253          48.188
G08  21759671.740   114348511.577        2697.753          47.562    21759668.420    89102419.690        2102.146          45.375    21759668.740    85389306.587        2014.518          51.875
G09  24852220.700   130599575.706        3203.842          37.875    24852216.360   101765902.971        2496.503          29.938    24852219.620    97525290.516        2392.728          46.688
G14  22810007.540   119866845.044       -3318.133          43.500    22810002.120    93402737.506       -2585.561          38.062
G16  21433704.820   112634458.396       -1284.520          48.312    21433697.600    87767118.204       -1000.925          43.625
G21  25454592.740   133764904.020        -929.754          42.375    25454584.380   104232814.504        -724.480          30.625
G22  24261547.940   127495438.622       -1179.019          44.000    24261538.660    99347169.904        -918.716          36.125
G23  22333059.140   117360887.686        2389.039          47.875    22333050.040    91450422.846        1861.590          41.625
G26  22677601.160   119172405.566       -1713.746          47.125    22677597.660    92860660.136       -1335.388          41.812    22677598.480    88991864.167       -1279.744          50.625
G27  19986517.580   105030611.166         586.543          50.000    19986512.680    81841828.326         457.047          49.875    19986514.000    78431319.930         438.052          52.875
G31  22498599.720   118231471.901        -829.621          49.062    22498592.320    92128456.437        -646.459          42.375
R01  22696184.400   121323577.242       -3461.194          42.188    22696185.980    94362786.638       -2692.041          36.188
R02  21351007.460   113933612.288       -1238.011          47.625    21351007.680    88614603.005        -962.897          44.875
R03  23535358.160   125986034.725        1656.932          40.688    23535355.560    97989138.350        1288.723          39.562
R11  22642428.080   120995178.149        -442.061          43.250    22642428.180    94107393.843        -343.825          40.688
R12  21730309.500   116079410.763         689.752          43.938
R13  23822476.820   127210192.030        1445.731          37.938
R21  23432209.340   125390769.513       -3389.738          42.375    23432207.840    97525994.674       -2636.461          41.875
R22  20022735.600   106883366.810        -262.859          49.062    20022735.420    83131531.583        -204.445          48.438
R23  21004003.520   112357475.632        3602.332          47.125    21004004.620    87388494.398        2801.816          41.625
E02  25136491.680   132092584.797          33.141          50.625    25136488.420   101213818.997          25.451          52.312    25136489.880    99927335.863          25.111          48.938    25136490.720    98640588.718          24.772          50.750
E03  25545203.880   134241617.914       -2404.685          49.875    25545202.680   102860423.040       -1842.468          51.875    25545203.320   101552831.737       -1819.092          47.688    25545203.760   100245284.431       -1795.716          49.438
E07  27528990.420   144665225.428        1330.879          43.125    27528990.180   110847774.181        1019.896          50.000    27528990.240   109438203.911        1006.989          43.312    27528991.800   108029358.643         993.933          41.812
E08  22915026.360   120419792.775        -732.174          51.250    22915022.480    92269715.803        -561.062          52.562    22915023.640    91096965.326        -553.951          49.125    22915023.900    89923876.847        -546.801          50.625
E30  24649806.420   129535108.326         657.836          47.500    24649804.940    99254569.754         504.051          50.500    24649805.920    97992866.740         497.612          45.375    24649806.440    96731151.715         491.211          47.375
S20  38226285.580   200880976.518          39.187          42.500
S35  40665729.840   213699284.294          -3.837          40.312
S38  38181664.880   200646437.019          -1.137          46.375
> 2018 01 01 00 00 42.0000000  0 28
G03  24434216.440   128402280.091       -1252.898          40.625    24434213.880   100053843.938        -976.287          38.812    24434214.420    95885191.609        -935.496          48.250
G08  21759158.460   114345814.262        2697.106          47.625    21759155.160    89100317.890        2101.643          44.688    21759155.460    85387292.356        2014.094          51.875
G09  24851611.040   130596371.846        3203.589          38.250    24851606.700   101763406.465        2496.309          32.812    24851609.960    97522898.023        2392.558          46.562
G14  22810638.980   119870163.408       -3318.230          43.375    22810633.560    93405323.244       -2585.635          37.750
G16  21433949.280   112635743.068       -1284.663          48.312    21433942.060    87768119.249       -1001.035          43.875
G21  25454769.740   133765834.165        -930.119          42.312    25454761.340   104233539.283        -724.763          30.625
G22  24261772.340   127496617.910       -1179.360          44.062    24261763.080    99348088.829        -918.982          35.875
G23  22332604.620   117358499.148        2388.263          47.938    22332595.520    91448561.649        1860.985          41.688
G26  22677927.300   119174119.474       -1713.941          47.125    22677923.800    92861995.643       -1335.540          41.625    22677924.640    88993144.027       -1279.782          50.625
G27  19986406.060   105030025.088         585.889          50.000    19986401.160    81841371.642         456.538          49.875    19986402.460    78430882.276         437.480          52.875
G31  22498757.660   118232301.905        -830.063          49.062    22498750.260    92129103.195        -646.803          41.938
R01  22696831.920   121327038.723       -3461.478          42.000    22696833.500    94365478.899       -2692.262          35.938
R02  21351239.540   113934850.753       -1238.700          47.688    21351239.760    88615566.256        -963.434          44.750
R03  23535048.720   125984378.276        1656.341          40.750    23535046.140    97987849.996        1288.263          39.625
R11  22642510.840   120995620.474        -442.211          43.000    22642510.960    94107737.867        -343.943          40.750
R12  21730180.380   116078721.117         689.741          44.062
R13  23822206.100   127208746.446        1445.719          38.062
R21  23432842.880   125394159.542       -3390.273          42.438    23432841.380    97528631.366       -2636.878          41.938
R22  20022784.960   106883630.295        -263.906          49.125    20022784.780    83131736.520        -205.259          48.375
R23  21003330.160   112353873.675        3601.764          47.125    21003331.280    87385692.878        2801.373          41.562
E02  25136485.380   132092551.735          33.208          50.625    25136482.140   101213793.668          25.371          52.312    25136483.580    99927310.854          25.063          48.938    25136484.440    98640564.027          24.779          50.812
E03  25545661.500   134244022.747       -2404.750          49.875    25545660.300   102862265.713       -1842.677          51.875    25545660.940   101554650.984       -1819.268          47.750    25545661.400   100247080.252       -1795.811          49.562
E07  27528737.140   144663894.722        1330.609          42.875    27528737.000   110846754.557        1019.482          49.938    27528737.040   109437197.258        1006.559          43.188    27528738.500   108028364.932         993.767          42.062
E08  22915165.780   120420525.387        -732.706          51.188    22915161.900    92270277.157        -561.461          52.625    22915163.060    91097519.538        -554.280          49.188    22915163.320    89924423.922        -547.152          50.625
E30  24649681.260   129534450.692         657.757          47.625    24649679.760    99254065.849         503.971          50.562    24649680.760    97992369.238         497.532          45.438    24649681.280    96730660.619         491.108          47.375
S20  38226278.520   200880937.537          39.307          42.625
S35  40665730.580   213699287.941          -3.868          39.875
S38  38181665.120   200646438.248          -1.513          46.188
> 2018 01 01 00 00 43.0000000  0 29
G03  24434454.800   128403532.768       -1252.484          40.688    24434452.240   100054820.048        -975.961          38.125    24434452.820    95886127.058        -935.330          48.188
G08  21758645.260   114343117.302        2696.875          47.688    21758641.960    89098216.361        2101.462          44.812    21758642.260    85385278.391        2013.930          51.875
G09  24851001.400   130593168.131        3204.222          38.188    24850997.120   101760910.069        2496.798          34.438    24851000.320    97520505.658        2392.420          46.375
G14  22811270.460   119873481.962       -3318.709          43.375    22811265.080    93407909.127       -2586.009          37.625
G16  21434193.760   112637027.774       -1284.505          48.375    21434186.540    87769120.317       -1000.913          44.062
G21  25454946.820   133766764.623        -930.546          42.125    25454938.400   104234264.343        -725.091          27.500
G22  24261996.740   127497797.029       -1178.945          44.188    24261987.460    99349007.626        -918.658          35.375
G23  22332150.160   117356110.985        2388.058          47.938    22332141.060    91446700.744        1860.826          40.875
G26  22678253.420   119175833.220       -1713.631          47.188    22678249.900    92863331.030       -1335.299          41.312    22678250.760    88994423.776       -1279.578          50.625
G27  19986294.640   105029439.608         585.348          50.062    19986289.740    81840915.424         456.117          49.812    19986291.060    78430445.069         437.083          52.875
G31  22498915.620   118233132.077        -830.002          49.062    22498908.240    92129750.084        -646.755          41.625
G32  25156310.300   132197068.457       -3631.159          45.188                                                                    25156311.160    98718401.937       -2711.455          46.125
R01  22697479.440   121330500.093       -3461.145          41.812    22697480.980    94368171.076       -2692.002          35.562
R02  21351471.740   113936089.745       -1239.166          47.750    21351471.920    88616529.916        -963.796          44.688
R03  23534739.380   125982722.429        1655.591          40.688    23534736.820    97986562.114        1287.680          39.812
R11  22642593.600   120996062.728        -442.164          43.125    22642593.700    94108081.841        -343.906          40.812
R12  21730051.240   116078031.283         690.040          44.000
R13  23821935.300   127207300.614        1446.108          37.625
R21  23433476.520   125397549.990       -3390.613          42.312    23433475.000    97531268.384       -2637.143          41.875
R22  20022834.460   106883894.590        -264.594          49.125    20022834.280    83131942.087        -205.794          48.375
R23  21002656.860   112350272.033        3601.577          47.062    21002658.000    87382891.601        2801.228          41.562
E02  25136479.060   132092518.489          33.490          50.625    25136475.800   101213768.192          25.628          52.375    25136477.260    99927285.701          25.313          49.000    25136478.120    98640539.205          24.986          50.812
E03  25546119.140   134246427.585       -2404.718          49.875    25546117.940   102864108.375       -1842.554          51.875    25546118.560   101556470.228       -1819.139          47.812    25546119.020   100248876.067       -1795.669          49.562
E07  27528483.940   144662564.300        1330.403          42.875    27528483.860   110845735.148        1019.358          50.000    27528483.900   109436190.808        1006.353          43.375    27528485.280   108027371.449         993.433          41.938
E08  22915305.260   120421258.286        -732.950          51.312    22915301.340    92270838.723        -561.561          52.625    22915302.520    91098073.969        -554.401          49.250    22915302.780    89924971.216        -547.273          50.688
E30  24649556.080   129533792.869         658.126          47.688    24649554.580    99253561.815         504.131          50.562    24649555.580    97991871.605         497.746          45.438    24649556.100    96730169.390         491.361          47.375
S20  38226271.180   200880898.457          39.211          42.688
S35  40665731.200   213699291.507          -2.987          40.938
S38  38181665.340   200646439.499          -1.152          46.188
> 2018 01 01 00 00 44.0000000  0 29
G03  24434693.080   128404785.046       -1252.236          40.375    24434690.540   100055795.853        -975.768          37.875    24434691.140    95887062.181        -934.942          48.188
G08  21758132.040   114340420.279        2696.914          47.750    21758128.740    89096114.784        2101.492          44.375    21758129.040    85383264.376        2014.026          51.812
G09  24850391.720   130589964.150        3204.078          38.312    24850387.540   101758413.444        2496.683          32.188    24850390.600    97518113.055        2392.792          46.062
G14  22811901.900   119876800.252       -3318.291          43.688    22811896.540    93410494.815       -2585.681          37.312
G16  21434438.140   112638312.077       -1284.181          48.562    21434430.940    87770121.070       -1000.660          43.312
G21  25455123.860   133767694.891        -930.067          42.062    25455115.440   104234989.237        -724.719          32.875
G22  24262221.020   127498975.581       -1178.248          44.188    24262211.740    99349925.978        -918.115          36.062
G23  22331695.700   117353722.778        2388.159          48.125    22331686.600    91444839.804        1860.904          41.125
G26  22678579.420   119177546.409       -1712.966          47.250    22678575.920    92864665.983       -1334.779          41.812    22678576.760    88995703.100       -1279.084          50.625
G27  19986183.260   105028854.289         585.190          50.125    19986178.360    81840459.333         455.993          49.750    19986179.680    78430007.978         436.985          52.812
G31  22499073.560   118233961.997        -829.852          49.125    22499066.180    92130396.774        -646.639          41.938
G32  25157000.940   132200698.969       -3629.390          40.375    25156999.360   103014288.893       -2828.096          31.938    25157001.680    98721113.348       -2711.319          45.938
R01  22698126.860   121333960.924       -3460.602          41.750    22698128.380    94370862.837       -2691.578          35.688
R02  21351703.940   113937328.796       -1239.146          47.875    21351704.120    88617493.620        -963.780          44.875
R03  23534430.060   125981066.720        1655.533          41.188    23534427.540    97985274.337        1287.635          39.750
R11  22642676.260   120996504.513        -441.654          42.938    22642676.340    94108425.452        -343.510          40.688
R12  21729921.980   116077340.818         690.767          44.062
R13  23821664.360   127205854.068        1447.035          37.875
R21  23434110.100   125400940.374       -3390.446          42.188    23434108.580    97533905.350       -2637.013          41.938
R22  20022884.040   106884159.258        -264.896          49.125    20022883.860    83132147.937        -206.030          48.375
R23  21001983.540   112346670.267        3601.765          47.000    21001984.680    87380090.227        2801.374          41.562
E02  25136472.620   132092484.620          34.149          50.688    25136469.340   101213742.234          26.198          52.375    25136470.820    99927260.072          25.869          49.000    25136471.680    98640513.903          25.496          50.750
E03  25546576.660   134248831.964       -2404.051          49.938    25546575.480   102865950.697       -1842.166          51.875    25546576.100   101558289.124       -1818.718          47.750    25546576.560   100250671.554       -1795.303          49.500
E07  27528230.680   144661233.730        1330.853          42.938    27528230.700   110844715.621        1019.529          50.000    27528230.720   109435184.241        1006.575          43.188    27528232.020   108026377.845         993.581          41.812
E08  22915444.700   120421991.035        -732.677          51.312    22915440.780    92271400.180        -561.391          52.625    22915441.960    91098628.291        -554.292          49.250    22915442.220    89925518.405        -547.200          50.625
E30  24649430.780   129533134.453         658.594          47.812    24649429.260    99253057.300         504.724          50.500    24649430.300    97991373.502         498.329          45.375    24649430.800    96729677.709         491.816          47.375
S20  38226263.980   200880859.005          39.483          42.875
S35  40665731.860   213699294.594          -2.809          40.312
S38  38181665.480   200646440.217           -.528          46.375
> 2018 01 01 00 00 45.0000000  0 28
G03  24434931.400   128406037.410       -1252.354          40.250    24434928.820   100056771.717        -975.860          36.875    24434929.480    95887997.411        -935.341          48.188
G08  21757618.900   114337723.715        2696.289          47.625    21757615.620    89094013.568        2101.006          44.812    21757615.920    85381250.718        2013.392          51.875
G09  24849782.080   130586760.457        3203.172          38.125    24849777.880   101755917.066        2495.980          33.250    24849780.960    97515720.677        2392.276          46.125
G14  22812533.400   119880118.856       -3318.768          43.625    22812528.080    93413080.743       -2586.053          37.375
G16  21434682.560   112639596.523       -1284.625          48.438    21434675.360    87771121.937       -1001.007          43.188
G21  25455300.960   133768625.592        -930.721          42.000    25455292.560   104235714.446        -725.233          29.562
G22  24262445.320   127500154.131       -1178.594          44.312    24262436.040    99350844.328        -918.385          36.562
G23  22331241.340   117351335.082        2387.416          48.125    22331232.240    91442979.257        1860.323          41.250
G26  22678905.440   119179259.569       -1713.259          47.125    22678901.920    92866000.908       -1335.008          41.500    22678902.760    88996982.415       -1279.425          50.625
G27  19986072.020   105028269.682         584.203          50.125    19986067.120    81840003.796         455.224          49.688    19986068.420    78429571.419         436.237          52.875
G31  22499231.540   118234792.219        -830.377          49.125    22499224.160    92131043.698        -647.048          42.562
R01  22698774.320   121337421.769       -3460.784          41.875    22698775.780    94373554.603       -2691.722          35.875
R02  21351936.260   113938568.507       -1240.098          47.875    21351936.440    88618457.838        -964.521          45.000
R03  23534120.880   125979411.744        1654.669          40.875    23534118.380    97983987.134        1286.963          39.875
R11  22642758.940   120996946.386        -442.080          42.750    22642759.020    94108769.129        -343.841          40.812
R12  21729792.720   116076650.278         690.636          43.938
R13  23821393.440   127204407.355        1446.518          37.875
R21  23434743.780   125404331.230       -3390.988          41.812    23434742.260    97536542.678       -2637.434          41.875
R22  20022933.800   106884424.877        -266.181          49.125    20022933.600    83132354.528        -207.029          48.375
R23  21001310.300   112343068.941        3601.006          46.875    21001311.460    87377289.198        2800.784          41.688
E02  25136466.180   132092450.678          33.930          50.625    25136462.880   101213716.231          25.980          52.312    25136464.360    99927234.401          25.653          48.938    25136465.240    98640488.565          25.290          50.750
E03  25547034.240   134251236.476       -2404.550          49.875    25547033.040   102867793.114       -1842.529          51.875    25547033.660   101560108.123       -1819.111          47.750    25547034.120   100252467.123       -1795.636          49.500
E07  27527977.520   144659903.567        1329.980          43.125    27527977.620   110843696.401        1018.997          50.000    27527977.620   109434177.978        1005.913          43.250    27527978.820   108025384.522         993.185          41.812
E08  22915584.240   120422724.201        -733.408          51.312    22915580.300    92271961.959        -562.015          52.625    22915581.480    91099182.927        -554.840          49.188    22915581.740    89926065.896        -547.713          50.625
E30  24649305.460   129532475.973         658.466          47.812    24649303.920    99252552.756         504.500          50.562    24649304.980    97990875.382         498.050          45.375    24649305.480    96729185.996         491.664          47.375
S20  38226256.400   200880819.608          39.140          42.875
S35  40665732.500   213699297.739          -3.025          40.562
S38  38181665.620   200646440.963           -.780          46.375
> 2018 01 01 00 00 46.0000000  0 28
G03  24435169.820   128407290.258       -1252.866          40.375    24435167.220   100057747.960        -976.261          36.938    24435167.920    95888932.979        -935.751          48.000
G08  21757105.920   114335027.979        2695.174          47.750    21757102.640    89091912.994        2100.137          44.500    21757102.940    85379237.664        2012.725          51.875
G09  24849172.520   130583557.326        3202.491          38.188    24849168.320   101753421.109        2495.445          33.500    24849171.420    97513328.742        2391.661          45.875
G14  22813165.020   119883438.087       -3319.545          43.625    22813159.700    93415667.158       -2586.658          38.812
G16  21434927.080   112640881.463       -1285.244          48.562    21434919.860    87772123.187       -1001.489          43.688
G21  25455478.200   133769557.045        -932.050          41.938    25455469.800   104236440.233        -726.274          29.875
G22  24262669.700   127501333.017       -1179.277          44.375    24262660.400    99351762.945        -918.918          35.688
G23  22330787.140   117348948.237        2386.300          48.312    22330778.020    91441119.376        1859.454          41.125
G26  22679231.500   119180973.066       -1713.773          47.125    22679227.980    92867336.100       -1335.409          41.875    22679228.840    88998261.967       -1279.630          50.625
G27  19985960.980   105027686.134         582.874          50.125    19985956.060    81839549.083         454.187          49.625    19985957.380    78429135.653         435.316          52.812
G31  22499389.660   118235623.101        -831.266          49.125    22499382.280    92131691.140        -647.739          41.688
R01  22699421.800   121340882.992       -3461.663          41.750    22699423.260    94376246.664       -2692.405          36.062
R02  21352168.780   113939809.258       -1241.353          47.875    21352168.940    88619422.869        -965.497          44.875
R03  23533811.900   125977757.851        1653.275          40.875    23533809.420    97982700.771        1285.880          39.688
R11  22642841.680   120997388.652        -442.473          42.375    22642841.780    94109113.109        -344.147          40.812
R12  21729663.520   116075960.032         690.048          44.000
R13  23821122.540   127202960.763        1446.700          37.875
R21  23435377.620   125407722.993       -3392.336          41.500    23435376.100    97539180.714       -2638.483          41.938
R22  20022983.800   106884691.797        -267.702          49.000    20022983.600    83132562.132        -208.212          48.375
R23  21000637.220   112339468.395        3600.038          46.812    21000638.360    87374488.772        2800.030          41.625
E02  25136459.780   132092417.027          33.403          50.688    25136456.460   101213690.441          25.663          52.375    25136457.940    99927208.938          25.331          48.938    25136458.840    98640463.426          25.012          50.750
E03  25547491.900   134253641.456       -2405.493          50.000    25547490.680   102869635.878       -1843.009          51.875    25547491.300   101561927.463       -1819.586          47.750    25547491.760   100254263.044       -1796.134          49.562
E07  27527724.480   144658574.148        1329.113          43.188    27527724.680   110842677.759        1018.350          50.000    27527724.660   109433172.285        1005.326          43.125    27527725.800   108024391.790         992.365          41.625
E08  22915723.900   120423458.122        -734.379          51.312    22915719.940    92272524.312        -562.690          52.625    22915721.140    91099738.136        -555.548          49.250    22915721.420    89926613.953        -548.393          50.625
E30  24649180.220   129531817.801         657.944          47.812    24649178.660    99252048.441         504.138          50.500    24649179.740    97990377.475         497.679          45.375    24649180.240    96728694.503         491.307          47.375
S20  38226248.900   200880780.613          38.842          42.688
S35  40665733.180   213699301.342          -3.873          40.375
S38  38181665.800   200646442.051          -1.375          46.562
> 2018 01 01 00 00 47.0000000  0 28
G03  24435408.280   128408543.436       -1253.131          40.375    24435405.700   100058724.471        -976.463          36.500    24435406.420    95889868.791        -935.837          48.125
G08  21756593.080   114332332.929        2694.788          47.812    21756589.820    89089812.955        2099.836          44.688    21756590.100    85377225.135        2012.269          51.875
G09  24848563.060   130580354.711        3202.406          37.875    24848558.800   101750925.563        2495.381          32.062    24848561.960    97510937.180        2391.396          45.875
G14  22813796.740   119886757.858       -3319.991          43.375    22813791.420    93418253.988       -2587.007          38.625
G16  21435171.660   112642166.768       -1285.500          48.562    21435164.440    87773124.726       -1001.689          43.688
G21  25455655.580   133770489.112        -932.468          41.812    25455647.200   104237166.527        -726.597          31.375
G22  24262894.060   127502512.086       -1179.294          44.375    24262884.780    99352681.692        -918.932          35.125
G23  22330333.060   117346562.125        2385.694          48.312    22330323.960    91439260.066        1858.982          41.312
G26  22679557.600   119182686.759       -1713.753          47.000    22679554.060    92868671.448       -1335.393          41.812    22679554.940    88999541.677       -1279.753          50.625
G27  19985850.120   105027103.513         582.184          50.125    19985845.200    81839095.095         453.651          49.625    19985846.520    78428700.585         434.673          52.875
G31  22499547.880   118236454.502        -831.621          49.125    22499540.500    92132338.988        -648.015          41.938
R01  22700069.320   121344344.422       -3461.537          41.875    22700070.780    94378938.883       -2692.307          36.000
R02  21352401.460   113941050.933       -1242.104          47.812    21352401.640    88620388.618        -966.080          44.875
R03  23533503.080   125976104.863        1652.555          40.875    23533500.660    97981415.110        1285.318          39.875
R11  22642924.480   120997831.214        -442.662          42.375    22642924.580    94109457.326        -344.295          40.688
R12  21729534.320   116075269.917         690.136          43.875
R13  23820851.640   127201514.303        1446.512          38.125
R21  23436011.600   125411115.464       -3392.693          41.125    23436010.080    97541819.297       -2638.763          41.812
R22  20023034.020   106884959.887        -268.680          48.875    20023033.820    83132770.647        -208.973          48.375
R23  20999964.260   112335868.505        3599.625          46.625    20999965.400    87371688.861        2799.710          41.562
E02  25136453.400   132092383.511          33.522          50.688    25136450.080   101213664.771          25.564          52.312    25136451.580    99927183.591          25.280          48.938    25136452.480    98640438.409          24.944          50.750
E03  25547949.600   134256046.747       -2405.549          49.938    25547948.400   102871478.897       -1843.189          51.875    25547949.020   101563747.055       -1819.764          47.812    25547949.480   100256059.201       -1796.301          49.562
E07  27527471.560   144657245.352        1328.403          43.062    27527471.860   110841659.595        1017.869          50.062    27527471.820   109432167.058        1004.902          43.312    27527472.860   108023399.501         991.922          41.688
E08  22915863.680   120424192.668        -734.825          51.312    22915859.720    92273087.146        -563.066          52.625    22915860.900    91100293.813        -555.935          49.250    22915861.200    89927162.476        -548.760          50.625
E30  24649055.000   129531159.778         657.945          47.875    24649053.420    99251544.246         504.116          50.500    24649054.520    97989879.687         497.705          45.375    24649055.020    96728203.121         491.327          47.375
S20  38226241.280   200880741.710          38.503          42.750
S35  40665733.880   213699305.228          -4.029          40.125
S38  38181666.060   200646443.461          -1.454          46.500
> 2018 01 01 00 00 48.0000000  0 28
G03  24435646.760   128409796.708       -1253.680          40.375    24435644.200   100059701.048        -976.892          36.438    24435644.940    95890804.671        -936.023          48.125
G08  21756080.320   114329638.325        2694.159          47.875    21756077.060    89087713.264        2099.346          44.562    21756077.340    85375212.931        2011.862          51.875
G09  24847953.640   130577152.318        3202.286          37.625    24847949.440   101748430.204        2495.289          28.750    24847952.560    97508545.785        2391.106          45.875
G14  22814428.540   119890077.874       -3320.281          43.312    22814423.180    93420841.006       -2587.235          39.312
G16  21435416.280   112643452.174       -1285.717          48.625    21435409.040    87774126.341       -1001.857          43.375
G21  25455833.000   133771421.523        -932.784          41.750    25455824.620   104237893.081        -726.846          33.625
G22  24263118.440   127503691.079       -1179.236          44.625    24263109.140    99353600.378        -918.889          33.812
G23  22329879.080   117344176.478        2385.268          48.250    22329869.980    91437401.123        1858.650          40.875
G26  22679883.680   119184400.386       -1713.828          47.062    22679880.160    92870006.744       -1335.450          41.938    22679881.040    89000821.336       -1279.799          50.625
G27  19985739.380   105026521.566         581.421          50.125    19985734.460    81838641.631         453.056          49.625    19985735.780    78428266.012         434.181          52.875
G31  22499706.140   118237286.167        -832.042          49.125    22499698.760    92132987.038        -648.345          41.375
R01  22700716.860   121347805.814       -3461.470          42.000    22700718.280    94381631.077       -2692.256          36.188
R02  21352634.280   113942293.262       -1242.833          47.812    21352634.440    88621354.876        -966.646          45.000
R03  23533194.400   125974452.518        1651.813          40.750    23533192.000    97980129.950        1284.741          39.812
R11  22643007.260   120998273.790        -442.653          42.375    22643007.400    94109801.547        -344.287          40.812
R12  21729405.100   116074579.698         690.029          43.875
R13  23820580.740   127200067.619        1446.495          38.125
R21  23436645.680   125414508.399       -3393.441          41.562    23436644.160    97544458.243       -2639.346          41.750
R22  20023084.400   106885228.886        -269.670          48.938    20023084.200    83132979.870        -209.743          48.438
R23  20999291.340   112332269.013        3599.114          46.625    20999292.520    87368889.261        2799.313          41.562
E02  25136447.020   132092349.892          33.474          50.688    25136443.680   101213639.009          25.617          52.312    25136445.180    99927158.161          25.297          48.875    25136446.080    98640413.302          24.988          50.812
E03  25548407.340   134258452.105       -2405.575          50.000    25548406.120   102873321.970       -1843.352          51.812    25548406.740   101565566.695       -1819.877          47.688    25548407.200   100257855.416       -1796.447          49.625
E07  27527218.740   144655916.903        1328.182          43.125    27527219.100   110840641.694        1017.562          49.938    27527219.040   109431162.100        1004.558          43.188    27527220.000   108022407.491         991.540          41.875
E08  22916003.540   120424927.588        -735.325          51.312    22915999.560    92273650.266        -563.432          52.562    22916000.760    91100849.771        -556.239          49.125    22916001.060    89927711.278        -549.056          50.625
E30  24648929.760   129530501.672         658.006          47.938    24648928.160    99251039.982         504.149          50.375    24648929.280    97989381.834         497.699          45.125    24648929.780    96727711.678         491.349          47.375
S20  38226233.540   200880702.754          38.310          42.750
S35  40665734.600   213699309.064          -3.933          40.625
S38  38181666.300   200646444.838          -1.535          46.375
> 2018 01 01 00 00 49.0000000  0 28
G03  24435885.260   128411049.997       -1253.190          40.375    24435882.740   100060677.640        -976.510          37.500    24435883.460    95891740.565        -935.745          48.000
G08  21755567.620   114326944.114        2694.248          47.875    21755564.380    89085613.880        2099.415          44.750    21755564.660    85373201.019        2011.874          51.875
G09  24847344.240   130573950.088        3202.395          37.125    24847340.000   101745934.938        2495.369          33.750    24847343.180    97506154.518        2391.348          45.688
G14  22815060.340   119893398.111       -3319.986          43.125    22815055.020    93423428.199       -2587.005          39.000
G16  21435660.900   112644737.647       -1285.273          48.625    21435653.660    87775128.008       -1001.512          42.875
G21  25456010.480   133772354.271        -932.569          41.625    25456002.100   104238619.894        -726.677          31.562
G22  24263342.780   127504869.984       -1178.612          44.625    24263333.480    99354519.007        -918.399          36.062
G23  22329425.200   117341791.260        2385.339          48.312    22329416.080    91435542.512        1858.706          41.375
G26  22680209.760   119186113.914       -1713.213          47.062    22680206.220    92871341.962       -1334.971          41.750    22680207.120    89002100.924       -1279.420          50.562
G27  19985628.780   105025940.264         581.194          50.125    19985623.840    81838188.667         452.880          49.625    19985625.160    78427831.926         433.971          52.812
G31  22499864.420   118238118.044        -831.696          49.188    22499857.060    92133635.256        -648.075          41.875
R01  22701364.340   121351267.143       -3460.878          42.000    22701365.780    94384323.221       -2691.794          36.250
R02  21352867.200   113943536.177       -1242.852          47.875    21352867.380    88622321.587        -966.662          45.062
R03  23532885.880   125972800.791        1651.640          40.938    23532883.460    97978845.274        1284.606          39.875
R11  22643090.120   120998716.435        -442.443          42.250    22643090.220    94110145.827        -344.124          40.750
R12  21729275.880   116073889.323         690.633          43.938
R13  23820309.760   127198620.708        1447.430          38.188
R21  23437279.840   125417901.754       -3393.217          41.562    23437278.300    97547097.515       -2639.171          41.812
R22  20023134.960   106885498.728        -270.020          48.938    20023134.740    83133189.747        -210.016          48.438
R23  20998618.520   112328669.883        3599.263          46.750    20998619.680    87366089.939        2799.429          41.438
E02  25136440.600   132092316.123          34.113          50.812    25136437.260   101213613.140          26.035          52.312    25136438.740    99927132.616          25.748          48.875    25136439.680    98640388.087          25.434          50.750
E03  25548865.060   134260857.503       -2405.202          50.062    25548863.860   102875165.067       -1842.986          51.812    25548864.460   101567386.361       -1819.550          47.688    25548864.940   100259651.656       -1796.143          49.625
E07  27526965.960   144654588.792        1328.232          42.875    27526966.400   110839624.047        1017.655          49.875    27526966.320   109430157.381        1004.723          43.062    27526967.180   108021415.685         991.987          41.562
E08  22916143.460   120425662.828        -735.172          51.375    22916139.460    92274213.634        -563.326          52.562    22916140.680    91101405.983        -556.211          49.125    22916140.980    89928260.327        -549.076          50.625
E30  24648804.500   129529843.432         658.541          48.000    24648802.880    99250535.614         504.586          50.375    24648804.020    97988883.881         498.101          45.188    24648804.520    96727220.133         491.713          47.375
S20  38226226.040   200880663.872          38.958          42.875
S35  40665735.440   213699312.947          -3.712          40.562
S38  38181666.580   200646446.264          -1.016          46.625
> 2018 01 01 00 00 50.0000000  0 29
G03  24436123.760   128412303.270       -1253.098          40.375    24436121.240   100061654.219        -976.440          38.375    24436121.980    95892676.456        -935.731          48.188
G08  21755055.020   114324250.256        2693.787          47.875    21755051.760    89083514.770        2099.056          44.625    21755052.040    85371189.365        2011.655          51.812
G09  24846734.860   130570748.004        3202.295          36.500    24846730.620   101743439.809        2495.292          32.125    24846733.820    97503763.369        2391.165          45.625
G14  22815692.180   119896718.534       -3320.477          43.375    22815686.860    93426015.539       -2587.388          38.750
G16  21435905.520   112646023.145       -1285.327          48.625    21435898.280    87776129.694       -1001.554          43.750
G21  25456188.040   133773287.279        -932.817          41.062    25456179.680   104239346.915        -726.870          33.250
G22  24263567.120   127506048.735       -1178.458          44.625    24263557.800    99355437.523        -918.279          35.625
G23  22328971.380   117339406.430        2384.809          48.250    22328962.260    91433684.202        1858.292          41.188
G26  22680535.800   119187827.289       -1713.067          46.938    22680532.260    92872677.062       -1334.857          42.188    22680533.160    89003380.391       -1279.294          50.562
G27  19985518.260   105025359.543         580.581          50.125    19985513.340    81837736.157         452.401          49.750    19985514.640    78427398.268         433.601          52.812
G31  22500022.760   118238950.097        -832.050          49.125    22500015.400    92134283.611        -648.350          41.688
G32  25161147.720   132222479.769       -3631.072          40.875    25161142.600   103031239.935       -2829.406          31.688
R01  22702011.800   121354728.356       -3460.884          42.125    22702013.260    94387015.276       -2691.800          36.125
R02  21353100.240   113944779.618       -1243.593          47.875    21353100.400    88623288.711        -967.238          45.000
R03  23532577.460   125971149.632        1651.037          40.812    23532575.020    97977561.038        1284.139          39.875
R11  22643172.940   120999158.974        -442.367          42.625    22643173.020    94110490.019        -344.065          40.625
R12  21729146.580   116073198.760         690.649          44.062
R13  23820038.720   127197173.497        1447.443          38.250
R21  23437914.020   125421295.513       -3393.746          41.500    23437912.520    97549737.103       -2639.583          41.750
R22  20023185.660   106885769.374        -270.922          48.938    20023185.440    83133400.252        -210.717          48.375
R23  20997945.760   112325071.068        3598.793          46.875    20997946.920    87363290.867        2799.063          41.562
E02  25136434.140   132092282.170          34.175          50.625    25136430.780   101213587.108          26.251          52.250    25136432.280    99927106.923          25.868          48.875    25136433.220    98640362.727          25.534          50.750
E03  25549322.800   134263262.885       -2405.305          50.000    25549321.580   102877008.144       -1842.949          51.875    25549322.180   101569206.011       -1819.485          47.750    25549322.660   100261447.877       -1796.071          49.562
E07  27526713.240   144653260.950        1327.682          42.875    27526713.740   110838606.604        1017.484          50.000    27526713.660   109429152.869        1004.556          43.312    27526714.440   108020424.116         991.584          41.562
E08  22916283.440   120426398.352        -735.566          51.375    22916279.420    92274777.215        -563.561          52.562    22916280.640    91101962.390        -556.321          49.125    22916280.940    89928809.572        -549.202          50.625
E30  24648679.200   129529185.010         658.629          47.875    24648677.560    99250031.105         504.723          50.375    24648678.740    97988385.780         498.355          45.250    24648679.220    96726728.450         491.919          47.312
S20  38226218.780   200880624.996          39.055          42.750
S35  40665736.080   213699316.723          -3.323          40.625
S38  38181666.840   200646447.539          -1.019          46.500
> 2018 01 01 00 00 51.0000000  0 28
G03  24436362.140   128413555.971       -1252.580          40.250    24436359.620   100062630.341        -976.038          38.000    24436360.400    95893611.923        -935.373          48.062
G08  21754542.340   114321556.154        2693.994          47.750    21754539.100    89081415.473        2099.217          44.875    21754539.380    85369177.536        2011.829          51.812
G09  24846125.440   130567545.504        3202.946          36.688    24846121.280   101740944.356        2495.801          32.000    24846124.400    97501371.891        2391.438          45.562
G14  22816323.980   119900038.528       -3319.700          43.625    22816318.640    93428602.536       -2586.783          36.625
G16  21436150.040   112647308.096       -1284.821          48.562    21436142.800    87777130.953       -1001.160          43.250
G21  25456365.520   133774220.014        -932.710          41.125    25456357.140   104240073.733        -726.784          34.062
G22  24263791.320   127507226.788       -1177.837          44.375    24263781.980    99356355.484        -917.795          36.750
G23  22328517.520   117337021.411        2384.975          48.188    22328508.420    91431825.744        1858.421          41.375
G26  22680861.720   119189539.961       -1712.419          46.688    22680858.160    92874011.613       -1334.350          41.750    22680859.080    89004659.325       -1278.763          50.562
G27  19985407.760   105024778.838         580.534          50.125    19985402.840    81837283.662         452.365          49.688    19985404.140    78426964.620         433.588          52.812
G31  22500181.020   118239781.757        -831.522          49.000    22500173.660    92134931.657        -647.939          41.688
G32  25161838.000   132226110.410       -3630.567          40.625    25161836.480   103034069.012       -2829.014          38.688    25161839.200    98740097.673       -2710.589          46.812
R01  22702659.160   121358188.887       -3460.369          42.062    22702660.620    94389706.802       -2691.399          35.812
R02  21353333.260   113946023.009       -1243.604          47.812    21353333.400    88624255.793        -967.247          45.000
R03  23532268.980   125969498.434        1651.332          40.562    23532266.540    97976276.776        1284.368          39.625
R11  22643255.620   120999600.884        -441.775          42.625    22643255.700    94110833.725        -343.605          40.688
R12  21729017.160   116072507.413         691.587          43.875
R13  23819767.520   127195725.419        1448.646          38.312
R21  23438548.200   125424689.037       -3393.462          41.312    23438546.700    97552376.506       -2639.362          41.625
R22  20023236.400   106886040.238        -271.030          49.000    20023236.180    83133610.922        -210.801          48.375
R23  20997272.920   112321471.996        3599.143          47.000    20997274.100    87360491.591        2799.337          41.625
E02  25136427.540   132092247.437          34.995          50.625    25136424.180   101213560.499          26.778          52.312    25136425.680    99927080.648          26.456          48.875    25136426.620    98640336.790          26.134          50.688
E03  25549780.420   134265667.670       -2404.582          49.938    25549779.200   102878850.778       -1842.489          51.812    25549779.800   101571025.226       -1819.092          47.625    25549780.280   100263243.665       -1795.681          49.625
E07  27526460.460   144651932.792        1328.178          42.875    27526461.040   110837588.934        1017.645          50.000    27526460.940   109428148.134        1004.722          43.125    27526461.640   108019432.324         991.739          41.375
E08  22916423.360   120427133.589        -735.178          51.312    22916419.320    92275340.575        -563.345          52.562    22916420.540    91102518.594        -556.161          49.125    22916420.860    89929358.612        -549.005          50.625
E30  24648553.780   129528525.831         659.474          47.875    24648552.120    99249526.020         505.310          50.375    24648553.300    97987887.117         498.900          45.312    24648553.780    96726236.208         492.506          47.312
S35  40665736.720   213699319.881          -2.801          40.625
S38  38181666.920   200646448.118           -.614          46.375
> 2018 01 01 00 00 52.0000000  0 28
G03  24436600.480   128414808.348       -1252.417          40.500    24436597.900   100063606.207        -975.912          37.250    24436598.740    95894547.130        -935.048          48.000
G08  21754029.680   114318862.084        2694.028          47.812    21754026.440    89079316.197        2099.243          44.375    21754026.720    85367165.736        2011.773          51.812
G09  24845515.960   130564342.836        3202.614          36.250    24845511.760   101738448.779        2495.548          35.250    24845514.920    97498980.277        2391.709          45.438
G14  22816955.720   119903358.400       -3319.569          43.688    22816950.420    93431189.451       -2586.680          37.500
G16  21436394.500   112648592.749       -1284.496          48.562    21436387.240    87778131.980       -1000.906          43.062
G21  25456543.000   133775152.711        -932.550          41.188    25456534.600   104240800.521        -726.659          34.812
G22  24264015.420   127508404.373       -1177.371          44.188    24264006.080    99357273.085        -917.432          35.625
G23  22328063.680   117334636.448        2384.935          48.188    22328054.560    91429967.326        1858.390          41.500
G26  22681187.540   119191252.167       -1711.922          46.812    22681184.000    92875345.796       -1333.965          41.688    22681184.900    89005937.927       -1278.444          50.562
G27  19985297.300   105024198.403         580.350          50.125    19985292.380    81836831.375         452.221          49.688    19985293.700    78426531.187         433.340          52.812
G31  22500339.240   118240613.282        -831.362          49.000    22500331.900    92135579.601        -647.814          42.062
G32  25162529.960   132229740.478       -3629.052          37.938    25162528.240   103036897.642       -2827.833          32.562    25162530.920    98742808.809       -2711.428          42.938
R01  22703306.440   121361648.962       -3459.830          42.062    22703307.880    94392397.969       -2690.979          35.875
R02  21353566.300   113947266.580       -1243.558          47.875    21353566.460    88625223.012        -967.211          44.875
R03  23531960.600   125967847.528        1650.740          40.750    23531958.160    97974992.738        1283.908          39.750
R11  22643338.240   121000042.407        -441.335          42.188    22643338.320    94111177.128        -343.264          40.812
R12  21728887.680   116071815.586         692.122          43.875
R13  23819496.180   127194276.719        1449.142          38.312
R21  23439182.400   125428082.644       -3393.492          40.812    23439180.880    97555015.974       -2639.385          41.375
R22  20023287.220   106886311.601        -271.574          48.938    20023287.020    83133821.984        -211.224          48.375
R23  20996600.120   112317872.914        3599.192          47.125    20996601.300    87357692.302        2799.372          41.375
E02  25136420.860   132092212.201          35.522          50.625    25136417.460   101213533.506          27.188          52.250    25136418.960    99927053.995          26.832          48.875    25136419.940    98640310.481          26.474          50.750
E03  25550237.980   134268072.144       -2404.309          49.938    25550236.740   102880693.164       -1842.203          51.750    25550237.360   101572844.190       -1818.819          47.625    25550237.840   100265039.207       -1795.367          49.625
E07  27526207.680   144650604.611        1328.169          42.812    27526208.340   110836571.229        1017.772          50.000    27526208.220   109427143.370        1004.841          43.188    27526208.820   108018440.501         991.798          41.375
E08  22916563.280   120427868.792        -735.127          51.312    22916559.220    92275903.914        -563.314          52.562    22916560.440    91103074.774        -556.168          49.188    22916560.780    89929907.634        -548.969          50.625
E30  24648428.240   129527866.161         660.053          47.938    24648426.560    99249020.569         505.688          50.375    24648427.760    97987388.095         499.207          45.250    24648428.260    96725743.611         492.747          47.375
S35  40665737.260   213699322.616          -2.568          40.500
S38  38181666.980   200646448.364            .008          46.562
> 2018 01 01 00 00 53.0000000  0 28
G03  24436838.800   128416060.851       -1252.908          40.188    24436836.220   100064582.186        -976.292          37.500    24436837.120    95895482.429        -935.346          47.938
G08  21753517.120   114316168.492        2693.276          47.812    21753513.880    89077217.299        2098.656          44.688    21753514.140    85365154.289        2011.258          51.812
G09  24844906.520   130561140.406        3202.282          35.688    24844902.280   101735953.386        2495.285          33.938    24844905.520    97496588.868        2391.256          45.375
G14  22817587.540   119906678.568       -3320.389          43.938    22817582.220    93433776.593       -2587.316          38.125
G16  21436639.000   112649877.537       -1284.751          48.438    21436631.740    87779133.115       -1001.104          43.938
G21  25456720.580   133776085.795        -933.191          41.000    25456712.180   104241527.590        -727.162          30.562
G22  24264239.500   127509581.943       -1177.827          44.000    24264230.180    99358190.675        -917.785          35.938
G23  22327609.940   117332251.985        2384.155          48.125    22327600.820    91428109.304        1857.782          41.688
G26  22681513.340   119192964.341       -1712.022          46.750    22681509.820    92876679.958       -1334.043          42.312    22681510.720    89007216.499       -1278.541          50.562
G27  19985186.980   105023618.676         579.344          50.125    19985182.080    81836379.637         451.437          49.812    19985183.380    78426098.273         432.601          52.812
G31  22500497.540   118241445.114        -832.132          48.875    22500490.200    92136227.778        -648.415          42.562
G32  25163220.100   132233369.861       -3629.618          32.938                                                                    25163221.280    98745519.517       -2712.107          40.062
R01  22703953.740   121365109.041       -3460.117          41.875    22703955.160    94395089.140       -2691.203          35.875
R02  21353799.480   113948510.790       -1244.397          47.688    21353799.620    88626190.733        -967.864          44.875
R03  23531652.320   125966197.303        1649.779          40.375    23531649.880    97973709.227        1283.160          39.625
R11  22643420.860   121000484.020        -441.658          41.812    22643420.960    94111520.603        -343.516          41.062
R12  21728758.160   116071123.673         691.886          43.938
R13  23819224.900   127192827.891        1448.638          38.250
R21  23439816.700   125431476.761       -3394.386          40.625    23439815.140    97557655.843       -2640.080          41.312
R22  20023338.240   106886583.896        -272.750          48.875    20023338.020    83134033.769        -212.139          48.375
R23  20995927.360   112314274.265        3598.473          47.000    20995928.560    87354893.353        2798.812          41.750
E02  25136414.140   132092176.890          35.359          50.625    25136410.740   101213506.446          27.070          52.250    25136412.240    99927027.283          26.708          48.875    25136413.220    98640284.115          26.346          50.688
E03  25550695.560   134270476.722       -2404.630          49.875    25550694.320   102882535.627       -1842.466          51.812    25550694.940   101574663.234       -1819.080          47.625    25550695.420   100266834.835       -1795.681          49.562
E07  27525954.980   144649276.816        1327.468          43.125    27525955.700   110835553.831        1017.304          50.000    27525955.560   109426138.901        1004.400          43.188    27525956.080   108017448.949         991.553          41.312
E08  22916703.260   120428604.392        -735.782          51.312    22916699.200    92276467.557        -563.797          52.562    22916700.420    91103631.253        -556.588          49.125    22916700.760    89930456.947        -549.483          50.625
E30  24648302.720   129527206.450         659.688          47.938    24648301.000    99248515.063         505.499          50.375    24648302.220    97986889.012         499.095          45.250    24648302.700    96725250.956         492.680          47.375
S35  40665737.780   213699325.373          -2.823          40.125
S38  38181667.040   200646448.640           -.363          46.375
> 2018 01 01 00 00 54.0000000  0 28
G03  24437077.120   128417313.410       -1252.500          40.500    24437074.540   100065558.217        -975.974          37.875    24437075.500    95896417.805        -935.431          47.875
G08  21753004.640   114313475.360        2692.951          47.812    21753001.400    89075118.752        2098.404          44.625    21753001.660    85363143.182        2010.947          51.688
G09  24844297.160   130557938.224        3202.123          36.375    24844292.940   101733458.179        2495.162          34.938    24844296.140    97494197.628        2391.303          45.000
G14  22818219.420   119909999.002       -3320.590          43.875    22818214.060    93436363.948       -2587.474          37.125
G16  21436883.520   112651162.472       -1285.026          48.438    21436876.240    87780134.361       -1001.320          43.688
G21  25456898.200   133777019.274        -933.625          40.938    25456889.860   104242254.975        -727.499          33.812
G22  24264463.580   127510759.460       -1177.582          43.812    24264454.260    99359108.225        -917.595          36.375
G23  22327156.280   117329868.023        2383.777          48.125    22327147.160    91426251.667        1857.485          41.625
G26  22681839.160   119194676.498       -1712.189          46.750    22681835.620    92878014.101       -1334.175          42.562    22681836.540    89008495.046       -1278.504          50.375
G27  19985076.800   105023039.653         578.667          50.062    19985071.880    81835928.452         450.910          49.812    19985073.180    78425665.886         432.123          52.750
G31  22500655.880   118242277.229        -832.310          48.812    22500648.540    92136876.177        -648.554          42.375
G32  25163910.860   132236999.981       -3630.437          41.375
R01  22704601.020   121368569.140       -3460.125          41.938    22704602.440    94397780.326       -2691.209          36.062
R02  21354032.760   113949755.673       -1245.291          47.625    21354032.920    88627158.973        -968.560          44.938
R03  23531344.140   125964547.765        1649.171          40.125    23531341.740    97972426.249        1282.686          39.750
R11  22643503.520   121000925.704        -441.744          41.875    22643503.620    94111864.128        -343.583          41.000
R12  21728628.640   116070431.697         691.960          43.688
R13  23818953.520   127191378.849        1449.363          38.250
R21  23440451.060   125434871.388       -3394.904          40.812    23440449.500    97560296.106       -2640.484          41.000
R22  20023389.420   106886857.133        -273.696          48.875    20023389.220    83134246.284        -212.873          48.375
R23  20995254.700   112310676.048        3598.062          47.062    20995255.920    87352094.738        2798.493          41.875
E02  25136407.420   132092141.503          35.406          50.625    25136404.000   101213479.326          27.190          52.250    25136405.520    99927000.508          26.855          48.875    25136406.500    98640257.683          26.485          50.625
E03  25551153.160   134272881.392       -2404.611          49.875    25551151.900   102884378.177       -1842.584          51.812    25551152.520   101576482.357       -1819.135          47.625    25551153.020   100268630.533       -1795.691          49.375
E07  27525702.360   144647949.415        1327.171          43.125    27525703.140   110834536.730        1017.060          49.938    27525703.000   109425134.731        1004.073          43.062    27525703.420   108016457.718         991.056          41.250
E08  22916843.320   120429340.402        -736.208          51.250    22916839.240    92277031.509        -564.084          52.562    22916840.480    91104188.034        -556.894          49.125    22916840.820    89931006.559        -549.770          50.500
E30  24648177.180   129526546.648         659.908          48.062    24648175.420    99248009.512         505.569          50.375    24648176.660    97986389.886         499.173          45.250    24648177.160    96724758.257         492.719          47.188
S35  40665738.280   213699328.055          -2.820          40.000
S38  38181667.080   200646448.905           -.197          46.312
> 2018 01 01 00 00 55.0000000  0 28
G03  24437315.500   128418566.224       -1253.048          40.500    24437312.920   100066534.435        -976.402          36.875    24437313.940    95897353.348        -935.815          47.875
G08  21752492.260   114310782.798        2692.037          47.750    21752489.040    89073020.652        2097.692          44.688    21752489.300    85361132.501        2010.352          51.688
G09  24843687.860   130554736.452        3201.254          36.625    24843683.720   101730963.294        2494.487          33.625    24843686.860    97491806.700        2390.643          44.875
G14  22818851.360   119913319.850       -3321.369          43.938    22818845.980    93438951.622       -2588.081          37.312
G16  21437128.080   112652447.648       -1285.560          48.375    21437120.800    87781135.796       -1001.735          43.312
G21  25457075.920   133777953.264        -934.562          40.750    25457067.560   104242982.758        -728.230          30.625
G22  24264687.700   127511937.077       -1177.964          43.625    24264678.360    99360025.846        -917.894          37.312
G23  22326702.740   117327484.683        2382.805          48.125    22326693.620    91424394.515        1856.729          41.312
G26  22682164.980   119196388.741       -1712.552          46.625    22682161.440    92879348.317       -1334.456          42.625    22682162.360    89009773.668       -1278.765          50.375
G27  19984966.780   105022461.446         577.607          50.062    19984961.860    81835477.900         450.083          49.812    19984963.160    78425234.102         431.371          52.750
G31  22500814.280   118243109.739        -832.822          48.750    22500806.980    92137524.885        -648.953          42.062
G32  25164601.400   132240630.420       -3630.805          40.125                                                                    25164602.960    98751718.306       -2711.231          44.688
R01  22705248.320   121372029.357       -3460.551          42.000    22705249.740    94400471.603       -2691.540          35.938
R02  21354266.200   113951001.361       -1246.397          47.688    21354266.360    88628127.842        -969.420          45.062
R03  23531036.180   125962899.082        1647.837          40.250    23531033.760    97971143.938        1281.649          39.875
R11  22643586.220   121001367.566        -442.341          42.062    22643586.300    94112207.793        -344.047          40.938
R12  21728499.100   116069739.771         691.710          43.625
R13  23818682.160   127189929.799        1448.862          38.125
R21  23441085.560   125438266.618       -3395.901          41.250    23441083.960    97562936.836       -2641.260          40.812
R22  20023440.800   106887131.422        -274.975          49.000    20023440.600    83134459.622        -213.869          48.562
R23  20994582.160   112307078.384        3597.150          47.062    20994583.400    87349296.553        2797.784          41.875
E02  25136400.700   132092106.150          35.120          50.625    25136397.260   101213452.242          26.974          52.250    25136398.780    99926973.764          26.627          48.875    25136399.780    98640231.285          26.277          50.625
E03  25551610.800   134275286.291       -2405.197          49.875    25551609.540   102886220.879       -1842.902          51.750    25551610.160   101578301.633       -1819.426          47.625    25551610.640   100270426.394       -1796.096          49.375
E07  27525449.820   144646622.493        1326.744          43.125    27525450.680   110833520.027        1016.375          49.938    27525450.520   109424130.941        1003.513          43.062    27525450.860   108015466.839         990.583          41.125
E08  22916983.480   120430076.913        -736.939          51.312    22916979.400    92277595.853        -564.701          52.562    22916980.640    91104745.206        -557.547          49.125    22916980.980    89931556.553        -550.361          50.562
E30  24648051.660   129525886.913         659.542          47.938    24648049.860    99247503.996         505.384          50.312    24648051.120    97985890.795         498.943          45.062    24648051.620    96724265.597         492.450          47.125
S35  40665738.780   213699330.749          -2.884          40.562
S38  38181667.180   200646449.373           -.810          46.250
> 2018 01 01 00 00 56.0000000  0 28
G03  24437553.980   128419819.353       -1252.862          40.312    24437551.320   100067510.889        -976.258          38.062    24437552.440    95898289.131        -935.839          47.938
G08  21751980.020   114308090.925        2691.712          47.750    21751976.780    89070923.086        2097.438          44.625    21751977.060    85359122.339        2009.986          51.688
G09  24843078.660   130551535.145        3200.814          36.875    24843074.520   101728468.801        2494.148          34.688    24843077.640    97489416.104        2390.542          44.812
G14  22819483.420   119916641.216       -3321.498          44.062    22819478.000    93441539.700       -2588.181          38.312
G16  21437372.720   112653733.178       -1285.524          48.250    21437365.420    87782137.506       -1001.707          43.500
G21  25457253.760   133778887.851        -934.881          40.625    25457245.360   104243711.007        -728.479          34.812
G22  24264911.840   127513114.861       -1177.570          43.500    24264902.480    99360943.595        -917.589          36.250
G23  22326249.340   117325102.048        2382.432          48.062    22326240.200    91422537.915        1856.438          41.125
G26  22682490.840   119198101.154       -1712.406          46.625    22682487.300    92880682.665       -1334.343          42.000    22682488.220    89011052.417       -1278.722          50.375
G27  19984856.940   105021884.178         576.835          50.000    19984852.020    81835028.080         449.482          49.750    19984853.300    78424803.027         430.780          52.750
G31  22500972.800   118243942.767        -833.151          48.688    22500965.480    92138173.997        -649.210          42.375
G32  25165293.000   132244260.996       -3630.031          38.875    25165290.840   103047669.074       -2828.498          34.625    25165292.980    98754429.513       -2711.433          42.250
R01  22705895.640   121375489.805       -3460.505          42.125    22705897.100    94403163.066       -2691.504          36.125
R02  21354499.820   113952247.963       -1246.918          47.625    21354499.960    88629097.423        -969.825          44.938
R03  23530728.380   125961251.316        1647.339          40.312    23530725.940    97969862.340        1281.262          39.750
R11  22643668.960   121001809.704        -442.090          41.938    22643669.040    94112551.672        -343.851          41.062
R12  21728369.620   116069047.991         691.815          43.688
R13  23818410.820   127188480.802        1448.854          38.312
R21  23441720.180   125441662.544       -3396.171          41.688    23441718.560    97565578.108       -2641.469          40.688
R22  20023492.380   106887406.858        -275.824          48.938    20023492.200    83134673.850        -214.529          48.562
R23  20993909.720   112303481.363        3596.799          46.938    20993910.980    87346498.872        2797.511          41.812
E02  25136394.000   132092070.941          35.249          50.625    25136390.560   101213425.264          26.979          52.250    25136392.080    99926947.128          26.693          48.875    25136393.100    98640204.995          26.289          50.625
E03  25552068.500   134277691.502       -2405.299          49.875    25552067.220   102888063.837       -1843.019          51.688    25552067.860   101580121.172       -1819.639          47.562    25552068.360   100272222.498       -1796.192          49.375
E07  27525197.400   144645296.227        1326.094          42.875    27525198.320   110832503.783        1016.052          49.938    27525198.160   109423127.614        1003.275          43.125    27525198.420   108014476.436         990.295          41.250
E08  22917123.760   120430814.050        -737.351          51.312    22917119.660    92278160.668        -564.982          52.562    22917120.920    91105302.845        -557.796          49.125    22917121.240    89932107.010        -550.625          50.500
E30  24647926.160   129525227.332         659.761          47.938    24647924.320    99246998.601         505.414          50.312    24647925.600    97985391.832         498.896          45.188    24647926.100    96723773.055         492.500          47.125
S35  40665739.400   213699333.734          -2.906          40.250
S38  38181667.320   200646450.080           -.605          46.250
> 2018 01 01 00 00 57.0000000  0 27
G03  24437792.480   128421072.810       -1253.931          40.312    24437789.820   100068487.609        -977.090          37.312    24437790.980    95899225.131        -936.143          48.000
G08  21751467.900   114305399.684        2690.905          47.750    21751464.660    89068826.017        2096.810          44.938    21751464.920    85357112.651        2009.401          51.688
G09  24842469.540   130548334.253        3200.853          37.562    24842465.420   101725974.593        2494.175          36.875    24842468.520    97487025.861        2389.967          44.625
G14  22820115.560   119919963.051       -3322.199          44.125    22820110.120    93444128.146       -2588.725          37.688
G16  21437617.400   112655019.037       -1286.098          48.375    21437610.100    87783139.477       -1002.155          43.500
G21  25457431.700   133779823.016        -935.337          40.500    25457423.360   104244439.697        -728.837          31.312
G22  24265136.000   127514292.827       -1178.175          43.500    24265126.660    99361861.485        -918.062          36.375
G23  22325796.080   117322720.105        2381.651          48.062    22325786.920    91420681.857        1855.831          41.500
G26  22682816.740   119199813.731       -1712.546          46.625    22682813.180    92882017.138       -1334.452          42.375    22682814.120    89012331.305       -1278.992          50.375
G27  19984747.260   105021307.793         575.877          50.062    19984742.340    81834578.949         448.736          49.750    19984743.620    78424372.616         430.006          52.750
G31  22501131.400   118244776.271        -833.832          48.625    22501124.100    92138823.479        -649.740          42.188
R01  22706543.020   121378950.447       -3460.593          42.000    22706544.480    94405854.671       -2691.573          36.250
R02  21354733.620   113953495.439       -1247.976          47.562    21354733.740    88630067.678        -970.649          45.062
R03  23530420.720   125959604.441        1646.193          40.562    23530418.300    97968581.433        1280.369          39.875
R11  22643751.760   121002252.117        -442.670          42.000    22643751.840    94112895.766        -344.303          40.812
R12  21728240.140   116068356.306         691.694          43.688
R13  23818139.460   127187031.787        1448.761          38.375
R21  23442354.960   125445059.166       -3397.136          41.938    23442353.260    97568219.927       -2642.218          40.812
R22  20023544.200   106887683.421        -277.149          49.062    20023544.000    83134888.955        -215.561          48.562
R23  20993237.400   112299884.953        3596.119          47.000    20993238.680    87343701.662        2796.981          42.062
E02  25136387.340   132092035.837          35.064          50.625    25136383.880   101213398.364          26.855          52.250    25136385.400    99926920.577          26.494          48.875    25136386.420    98640178.783          26.107          50.625
E03  25552526.240   134280097.000       -2405.658          49.938    25552524.980   102889907.017       -1843.361          51.750    25552525.620   101581940.919       -1819.980          47.562    25552526.100   100274018.809       -1796.518          49.375
E07  27524945.080   144643970.528        1325.040          43.188    27524946.100   110831487.983        1015.538          49.875    27524945.900   109422124.732        1002.609          43.000    27524946.080   108013486.462         989.785          40.812
E08  22917264.160   120431551.773        -738.040          51.312    22917260.040    92278725.936        -565.540          52.562    22917261.300    91105860.924        -558.349          49.125    22917261.640    89932657.908        -551.181          50.562
E30  24647800.660   129524567.878         659.440          47.938    24647798.820    99246493.305         505.205          50.312    24647800.120    97984892.957         498.722          45.125    24647800.600    96723280.596         492.364          47.250
S35  40665740.000   213699336.981          -3.346          40.125
S38  38181667.500   200646450.971           -.885          46.375
> 2018 01 01 00 00 58.0000000  0 27
G03  24438031.120   128422326.987       -1254.889          40.125    24438028.460   100069464.894        -977.836          35.250    24438029.680    95900161.704        -936.973          47.938
G08  21750955.980   114302709.566        2689.346          47.750    21750952.760    89066729.820        2095.594          44.375    21750953.020    85355103.795        2008.260          51.688
G09  24841860.640   130545134.296        3199.517          37.875    24841856.520   101723481.114        2493.134          32.062    24841859.580    97484636.277        2389.131          44.500
G14  22820747.880   119923285.807       -3323.325          43.938    22820742.440    93446717.307       -2589.603          36.812
G16  21437862.240   112656305.670       -1287.182          48.375    21437854.940    87784142.045       -1002.999          43.375
G21  25457609.840   133780759.217        -936.878          40.250    25457601.560   104245169.198        -730.036          32.812
G22  24265360.280   127515471.392       -1179.030          43.812    24265350.940    99362779.839        -918.727          36.875
G23  22325343.020   117320339.304        2380.087          48.062    22325333.860    91418826.686        1854.612          41.188
G26  22683142.760   119201526.934       -1713.586          46.562    22683139.180    92883352.101       -1335.262          42.312    22683140.140    89013610.636       -1279.735          50.375
G27  19984637.840   105020732.747         574.184          50.000    19984632.920    81834130.862         447.416          49.750    19984634.180    78423943.199         428.748          52.750
G31  22501290.180   118245610.695        -835.107          48.625    22501282.880    92139473.681        -650.732          41.812
R01  22707190.500   121382411.727       -3461.602          42.375    22707191.980    94408546.778       -2692.357          36.375
R02  21354967.620   113954744.190       -1249.579          47.562    21354967.760    88631038.931        -971.895          44.938
R03  23530113.340   125957958.886        1644.414          40.625    23530110.920    97967301.553        1278.986          40.125
R11  22643834.700   121002695.248        -443.819          42.125    22643834.760    94113240.424        -345.196          41.000
R12  21728110.780   116067665.192         690.663          43.625
R13  23817868.260   127185583.266        1448.091          38.375
R21  23442989.920   125448456.890       -3398.564          42.062    23442988.200    97570862.608       -2643.327          40.812
R22  20023596.320   106887961.571        -279.270          49.000    20023596.100    83135105.294        -217.209          48.625
R23  20992565.280   112296289.625        3594.609          46.938    20992566.580    87340905.301        2795.809          42.062
E02  25136380.780   132092001.304          34.014          50.625    25136377.300   101213371.910          26.063          52.312    25136378.840    99926894.456          25.769          48.875    25136379.860    98640152.993          25.445          50.625
E03  25552984.140   134282503.246       -2406.785          49.875    25552982.860   102891750.763       -1844.222          51.750    25552983.500   101583761.227       -1820.760          47.625    25552984.000   100275815.680       -1797.285          49.375
E07  27524692.960   144642645.831        1324.135          43.062    27524694.040   110830472.983        1014.427          49.938    27524693.860   109421122.636        1001.537          43.000    27524693.940   108012497.273         988.512          40.875
E08  22917404.760   120432290.533        -739.425          51.250    22917400.620    92279292.004        -566.605          52.562    22917401.880    91106419.797        -559.435          49.188    22917402.220    89933209.586        -552.225          50.438
E30  24647675.320   129523909.001         658.440          47.875    24647673.420    99245988.452         504.478          50.312    24647674.720    97984394.512         498.103          45.188    24647675.240    96722788.582         491.635          47.125
S35  40665740.740   213699340.964          -4.734          40.375
S38  38181667.800   200646452.510          -2.066          46.125
> 2018 01 01 00 00 59.0000000  0 28
G03  24438269.920   128423581.843       -1254.960          40.250    24438267.160   100070442.709        -977.889          36.938    24438268.500    95901098.771        -936.971          48.125
G08  21750444.280   114300020.485        2688.856          47.812    21750441.040    89064634.432        2095.212          44.500    21750441.300    85353095.707        2008.043          51.688
G09  24841251.880   130541935.170        3199.107          38.375    24841247.760   101720988.299        2492.815          33.938    24841250.800    97482247.313        2389.091          44.500
G14  22821380.360   119926609.449       -3323.637          43.875    22821374.920    93449307.155       -2589.847          37.125
G16  21438107.220   112657593.017       -1287.311          48.438    21438099.900    87785145.171       -1003.101          43.750
G21  25457788.180   133781696.387        -937.201          40.500    25457779.960   104245899.464        -730.290          33.625
G22  24265584.660   127516650.515       -1178.994          43.875    24265575.300    99363698.637        -918.698          36.938
G23  22324890.180   117317959.585        2379.540          48.125    22324881.020    91416972.362        1854.187          41.500
G26  22683468.860   119203240.679       -1713.529          46.625    22683465.300    92884687.487       -1335.218          42.062    22683466.240    89014890.382       -1279.573          50.375
G27  19984528.660   105020158.992         573.400          50.062    19984523.740    81833683.784         446.806          49.812    19984525.000    78423514.743         428.294          52.750
G31  22501449.120   118246445.990        -835.351          48.625    22501441.820    92140124.565        -650.923          42.500
R01  22707838.120   121385873.616       -3462.003          42.312    22707839.580    94411239.365       -2692.668          36.312
R02  21355201.880   113955994.175       -1250.168          47.500    21355202.000    88632011.146        -972.353          45.062
R03  23529806.180   125956314.584        1644.240          40.625    23529803.760    97966022.651        1278.851          39.938
R11  22643917.740   121003139.012        -443.842          42.312    22643917.820    94113585.576        -345.212          41.062
R12  21727981.540   116066974.556         690.830          43.625
R13  23817597.100   127184135.145        1448.500          38.625
R21  23443625.080   125451855.731       -3399.138          42.125    23443623.340    97573506.161       -2643.772          41.000
R22  20023648.700   106888241.222        -280.017          49.125    20023648.500    83135322.802        -217.791          48.625
R23  20991893.340   112292695.317        3594.203          47.000    20991894.680    87338109.728        2795.493          42.062
E02  25136374.300   132091967.270          34.081          50.625    25136370.800   101213345.823          26.230          52.312    25136372.360    99926868.704          25.912          48.875    25136373.400    98640127.572          25.545          50.625
E03  25553442.160   134284910.166       -2406.802          49.875    25553440.860   102893595.029       -1844.187          51.688    25553441.520   101585582.042       -1820.662          47.625    25553442.040   100277613.050       -1797.204          49.375
E07  27524441.020   144641322.122        1323.659          43.000    27524442.180   110829458.708        1014.238          50.000    27524442.000   109420121.247        1001.365          43.062    27524441.980   108011508.767         988.619          41.000
E08  22917545.520   120433030.277        -739.893          51.312    22917541.380    92279858.812        -566.848          52.562    22917542.640    91106979.403        -559.657          49.188    22917543.000    89933761.985        -552.478          50.562
E30  24647550.060   129523250.635         658.680          48.062    24647548.100    99245483.989         504.613          50.375    24647549.440    97983896.467         498.231          45.312    24647549.960    96722296.948         491.772          47.250
S20  38226153.020   200880275.431          38.138          42.562
S35  40665741.600   213699345.634          -4.779          40.312
S38  38181668.240   200646454.636          -2.120          46.500
> 2018 01 01 00 01  0.0000000  0 29
G03  24438508.700   128424836.674       -1254.504          40.250    24438505.940   100071420.494        -977.537          36.750    24438507.340    95902035.832        -936.841          48.125
G08  21749932.620   114297331.741        2688.824          47.625    21749929.400    89062539.307        2095.188          44.875    21749929.660    85351087.885        2007.824          51.750
G09  24840643.160   130538736.206        3198.656          38.625    24840638.980   101718495.615        2492.465          32.438    24840642.040    97479858.447        2389.106          44.375
G14  22822012.880   119929933.261       -3323.702          43.938    22822007.420    93451897.141       -2589.897          38.875
G16  21438352.200   112658880.377       -1287.033          48.312    21438344.880    87786148.307       -1002.883          43.625
G21  25457966.560   133782633.851        -937.455          40.625    25457958.340   104246629.948        -730.485          32.500
G22  24265809.020   127517829.474       -1178.666          43.812    24265799.640    99364617.311        -918.442          37.188
G23  22324437.420   117315580.239        2379.350          48.062    22324428.240    91415118.326        1854.039          41.250
G26  22683794.940   119204954.281       -1713.394          46.750    22683791.380    92886022.759       -1335.112          42.250    22683792.340    89016170.007       -1279.385          50.375
G27  19984419.580   105019585.820         573.154          50.000    19984414.660    81833237.156         446.613          49.875    19984415.920    78423086.723         427.950          52.750
G31  22501608.100   118247281.467        -835.323          48.625    22501600.800    92140775.586        -650.902          42.375
G32                                                                                                                                  25168057.840    98764357.081       -2712.059          45.125
R01  22708485.720   121389335.350       -3461.492          42.375    22708487.180    94413931.825       -2692.270          36.125
R02  21355436.220   113957244.663       -1250.534          47.375    21355436.340    88632983.748        -972.637          44.875
R03  23529499.100   125954670.854        1643.873          40.750    23529496.700    97964744.193        1278.565          40.000
R11  22644000.780   121003582.707        -443.332          42.625    22644000.840    94113930.670        -344.814          40.688
R12  21727852.200   116066283.744         691.248          43.875
R13  23817325.820   127182686.782        1448.481          38.438
R21  23444260.320   125455254.956       -3399.207          42.062    23444258.560    97576150.009       -2643.824          40.875
R22  20023701.220   106888521.684        -280.640          49.125    20023701.040    83135540.941        -218.275          48.625
R23  20991221.480   112289101.322        3594.001          47.125    20991222.840    87335314.402        2795.336          41.938
E02  25136367.800   132091933.033          34.530          50.625    25136364.280   101213319.584          26.482          52.312    25136365.840    99926842.798          26.147          48.875    25136366.900    98640102.006          25.801          50.625
E03  25553900.200   134287317.076       -2406.612          49.875    25553898.880   102895439.274       -1844.042          51.688    25553899.540   101587402.849       -1820.560          47.562    25553900.060   100279410.421       -1797.169          49.375
E07  27524189.160   144639998.699        1323.368          42.688    27524190.380   110828444.643        1014.163          49.938    27524190.180   109419120.080        1001.263          43.000    27524190.060   108010520.505         988.140          40.875
E08  22917686.340   120433770.291        -739.984          51.250    22917682.200    92280425.836        -567.010          52.562    22917683.460    91107539.219        -559.791          49.188    22917683.820    89934314.594        -552.599          50.562
E30  24647424.760   129522592.103         658.680          47.938    24647422.780    99244979.383         504.827          50.375    24647424.120    97983398.281         498.387          45.250    24647424.640    96721805.165         491.992          47.312
S20  38226143.960   200880237.413          38.257          42.438
S35  40665742.520   213699350.205          -4.095          40.375
S38  38181668.620   200646456.693          -1.796          46.250
> 2018 01 01 00 01  1.0000000  0 29
G03  24438747.380   128426090.886       -1254.221          40.125    24438744.600   100072397.801        -977.315          37.375    24438746.020    95902972.390        -936.097          48.188
G08  21749420.920   114294642.693        2689.387          47.625    21749417.680    89060443.944        2095.626          44.875    21749417.940    85349079.827        2008.388          51.688
G09  24840034.300   130535536.660        3199.962          39.375    24840030.160   101716002.451        2493.481          35.250    24840033.160    97477469.200        2389.620          44.375
G14  22822645.280   119933256.556       -3322.642          44.125    22822639.800    93454486.718       -2589.072          37.625
G16  21438597.060   112660167.102       -1286.113          48.250    21438589.720    87787150.951       -1002.167          43.500
G21  25458144.860   133783570.928        -936.643          40.625    25458136.660   104247360.147        -729.852          32.875
G22  24266033.220   127519007.624       -1177.522          43.688    24266023.860    99365535.348        -917.551          36.312
G23  22323984.600   117313200.604        2379.994          48.062    22323975.420    91413264.065        1854.541          41.625
G26  22684120.880   119206667.041       -1712.073          46.688    22684117.320    92887357.380       -1334.083          42.562    22684118.260    89017449.028       -1278.507          50.375
G27  19984310.500   105019012.561         573.572          50.062    19984305.580    81832790.461         446.940          49.812    19984306.840    78422658.642         428.330          52.750
G31  22501767.000   118248116.456        -834.477          48.625    22501759.700    92141426.224        -650.242          42.000
G32  25168748.580   132262969.863       -3630.440          43.625    25168748.220   103061821.886       -2828.914          34.250
R01  22709133.140   121392796.280       -3460.287          42.438    22709134.620    94416623.657       -2691.335          36.000
R02  21355670.520   113958495.007       -1250.016          47.375    21355670.640    88633956.238        -972.234          44.875
R03  23529192.020   125953027.015        1644.036          40.562    23529189.620    97963465.647        1278.692          39.938
R11  22644083.660   121004025.674        -442.323          42.688    22644083.720    94114275.203        -344.029          40.875
R12  21727722.700   116065592.071         692.258          43.875
R13  23817054.460   127181237.419        1450.134          38.562
R21  23444895.520   125458653.900       -3398.551          41.938    23444893.740    97578793.636       -2643.315          40.750
R22  20023753.780   106888802.272        -280.387          49.188    20023753.600    83135759.174        -218.078          48.562
R23  20990549.540   112285506.960        3594.762          47.250    20990550.920    87332518.790        2795.928          41.875
E02  25136361.120   132091897.935          35.738          50.625    25136357.600   101213292.694          27.444          52.312    25136359.160    99926816.250          27.067          48.875    25136360.220    98640075.794          26.761          50.688
E03  25554358.080   134289723.297       -2405.572          49.875    25554356.740   102897283.011       -1843.246          51.688    25554357.440   101589223.147       -1819.811          47.625    25554357.960   100281207.282       -1796.429          49.500
E07  27523937.220   144638674.866        1324.342          42.812    27523938.500   110827430.290        1014.755          49.875    27523938.280   109418118.619        1001.773          43.062    27523938.080   108009531.917         989.081          41.125
E08  22917827.100   120434509.916        -739.143          51.312    22917822.940    92280992.570        -566.405          52.562    22917824.200    91108098.742        -559.196          49.125    22917824.580    89934866.911        -551.984          50.562
E30  24647299.300   129521932.696         660.079          47.938    24647297.280    99244474.133         505.798          50.375    24647298.640    97982899.453         499.340          45.250    24647299.160    96721312.759         493.029          47.375
S20  38226137.440   200880198.613          39.508          42.375
S35  40665743.320   213699354.055          -2.836          40.250
S38  38181668.860   200646458.096           -.646          46.188
> 2018 01 01 00 01  2.0000000  0 28
G03  24438985.900   128427344.219       -1253.257          40.375    24438983.080   100073374.431        -976.562          35.125    24438984.580    95903908.360        -935.955          48.250
G08  21748909.140   114291953.213        2689.285          47.625    21748905.900    89058348.245        2095.546          44.625    21748906.140    85347071.460        2008.204          51.750
G09  24839425.360   130532336.534        3199.865          39.375    24839421.180   101713508.854        2493.403          34.812    24839424.180    97475079.483        2389.649          44.250
G14  22823277.580   119936579.255       -3322.794          44.125    22823272.080    93457075.836       -2589.189          37.625
G16  21438841.760   112661453.064       -1286.076          48.188    21438834.420    87788152.996       -1002.138          43.750
G21  25458323.080   133784507.486        -936.788          40.500    25458314.940   104248089.936        -729.964          29.812
G22  24266257.240   127520184.852       -1177.286          43.562    24266247.880    99366452.666        -917.368          36.688
G23  22323531.680   117310820.580        2379.728          48.125    22323522.520    91411409.503        1854.334          41.125
G26  22684446.640   119208378.908       -1712.007          46.688    22684443.080    92888691.304       -1334.030          41.875    22684444.020    89018727.369       -1278.333          50.375
G27  19984201.380   105018439.124         573.108          50.062    19984196.460    81832343.625         446.578          49.875    19984197.720    78422230.424         427.973          52.750
G31  22501925.760   118248950.832        -834.539          48.625    22501918.460    92142076.387        -650.290          42.375
R01  22709780.380   121396256.296       -3459.984          42.625    22709781.880    94419314.777       -2691.100          35.938
R02  21355904.800   113959745.109       -1250.414          47.375    21355904.900    88634928.539        -972.544          44.875
R03  23528884.880   125951382.924        1643.785          40.875    23528882.500    97962186.910        1278.498          39.938
R11  22644166.420   121004467.805        -442.184          42.750    22644166.460    94114619.088        -343.921          40.812
R12  21727593.040   116064899.403         692.784          43.875
R13  23816782.820   127179786.978        1450.375          38.812
R21  23445530.620   125462052.411       -3398.819          41.812    23445528.820    97581436.922       -2643.524          40.750
R22  20023806.360   106889082.883        -281.081          49.188    20023806.160    83135977.428        -218.619          48.562
R23  20989877.540   112281912.138        3594.531          47.375    20989878.920    87329722.819        2795.748          42.250
E02  25136354.260   132091861.869          36.071          50.562    25136350.740   101213265.062          27.682          52.250    25136352.300    99926788.971          27.298          48.875    25136353.360    98640048.866          26.937          50.688
E03  25554815.820   134292128.734       -2405.473          49.938    25554814.480   102899126.137       -1843.174          51.625    25554815.180   101591042.841       -1819.666          47.500    25554815.700   100283003.546       -1796.332          49.562
E07  27523685.200   144637350.537        1323.951          43.125    27523686.520   110826415.548        1014.607          49.875    27523686.300   109417116.763        1001.769          42.938    27523686.020   108008542.959         989.007          41.125
E08  22917967.760   120435249.058        -739.337          51.250    22917963.600    92281558.923        -566.501          52.562    22917964.860    91108657.894        -559.275          49.125    22917965.240    89935418.868        -552.090          50.562
E30  24647173.680   129521272.348         660.451          48.062    24647171.600    99243968.157         506.003          50.375    24647172.980    97982399.904         499.561          45.188    24647173.500    96720819.646         493.215          47.375
S20  38226131.100   200880158.884          39.481          42.438
S35  40665743.960   213699357.084          -3.459          39.812
S38  38181668.960   200646458.609           -.413          46.250
> 2018 01 01 00 01  3.0000000  0 28
G03  24439224.500   128428598.055       -1254.537          40.250    24439221.660   100074351.456        -977.558          38.125    24439223.200    95904844.652        -936.615          48.250
G08  21748397.500   114289264.547        2687.974          47.688    21748394.260    89056253.185        2094.525          44.812    21748394.520    85345063.687        2007.234          51.750
G09  24838816.540   130529136.975        3198.920          39.938    24838812.300   101711015.678        2492.666          32.688    24838815.320    97472690.196        2388.792          44.375
G14  22823910.000   119939902.597       -3324.098          44.375    22823904.500    93459665.455       -2590.205          38.125
G16  21439086.560   112662739.481       -1286.866          48.125    21439079.220    87789155.401       -1002.753          44.062
G21  25458501.400   133785444.782        -938.085          40.375    25458493.300   104248820.299        -730.976          33.625
G22  24266481.320   127521362.374       -1177.918          43.500    24266471.980    99367370.212        -917.860          37.562
G23  22323078.940   117308441.388        2378.545          48.188    22323069.780    91409555.588        1853.412          41.250
G26  22684772.420   119210091.057       -1712.592          46.688    22684768.880    92890025.448       -1334.486          42.625    22684769.840    89020005.925       -1278.946          50.438
G27  19984092.460   105017866.714         571.606          50.062    19984087.520    81831897.593         445.407          49.938    19984088.780    78421802.977         426.855          52.812
G31  22502084.660   118249785.842        -835.572          48.625    22502077.360    92142727.048        -651.095          42.625
R01  22710427.700   121399716.654       -3460.860          42.438    22710429.200    94422006.168       -2691.780          35.875
R02  21356139.260   113960996.227       -1251.875          47.312    21356139.360    88635901.633        -973.680          44.875
R03  23528577.960   125949739.893        1642.386          41.000    23528575.580    97960908.996        1277.409          40.125
R11  22644249.220   121004910.383        -443.068          42.812    22644249.280    94114963.315        -344.608          40.875
R12  21727463.440   116064207.014         691.862          44.000
R13  23816511.260   127178336.711        1450.034          38.625
R21  23446165.840   125465451.741       -3400.033          41.812    23446164.060    97584080.848       -2644.467          40.375
R22  20023859.180   106889364.776        -282.725          49.188    20023858.980    83136196.676        -219.898          48.625
R23  20989205.660   112278318.089        3593.339          47.312    20989207.060    87326927.448        2794.820          42.062
E02  25136347.460   132091826.051          35.407          50.625    25136343.900   101213237.623          27.057          52.250    25136345.480    99926761.875          26.735          48.875    25136346.560    98640022.121          26.419          50.688
E03  25555273.640   134294534.592       -2406.281          49.875    25555272.280   102900969.590       -1843.882          51.625    25555273.000   101592862.862       -1820.399          47.562    25555273.540   100284800.134       -1797.012          49.562
E07  27523433.300   144636026.912        1323.010          43.062    27523434.680   110825401.355        1013.669          49.812    27523434.460   109416115.471        1000.766          42.875    27523434.100   108007554.566         987.892          41.125
E08  22918108.560   120435988.917        -740.557          51.250    22918104.380    92282125.828        -567.432          52.562    22918105.660    91109217.593        -560.200          49.125    22918106.020    89935971.360        -552.978          50.625
E30  24647048.100   129520612.263         659.659          48.125    24647045.960    99243462.379         505.401          50.312    24647047.380    97981900.558         498.947          45.188    24647047.900    96720326.735         492.482          47.375
S20  38226121.860   200880119.558          38.754          42.375
S35  40665744.660   213699360.432          -3.785          40.000
S38  38181669.120   200646459.531          -1.398          46.125
> 2018 01 01 00 01  4.0000000  0 28
G03  24439463.220   128429852.469       -1254.692          40.375    24439460.340   100075328.932        -977.678          36.812    24439461.940    95905781.397        -936.931          48.438
G08  21747886.060   114286576.851        2687.118          47.750    21747882.800    89054158.877        2093.859          45.062    21747883.060    85343056.639        2006.616          51.750
G09  24838207.860   130525938.179        3198.430          40.062    24838203.620   101708523.114        2492.283          34.188    24838206.580    97470301.487        2388.257          44.562
G14  22824542.560   119943226.685       -3324.534          44.188    22824537.060    93462255.658       -2590.546          37.875
G16  21439331.500   112664026.547       -1287.452          48.125    21439324.140    87790158.311       -1003.210          44.000
G21  25458679.920   133786382.961        -938.892          40.625    25458671.860   104249551.339        -731.607          32.500
G22  24266705.480   127522540.382       -1178.332          43.312    24266696.160    99368288.138        -918.181          35.688
G23  22322626.400   117306063.198        2377.708          48.250    22322617.220    91407702.457        1852.761          41.625
G26  22685098.320   119211803.681       -1712.864          46.812    22685094.780    92891359.962       -1334.699          41.750    22685095.740    89021284.838       -1279.195          50.562
G27  19983983.760   105017295.518         570.447          50.062    19983978.840    81831452.505         444.505          49.875    19983980.080    78421376.438         425.995          52.812
G31  22502243.700   118250621.647        -836.259          48.688    22502236.400    92143378.321        -651.630          41.875
R01  22711075.140   121403177.514       -3461.202          42.375    22711076.640    94424697.946       -2692.046          35.812
R02  21356373.960   113962248.522       -1252.861          47.312    21356374.020    88636875.640        -974.447          45.000
R03  23528271.300   125948098.085        1641.150          41.062    23528268.880    97959632.033        1276.448          39.875
R11  22644332.160   121005353.536        -443.488          42.750    22644332.220    94115307.992        -344.935          40.812
R12  21727333.880   116063515.049         691.728          44.000
R13  23816239.780   127176886.761        1449.651          38.812
R21  23446801.280   125468852.085       -3400.859          41.250    23446799.500    97586725.566       -2645.108          40.188
R22  20023912.260   106889648.128        -284.210          49.188    20023912.060    83136417.059        -221.052          48.625
R23  20988533.960   112274724.980        3592.408          47.375    20988535.360    87324132.811        2794.098          42.062
E02  25136340.720   132091790.661          35.069          50.625    25136337.160   101213210.506          26.852          52.250    25136338.740    99926735.104          26.513          48.875    25136339.840    98639995.695          26.159          50.750
E03  25555731.600   134296941.073       -2406.893          49.875    25555730.200   102902813.511       -1844.217          51.625    25555730.940   101594683.349       -1820.838          47.562    25555731.480   100286597.175       -1797.386          49.625
E07  27523181.580   144634704.225        1321.889          43.375    27523183.000   110824387.848        1013.119          49.812    27523182.780   109415114.845        1000.293          42.875    27523182.340   108006566.835         987.314          41.125
E08  22918249.520   120436729.688        -741.297          51.250    22918245.340    92282693.434        -568.061          52.562    22918246.620    91109777.987        -560.836          49.125    22918247.000    89936524.536        -553.631          50.625
E30  24646922.580   129519952.624         659.296          48.250    24646920.420    99242956.938         505.133          50.375    24646921.840    97981401.536         498.766          45.188    24646922.380    96719834.141         492.290          47.500
S20  38226115.280   200880080.887          38.561          42.625
S35  40665745.400   213699364.391          -3.947          39.875
S38  38181669.420   200646461.045          -1.821          46.188
> 2018 01 01 00 01  5.0000000  0 28
G03  24439702.040   128431107.406       -1254.654          40.688    24439699.200   100076306.805        -977.647          36.438    24439700.800    95906718.541        -937.097          48.375
G08  21747374.780   114283890.018        2686.742          47.875    21747371.520    89052065.242        2093.566          44.938    21747371.760    85341050.241        2006.314          51.812
G09  24837599.300   130522740.070        3198.139          39.812    24837595.040   101706031.079        2492.057          35.000    24837597.980    97467913.274        2388.188          44.562
G14  22825175.260   119946551.502       -3324.698          44.375    22825169.720    93464846.424       -2590.672          37.625
G16  21439576.520   112665314.156       -1287.536          48.062    21439569.140    87791161.644       -1003.275          44.062
G21  25458858.580   133787321.933        -938.899          40.812    25458850.620   104250282.999        -731.612          32.438
G22  24266929.720   127523718.756       -1178.291          43.125    24266920.400    99369206.361        -918.148          36.125
G23  22322174.020   117303685.926        2377.201          48.375    22322164.840    91405850.040        1852.367          41.250
G26  22685424.300   119213516.704       -1712.917          46.875    22685420.760    92892694.786       -1334.740          42.000    22685421.700    89022564.029       -1279.045          50.500
G27  19983875.280   105016725.436         569.886          50.062    19983870.360    81831008.288         444.067          49.875    19983871.600    78420950.727         425.542          52.812
G31  22502402.860   118251458.165        -836.572          48.688    22502395.600    92144030.153        -651.875          41.375
R01  22711722.660   121406638.794       -3461.037          42.188    22711724.140    94427390.055       -2691.917          36.375
R02  21356608.840   113963501.892       -1253.535          47.375    21356608.880    88637850.483        -974.971          44.750
R03  23527964.820   125946457.417        1640.247          40.562    23527962.400    97958355.956        1275.747          39.875
R11  22644415.180   121005797.148        -443.540          42.875    22644415.240    94115653.024        -344.976          41.062
R12  21727204.420   116062823.433         691.751          44.125
R13  23815968.300   127175437.115        1449.988          39.000
R21  23447436.880   125472253.362       -3401.530          41.000    23447435.100    97589371.010       -2645.631          40.312
R22  20023965.600   106889932.821        -284.965          49.188    20023965.400    83136638.491        -221.640          48.562
R23  20987862.420   112271132.704        3592.172          47.250    20987863.840    87321338.819        2793.913          41.938
E02  25136334.060   132091755.610          35.200          50.625    25136330.500   101213183.642          26.958          52.250    25136332.060    99926708.584          26.640          48.750    25136333.180    98639969.516          26.260          50.688
E03  25556189.620   134299348.052       -2406.986          49.875    25556188.220   102904657.822       -1844.293          51.625    25556188.980   101596504.210       -1820.838          47.500    25556189.520   100288394.593       -1797.400          49.625
E07  27522929.980   144633382.305        1321.816          43.625    27522931.480   110823374.962        1012.828          49.750    27522931.260   109414114.833         999.923          42.875    27522930.740   108005579.689         986.980          41.062
E08  22918390.640   120437471.268        -741.694          51.250    22918386.460    92283261.651        -568.311          52.438    22918387.740    91110338.980        -561.085          49.062    22918388.120    89937078.308        -553.829          50.625
E30  24646797.160   129519293.325         659.459          48.312    24646794.940    99242451.760         505.268          50.312    24646796.380    97980902.784         498.883          45.125    24646796.920    96719341.812         492.405          47.438
S20  38226108.440   200880042.567          38.413          42.688
S35  40665746.260   213699368.805          -4.066          40.250
S38  38181669.820   200646462.939          -1.637          46.125
> 2018 01 01 00 01  6.0000000  0 28
G03  24439940.820   128432362.164       -1254.279          40.625    24439937.940   100077284.546        -977.356          36.062    24439939.600    95907655.530        -936.831          48.375
G08  21746863.520   114281203.362        2686.857          47.875    21746860.260    89049971.745        2093.655          44.625    21746860.520    85339043.977        2006.353          51.750
G09  24836990.700   130519541.921        3198.043          39.188    24836986.460   101703539.004        2491.979          36.938    24836989.400    97465525.045        2388.224          44.562
G14  22825807.960   119949876.294       -3324.572          44.250    22825802.400    93467437.184       -2590.572          39.125
G16  21439821.520   112666601.601       -1287.074          47.938    21439814.140    87792164.853       -1002.914          44.062
G21  25459037.240   133788261.027        -938.993          40.875    25459029.300   104251014.765        -731.684          30.312
G22  24267153.900   127524896.819       -1177.862          42.938    24267144.580    99370124.333        -917.813          37.250
G23  22321721.680   117301308.850        2377.160          48.375    22321712.520    91403997.777        1852.335          41.562
G26  22685750.200   119215229.383       -1712.349          47.000    22685746.660    92894029.337       -1334.299          42.562    22685747.620    89023842.985       -1278.692          50.500
G27  19983766.860   105016155.761         569.710          50.062    19983761.960    81830564.385         443.931          49.875    19983763.200    78420525.325         425.389          52.812
G31  22502562.040   118252294.661        -836.183          48.812    22502554.760    92144681.968        -651.570          41.875
R01  22712370.100   121410099.785       -3460.492          42.250    22712371.580    94430081.939       -2691.494          36.188
R02  21356843.780   113964755.601       -1253.660          47.375    21356843.820    88638825.590        -975.068          44.750
R03  23527658.360   125944817.082        1640.386          40.875    23527655.980    97957080.139        1275.855          40.125
R11  22644498.180   121006240.520        -442.938          42.875    22644498.220    94115997.865        -344.508          40.625
R12  21727074.880   116062131.419         692.465          44.000
R13  23815696.740   127173986.955        1450.706          39.125
R21  23448072.520   125475654.816       -3401.312          41.000    23448070.720    97592016.587       -2645.461          40.312
R22  20024019.060   106890218.135        -285.340          49.188    20024018.840    83136860.401        -221.930          48.438
R23  20987190.900   112267540.551        3592.317          47.312    20987192.320    87318544.922        2794.025          41.875
E02  25136327.320   132091720.178          35.785          50.562    25136323.740   101213156.497          27.420          52.250    25136325.320    99926681.782          27.069          48.812    25136326.440    98639943.059          26.749          50.750
E03  25556647.620   134301754.832       -2406.519          49.938    25556646.220   102906501.982       -1843.950          51.625    25556646.960   101598324.925       -1820.478          47.500    25556647.520   100290191.872       -1797.140          49.562
E07  27522678.440   144632060.474        1321.996          43.625    27522679.980   110822362.141        1012.929          49.812    27522679.740   109413114.892         999.964          42.688    27522679.160   108004592.629         987.013          41.312
E08  22918531.780   120438212.941        -741.520          51.188    22918527.600    92283829.956        -568.239          52.562    22918528.880    91110900.059        -560.999          49.125    22918529.260    89937632.160        -553.766          50.625
E30  24646671.640   129518633.673         660.060          48.312    24646669.380    99241946.314         505.748          50.375    24646670.860    97980403.768         499.232          45.312    24646671.400    96718849.221         492.724          47.500
S20  38226101.580   200880003.885          38.865          42.625
S35  40665747.080   213699372.925          -4.044          40.625
S38  38181670.120   200646464.523          -1.219          46.375
