     2.11           OBSERVATION DATA    G (GPS)             RINEX VERSION / TYPE
teqc  2013Mar15     gpsops              20150101 00:36:04UTCPGM / RUN BY / DATE
Linux 2.4.21-27.ELsmp|Opteron|gcc -static|Linux x86_64|=+   COMMENT
BIT 2 OF LLI FLAGS DATA COLLECTED UNDER A/S CONDITION       COMMENT
CRAO                                                        MARKER NAME
12337M002                                                   MARKER NUMBER
Reilnger, Rob       MIT                                     OBSERVER / AGENCY
UC120031621         ASHTECH UZ-12       CQ00                REC # / TYPE / VERS
CR520003501         ASH701945C_M    SCIS                    ANT # / TYPE
  3783897.0146  2551404.4833  4441264.3100                  APPROX POSITION XYZ
        0.0800        0.0000        0.0000                  ANTENNA: DELTA H/E/N
     1     1                                                WAVELENGTH FACT L1/2
     7    L1    L2    P1    P2    C1    S1    S2            # / TYPES OF OBSERV
     1.0000                                                 INTERVAL
                                                            COMMENT
This data is provided as a public service by NASA/JPL.      COMMENT
No warranty is expressed or implied regarding suitability   COMMENT
for use.  For further information, contact:                 COMMENT
Dave Stowers, NASA/JPL m/s 238-600                          COMMENT
4800 Oak Grove Drive, Pasadena CA 91109 USA                 COMMENT
                                                            COMMENT
 SNR is mapped to RINEX snr flag value [0-9]                COMMENT
  L1 & L2: min(max(int(snr_dBHz/6), 0), 9)                  COMMENT
pseudorange smoothing corrections not applied               COMMENT
  2015     1     1     0     0    0.0000000     GPS         TIME OF FIRST OBS
                                                            END OF HEADER
 15  1  1  0  0  0.0000000  0  7G02G29G24G25G12G06G14
 -19840012.93449 -15450438.23048  21242124.7894   21242124.2354   21242125.929
        54.0004         49.0004
 -18541624.60148 -14386607.18847  22113297.0654   22113297.8464   22113296.500
        51.0004         46.0004
 -12841860.17848  -9951085.81947  22313386.3214   22313390.3064   22313386.089
        51.0004         46.0004
 -23665341.97949 -18397762.46048  20943720.5874   20943724.4324   20943721.077
        54.0004         49.0004
 -25402804.39949 -19735048.61848  20320429.0814   20320429.4944   20320429.101
        56.0004         52.0004
  -9714221.28248  -7520223.13447  22920109.4254   22920114.8664   22920108.887
        48.0004         44.0004
  -2046419.49947  -1588856.10946  24077415.4184   24077416.9134   24077416.413
        42.0004         37.0004
 15  1  1  0  0  1.0000000  0  7G02G29G24G25G12G06G14
 -19840104.71149 -15450509.74548  21242107.3484   21242106.8184   21242108.422
        54.0004         49.0004
 -18544205.88248 -14388618.57847  22112805.7264   22112807.0164   22112805.162
        51.0004         46.0004
 -12838687.72548  -9948613.78347  22313990.1314   22313994.3304   22313989.758
        51.0004         46.0004
 -23667115.42349 -18399144.36448  20943383.1354   20943387.7164   20943383.639
        54.0004         49.0004
 -25402167.94449 -19734552.67948  20320550.2064   20320550.5604   20320550.235
        56.0004         52.0004
  -9711795.02148  -7518332.54547  22920570.4654   22920575.1684   22920570.558
        48.0004         44.0004
  -2044969.74447  -1587726.43346  24077691.4874   24077692.5154   24077692.787
        42.0004         37.0004
 15  1  1  0  0  2.0000000  0  7G02G29G24G25G12G06G14
 -19840196.33149 -15450581.13848  21242089.9164   21242089.4944   21242090.916
        54.0004         49.0004
 -18546787.29548 -14390630.06747  22112314.1864   22112315.6334   22112313.974
        51.0004         46.0004
 -12835515.36448  -9946141.81247  22314594.2004   22314598.0334   22314593.412
        51.0004         46.0004
 -23668888.98049 -18400526.35648  20943045.9744   20943050.0334   20943046.172
        54.0004         49.0004
 -25401531.52149 -19734056.76648  20320671.3704   20320671.7954   20320671.351
        56.0004         52.0004
  -9709368.68648  -7516441.89547  22921032.7444   22921038.7854   22921032.345
        48.0004         44.0004
  -2043519.93847  -1586596.72046  24077966.6604   24077968.7904   24077968.823
        42.0004         37.0004
 15  1  1  0  0  3.0000000  0  7G02G29G24G25G12G06G14
 -19840287.56049 -15450652.22648  21242072.7404   21242071.8874   21242073.518
        54.0004         49.0004
 -18549368.59648 -14392641.47147  22111823.4154   22111824.7614   22111822.658
        51.0004         46.0004
 -12832342.85048  -9943669.72147  22315197.4874   22315201.2574   22315197.130
        51.0004         46.0004
 -23670662.41649 -18401908.25448  20942708.0894   20942712.1694   20942708.742
        54.0004         49.0004
 -25400894.87549 -19733560.67948  20320792.3544   20320792.9244   20320792.510
        56.0004         52.0004
  -9706942.08348  -7514551.03447  22921494.7304   22921499.2964   22921494.394
        48.0004         43.0004
  -2042069.83347  -1585466.76946  24078242.5054   24078243.9294   24078244.612
        42.0004         37.0004
 15  1  1  0  0  4.0000000  0  7G02G29G24G25G12G06G14
 -19840378.12549 -15450722.79848  21242055.5704   21242054.7584   21242056.240
        54.0004         49.0004
 -18551949.50848 -14394652.56947  22111331.5034   22111333.7424   22111331.504
        51.0004         46.0004
 -12829169.92848  -9941197.31547  22315801.0964   22315805.1974   22315800.933
        51.0004         46.0004
 -23672435.44549 -18403289.83748  20942370.7274   20942374.8974   20942371.407
        54.0004         49.0004
 -25400257.75749 -19733064.22248  20320913.6234   20320914.0864   20320913.736
        56.0004         52.0004
  -9704514.90548  -7512659.72547  22921957.0444   22921961.4474   22921956.298
        48.0004         43.0004
  -2040619.17847  -1584336.38946  24078518.2744   24078521.2834   24078520.560
        42.0004         37.0004
 15  1  1  0  0  5.0000000  0  7G02G29G24G25G12G06G14
 -19840467.75149 -15450792.63248  21242038.2814   21242038.0424   21242039.198
        54.0004         49.0004
 -18554529.77048 -14396663.16047  22110840.8724   22110842.8774   22110840.404
        51.0004         46.0004
 -12825996.30948  -9938724.36447  22316404.8774   22316408.7724   22316404.903
        51.0004         46.0004
 -23674207.80349 -18404670.89348  20942033.5264   20942037.6984   20942034.116
        54.0004         49.0004
 -25399619.87649 -19732567.17248  20321035.0454   20321035.4044   20321035.089
        56.0004         52.0004
  -9702086.89548  -7510767.77147  22922419.1094   22922421.6354   22922418.438
        48.0004         43.0004
  -2039167.70047  -1583205.36646  24078793.5174   24078796.5824   24078796.754
        42.0004         37.0004
 15  1  1  0  0  6.0000000  0  7G02G29G24G25G12G06G14
 -19840556.54849 -15450861.82548  21242021.4634   21242020.7214   21242022.227
        54.0004         49.0004
 -18557109.49548 -14398673.33447  22110349.7204   22110351.5454   22110349.466
        51.0004         46.0004
 -12822822.13648  -9936250.98447  22317008.8154   22317012.4894   22317008.835
        51.0004         46.0004
 -23675979.60649 -18406051.51748  20941696.6914   20941700.6994   20941696.968
        54.0004         49.0004
 -25398981.35749 -19732069.62548  20321156.6244   20321157.2614   20321156.633
        56.0004         52.0004
  -9699658.16048  -7508875.24747  22922881.0124   22922885.6314   22922880.751
        48.0004         43.0004
  -2037715.50647  -1582073.78746  24079071.0094   24079072.6394   24079072.871
        42.0004         37.0004
 15  1  1  0  0  7.0000000  0  7G02G29G24G25G12G06G14
 -19840645.04549 -15450930.78448  21242004.5864   21242004.2024   21242005.330
        54.0004         49.0004
 -18559689.20248 -14400683.49647  22109859.3934   22109860.7904   22109858.595
        51.0004         46.0004
 -12819647.91548  -9933777.56547  22317613.7304   22317617.1614   22317612.920
        51.0004         46.0004
 -23677751.36649 -18407432.11048  20941359.4914   20941363.3484   20941359.763
        54.0004         49.0004
 -25398342.72149 -19731571.98648  20321278.0664   20321278.5634   20321278.186
        56.0004         52.0004
  -9697229.24148  -7506982.58447  22923343.0604   22923348.7694   22923343.150
        48.0004         43.0004
  -2036263.13247  -1580942.06846  24079348.3364   24079349.4574   24079349.337
        42.0004         37.0004
 15  1  1  0  0  8.0000000  0  7G02G29G24G25G12G06G14
 -19840733.00749 -15450999.32648  21241987.8974   21241986.9384   21241988.550
        54.0004         49.0004
 -18562268.65248 -14402693.45647  22109367.9734   22109369.6584   22109367.647
        51.0004         46.0004
 -12816473.40148  -9931303.91947  22318217.0704   22318221.0764   22318216.937
        51.0004         46.0004
 -23679522.87649 -18408812.50848  20941022.0724   20941026.2664   20941022.656
        54.0004         49.0004
 -25397703.73849 -19731074.07948  20321399.8224   20321400.2204   20321399.750
        56.0004         52.0004
  -9694799.88548  -7505089.57847  22923805.8344   22923808.7754   22923805.573
        48.0004         44.0004
  -2034810.31947  -1579810.00646  24079624.4344   24079625.7044   24079625.651
        42.0004         37.0004
 15  1  1  0  0  9.0000000  0  7G02G29G24G25G12G06G14
 -19840820.47749 -15451067.48648  21241971.3594   21241970.4704   21241971.887
        54.0004         49.0004
 -18564847.89148 -14404703.25147  22108877.3474   22108879.1244   22108876.841
        51.0004         46.0004
 -12813298.64448  -9928830.08347  22318821.7984   22318825.0044   22318821.018
        51.0004         46.0004
 -23681294.15349 -18410192.72648  20940685.1534   20940689.1454   20940685.566
        54.0004         49.0004
 -25397064.43949 -19730575.92448  20321521.2474   20321521.9234   20321521.367
        56.0004         52.0004
  -9692370.13648  -7503196.26847  22924266.9824   22924270.8734   22924268.084
        48.0004         44.0004
  -2033357.13547  -1578677.65246  24079901.5334   24079902.5284   24079902.277
        42.0004         37.0004
 15  1  1  0  0 10.0000000  0  7G02G29G24G25G12G06G14
 -19840907.13349 -15451135.00948  21241954.4314   21241954.1554   21241955.345
        54.0004         49.0004
 -18567426.59048 -14406712.62947  22108386.7454   22108388.3974   22108386.217
        51.0004         46.0004
 -12810123.30048  -9926355.78847  22319425.6524   22319429.7054   22319425.360
        51.0004         46.0004
 -23683064.87449 -18411572.50748  20940348.3144   20940352.5694   20940348.596
        54.0004         49.0004
 -25396424.49949 -19730077.26948  20321642.9524   20321643.7104   20321643.084
        56.0004         52.0004
  -9689939.68048  -7501302.39947  22924729.7624   22924734.6024   22924730.548
        48.0004         44.0004
  -2031903.25547  -1577544.75746  24080178.7554   24080178.7364   24080178.868
        42.0004         37.0004
 15  1  1  0  0 11.0000000  0  7G02G29G24G25G12G06G14
 -19840992.96649 -15451201.89248  21241938.2044   21241937.4704   21241939.017
        54.0004         49.0004
 -18570004.75848 -14408721.59047  22107895.7894   22107897.7014   22107895.485
        51.0004         46.0004
 -12806947.36748  -9923881.03447  22320029.5444   22320034.1674   22320029.678
        51.0004         46.0004
 -23684835.04849 -18412951.86448  20940011.3514   20940015.6464   20940011.772
        54.0004         49.0004
 -25395783.92149 -19729578.11848  20321764.6704   20321765.4954   20321764.937
        56.0004         52.0004
  -9687508.50048  -7499407.98147  22925193.7954   22925196.5744   22925193.186
        48.0004         43.0004
  -2030448.64047  -1576411.29346  24080455.2594   24080455.8374   24080455.747
        42.0004         37.0004
 15  1  1  0  0 12.0000000  0  7G02G29G24G25G12G06G14
 -19841077.95449 -15451268.11648  21241922.3504   21241921.3294   21241922.819
        54.0004         49.0004
 -18572582.36248 -14410730.11347  22107405.0654   22107407.4114   22107404.968
        51.0004         46.0004
 -12803770.85748  -9921405.83447  22320634.9864   22320637.6404   22320634.220
        51.0004         46.0004
 -23686604.63949 -18414330.76948  20939674.4564   20939678.5944   20939675.051
        54.0004         49.0004
 -25395142.68749 -19729078.45648  20321886.8854   20321887.4854   20321886.907
        56.0004         52.0004
  -9685076.58748  -7497512.98447  22925656.5944   22925660.0514   22925655.984
        48.0004         44.0004
  -2028993.29647  -1575277.26146  24080730.9784   24080732.9634   24080732.668
        42.0004         37.0004
 15  1  1  0  0 13.0000000  0  7G02G29G24G25G12G06G14
 -19841162.73149 -15451334.17648  21241905.9244   21241905.1104   21241906.697
        54.0004         49.0004
 -18575160.03748 -14412738.69247  22106914.8614   22106916.5234   22106914.429
        51.0004         46.0004
 -12800594.37948  -9918930.65747  22321238.9324   22321242.3844   22321238.667
        51.0004         46.0004
 -23688374.28249 -18415709.71048  20939338.0874   20939342.0164   20939338.293
        54.0004         49.0004
 -25394501.41449 -19728578.76248  20322008.7844   20322009.6964   20322008.816
        56.0004         52.0004
  -9682644.56348  -7495617.89547  22926117.8304   22926123.3444   22926118.986
        48.0004         44.0004
  -2027537.85947  -1574143.15446  24081007.6974   24081010.2634   24081009.852
        42.0004         37.0004
 15  1  1  0  0 14.0000000  0  7G02G29G24G25G12G06G14
 -19841247.03149 -15451399.86348  21241890.1534   21241889.3154   21241890.645
        54.0004         49.0004
 -18577737.51648 -14414747.11647  22106424.4754   22106426.8554   22106424.003
        51.0004         46.0004
 -12797417.67748  -9916455.30747  22321843.2084   22321847.3084   22321843.222
        51.0004         46.0004
 -23690143.70749 -18417088.48448  20939001.0534   20939005.2404   20939001.589
        54.0004         49.0004
 -25393859.84149 -19728078.83648  20322130.8084   20322131.7284   20322130.855
        56.0004         52.0004
  -9680212.15948  -7493722.51447  22926581.4524   22926585.5364   22926581.998
        48.0004         44.0004
  -2026082.03547  -1573008.74446  24081284.2774   24081286.8484   24081287.033
        42.0004         37.0004
 15  1  1  0  0 15.0000000  0  7G02G29G24G25G12G06G14
 -19841330.84149 -15451465.17148  21241873.7474   21241873.3814   21241874.716
        54.0004         49.0004
 -18580314.77848 -14416755.37047  22105934.2424   22105935.3774   22105933.597
        51.0004         46.0004
 -12794240.75448  -9913979.78147  22322448.3024   22322451.1934   22322447.701
        51.0004         46.0004
 -23691912.91249 -18418467.08648  20938664.8124   20938668.5914   20938664.915
        54.0004         49.0004
 -25393217.95049 -19727578.66248  20322252.9124   20322253.9684   20322252.955
        56.0004         52.0004
  -9677779.38348  -7491826.84847  22927044.1964   22927049.2834   22927045.104
        48.0004         44.0004
  -2024625.84247  -1571874.05146  24081560.5564   24081562.6234   24081564.046
        42.0004         37.0004
 15  1  1  0  0 16.0000000  0  7G02G29G24G25G12G06G14
 -19841413.79849 -15451529.81248  21241858.3414   21241857.3234   21241858.850
        54.0004         49.0004
 -18582891.47048 -14418763.17947  22105443.7474   22105445.4584   22105443.284
        51.0004         46.0004
 -12791063.22348  -9911503.78147  22323052.2864   22323056.4224   22323052.469
        51.0004         46.0004
 -23693681.52249 -18419845.22348  20938327.9114   20938331.6864   20938328.341
        54.0004         49.0004
 -25392575.38649 -19727077.96248  20322375.3854   20322376.1334   20322375.161
        56.0004         52.0004
  -9675345.83948  -7489930.57747  22927508.4174   22927511.3744   22927508.295
        48.0004         44.0004
  -2023168.91547  -1570738.78146  24081838.0364   24081839.4234   24081841.039
        42.0004         37.0004
 15  1  1  0  0 17.0000000  0  7G02G29G24G25G12G06G14
 -19841495.99749 -15451593.86348  21241842.5954   21241842.0384   21241843.161
        54.0004         49.0004
 -18585467.68548 -14420770.62347  22104953.7854   22104955.3094   22104953.161
        51.0004         46.0004
 -12787885.18248  -9909027.38747  22323657.4504   22323660.6324   22323657.234
        51.0004         46.0004
 -23695449.64149 -18421222.97848  20937991.6024   20937995.4324   20937991.824
        54.0004         49.0004
 -25391932.25449 -19726576.82148  20322497.5094   20322498.5494   20322497.449
        56.0004         52.0004
  -9672911.65648  -7488033.81147  22927971.2494   22927975.5174   22927971.440
        48.0004         43.0004
  -2021711.30547  -1569602.98146  24082115.9184   24082116.8414   24082118.126
        42.0004         37.0004
 15  1  1  0  0 18.0000000  0  7G02G29G24G25G12G06G14
 -19841577.74249 -15451657.56148  21241827.1514   21241826.2564   21241827.645
        54.0004         49.0004
 -18588043.72848 -14422777.92847  22104463.5734   22104465.8844   22104463.019
        51.0004         46.0004
 -12784706.92548  -9906550.82547  22324262.3444   22324266.1274   22324261.969
        51.0004         46.0004
 -23697217.56849 -18422600.58448  20937655.4124   20937659.0594   20937655.421
        54.0004         49.0004
 -25391288.84349 -19726075.46448  20322620.0154   20322621.0974   20322619.854
        56.0004         52.0004
  -9670477.10248  -7486136.76147  22928434.6934   22928437.8764   22928434.815
        48.0004         44.0004
  -2020253.38547  -1568466.93946  24082393.3214   24082394.7514   24082395.345
        42.0004         37.0004
 15  1  1  0  0 19.0000000  0  7G02G29G24G25G12G06G14
 -19841659.05649 -15451720.92148  21241811.5754   21241810.8584   21241812.177
        54.0004         49.0004
 -18590619.62748 -14424785.12247  22103973.7194   22103975.4694   22103972.847
        51.0004         46.0004
 -12781528.48748  -9904074.12247  22324866.8974   22324870.6344   22324866.875
        51.0004         46.0004
 -23698985.32449 -18423978.05848  20937318.6424   20937322.8554   20937319.019
        54.0004         49.0004
 -25390645.19649 -19725573.91848  20322742.4144   20322743.4854   20322742.283
        56.0004         52.0004
  -9668042.23648  -7484239.46147  22928898.6834   22928902.3174   22928898.226
        48.0004         44.0004
  -2018795.11947  -1567330.62846  24082670.3924   24082672.9584   24082672.557
        42.0004         37.0004
 15  1  1  0  0 20.0000000  0  7G02G29G24G25G12G06G14
 -19841739.92749 -15451783.93748  21241796.1114   21241795.5724   21241796.762
        54.0004         49.0004
 -18593195.35648 -14426792.18547  22103483.1304   22103485.2014   22103482.822
        51.0004         46.0004
 -12778349.84348  -9901597.25847  22325471.8084   22325475.4604   22325471.746
        51.0004         46.0004
 -23700752.90849 -18425355.39348  20936982.2914   20936986.4434   20936982.652
        54.0004         49.0004
 -25390001.27649 -19725072.16348  20322865.0354   20322865.9924   20322864.795
        56.0004         52.0004
  -9665607.03648  -7482341.90047  22929360.2304   22929364.2084   22929361.621
        48.0004         44.0004
  -2017336.51847  -1566194.05746  24082947.5934   24082950.6354   24082949.872
        42.0004         37.0004
 15  1  1  0  0 21.0000000  0  7G02G29G24G25G12G06G14
 -19841820.11649 -15451846.42148  21241780.9354   21241780.1764   21241781.546
        54.0004         49.0004
 -18595770.68748 -14428798.93647  22102992.7314   22102994.9404   22102992.851
        51.0004         46.0004
 -12775170.77848  -9899120.06647  22326077.3094   22326080.7474   22326076.723
        51.0004         46.0004
 -23702520.07249 -18426732.40348  20936646.2604   20936650.1604   20936646.408
        54.0004         49.0004
 -25389356.85449 -19724570.01748  20322987.5444   20322988.6474   20322987.388
        56.0004         52.0004
  -9663171.24648  -7480443.88147  22929824.5634   22929828.6324   22929825.189
        48.0004         44.0004
  -2015877.35947  -1565057.05046  24083226.2414   24083229.6084   24083227.463
        42.0004         37.0004
 15  1  1  0  0 22.0000000  0  7G02G29G24G25G12G06G14
 -19841900.11749 -15451908.76148  21241765.7674   21241765.0854   21241766.341
        54.0004         49.0004
 -18598346.11748 -14430805.76247  22102503.4854   22102504.8874   22102502.786
        51.0004         46.0004
 -12771991.75848  -9896642.90647  22326681.6114   22326685.6674   22326681.646
        51.0004         46.0004
 -23704287.32349 -18428109.48348  20936309.8524   20936313.5834   20936310.183
        54.0004         49.0004
 -25388712.42849 -19724067.86748  20323110.3574   20323111.2464   20323109.970
        56.0004         52.0004
  -9660735.38048  -7478545.80247  22930287.8894   22930291.4484   22930288.690
        48.0004         44.0004
  -2014418.11947  -1563919.98246  24083504.5244   24083507.8294   24083505.398
        42.0004         37.0004
 15  1  1  0  0 23.0000000  0  7G02G29G24G25G12G06G14
 -19841979.72249 -15451970.79248  21241750.3274   21241749.8364   21241751.143
        54.0004         49.0004
 -18600921.41948 -14432812.49147  22102013.2664   22102014.7954   22102012.913
        51.0004         46.0004
 -12768812.58848  -9894165.63147  22327286.9264   22327290.2614   22327286.682
        51.0004         46.0004
 -23706054.44249 -18429486.45748  20935973.5024   20935977.8644   20935973.937
        54.0004         49.0004
 -25388067.78449 -19723565.54548  20323232.8264   20323233.9844   20323232.654
        56.0004         52.0004
  -9658299.22548  -7476647.50147  22930750.3274   22930755.5294   22930752.173
        48.0004         44.0004
  -2012958.59447  -1562782.69146  24083782.7344   24083785.8464   24083783.199
        42.0004         37.0004
 15  1  1  0  0 24.0000000  0  7G02G29G24G25G12G06G14
 -19842058.42549 -15452032.11848  21241735.6814   21241734.8204   21241736.173
        54.0004         49.0004
 -18603496.10148 -14434818.73647  22101523.4414   22101525.1124   22101523.068
        51.0004         46.0004
 -12765632.79048  -9891687.86747  22327892.1134   22327896.0184   22327891.813
        51.0004         46.0004
 -23707820.91749 -18430862.93248  20935637.4944   20935641.2204   20935637.811
        54.0004         49.0004
 -25387422.41949 -19723062.66348  20323355.7874   20323356.8074   20323355.457
        56.0004         52.0004
  -9655862.26148  -7474748.57047  22931215.3794   22931219.7444   22931215.937
        48.0004         44.0004
  -2011498.27447  -1561644.78146  24084061.1134   24084064.1404   24084061.418
        42.0004         37.0004
 15  1  1  0  0 25.0000000  0  7G02G29G24G25G12G06G14
 -19842136.44849 -15452092.91548  21241720.6324   21241719.7014   21241721.329
        54.0004         49.0004
 -18606070.39548 -14436824.68147  22101033.5404   22101035.1344   22101033.217
        51.0004         46.0004
 -12762452.54748  -9889209.75447  22328497.5884   22328500.5484   22328497.029
        51.0004         46.0004
 -23709586.99449 -18432239.09548  20935301.0904   20935305.0854   20935301.739
        54.0004         49.0004
 -25386776.55649 -19722559.39448  20323478.3994   20323479.9564   20323478.343
        56.0004         52.0004
  -9653424.73848  -7472849.20047  22931680.2384   22931683.3024   22931679.793
        48.0004         44.0004
  -2010037.37947  -1560506.42046  24084339.9654   24084341.5834   24084339.894
        42.0004         37.0004
 15  1  1  0  0 26.0000000  0  7G02G29G24G25G12G06G14
 -19842213.71449 -15452153.12348  21241706.0454   21241705.0704   21241706.674
        54.0004         49.0004
 -18608644.21048 -14438830.24747  22100543.4164   22100545.6364   22100543.484
        51.0004         46.0004
 -12759271.80548  -9886731.26047  22329102.5624   22329105.8674   22329102.392
        51.0004         46.0004
 -23711352.56949 -18433614.87048  20934965.3574   20934969.1894   20934965.790
        54.0004         49.0004
 -25386130.11749 -19722055.67748  20323601.6214   20323602.7464   20323601.357
        56.0004         52.0004
  -9650986.56548  -7470949.32447  22932143.5764   22932147.3594   22932143.722
        48.0004         44.0004
  -2008575.85447  -1559367.56946  24084618.1564   24084620.0644   24084618.238
        42.0004         37.0004
 15  1  1  0  0 27.0000000  0  7G02G29G24G25G12G06G14
 -19842290.35549 -15452212.84348  21241691.3964   21241690.2974   21241692.038
        54.0004         49.0004
 -18611217.68148 -14440835.55047  22100053.3874   22100055.4894   22100053.806
        51.0004         46.0004
 -12756090.68648  -9884252.46247  22329708.3974   22329711.5704   22329707.795
        51.0004         46.0004
 -23713117.77949 -18434990.35848  20934629.4464   20934633.2494   20934629.916
        54.0004         49.0004
 -25385483.22449 -19721551.60448  20323724.7124   20323725.8404   20323724.477
        56.0004         52.0004
  -9648547.86248  -7469049.03647  22932607.1544   22932611.0624   22932607.697
        48.0004         44.0004
  -2007113.79447  -1558228.30346  24084895.9014   24084898.1574   24084896.356
        42.0004         37.0004
 15  1  1  0  0 28.0000000  0  7G02G29G24G25G12G06G14
 -19842366.33749 -15452272.04948  21241676.7454   21241676.3304   21241677.619
        54.0004         49.0004
 -18613790.77548 -14442840.56147  22099564.1394   22099566.1904   22099564.236
        51.0004         46.0004
 -12752909.18648  -9881773.37147  22330313.4754   22330316.4094   22330313.260
        51.0004         46.0004
 -23714882.59149 -18436365.53548  20934293.9774   20934297.5614   20934294.068
        54.0004         49.0004
 -25384835.85549 -19721047.16148  20323847.9034   20323849.1064   20323847.716
        56.0004         52.0004
  -9646108.61548  -7467148.32347  22933072.1344   22933075.0884   22933071.694
        48.0004         44.0004
  -2005651.19947  -1557088.62146  24085173.7584   24085175.8914   24085174.564
        42.0004         37.0004
 15  1  1  0  0 29.0000000  0  7G02G29G24G25G12G06G14
 -19842441.64549 -15452330.73048  21241662.6764   21241661.7844   21241663.230
        54.0004         49.0004
 -18616363.47348 -14444845.25947  22099074.4084   22099076.3594   22099074.706
        51.0004         46.0004
 -12749727.25848  -9879293.94447  22330918.7444   22330922.3014   22330918.782
        51.0004         46.0004
 -23716647.00049 -18437740.39748  20933957.5834   20933961.8574   20933958.310
        54.0004         49.0004
 -25384187.98649 -19720542.32848  20323971.2534   20323972.2254   20323971.048
        56.0004         52.0004
  -9643668.77648  -7465247.14847  22933536.3614   22933540.4234   22933535.897
        48.0004         44.0004
  -2004188.05747  -1555948.50946  24085451.7774   24085453.6444   24085453.289
        42.0004         37.0004
 15  1  1  0  0 30.0000000  0  7G02G29G24G25G12G06G14
 -19842516.30949 -15452388.91248  21241648.3844   21241647.4644   21241649.026
        54.0004         49.0004
 -18618935.81148 -14446849.67947  22098585.3294   22098586.4154   22098585.241
        51.0004         46.0004
 -12746544.92948  -9876814.21047  22331524.7484   22331527.3944   22331524.414
        51.0004         46.0004
 -23718411.02149 -18439114.95948  20933622.2994   20933626.3874   20933622.607
        54.0004         49.0004
 -25383539.65449 -19720037.13548  20324094.5474   20324095.6384   20324094.408
        56.0004         52.0004
  -9641228.42148  -7463345.57547  22934000.3734   22934005.3034   22934000.313
        48.0004         44.0004
  -2002724.33747  -1554807.94846  24085731.0364   24085731.1794   24085731.914
        42.0004         37.0004
 15  1  1  0  0 31.0000000  0  7G02G29G24G25G12G06G14
 -19842590.99449 -15452447.10648  21241633.8384   21241633.4654   21241634.788
        54.0004         49.0004
 -18621508.44748 -14448854.32947  22098095.5064   22098097.7224   22098095.696
        51.0004         46.0004
 -12743362.85348  -9874334.66947  22332130.6224   22332132.7914   22332129.963
        51.0004         46.0004
 -23720175.34049 -18440489.75448  20933286.5274   20933290.6864   20933286.912
        54.0004         49.0004
 -25382891.53249 -19719532.10548  20324217.8834   20324218.8474   20324217.753
        56.0004         52.0004
  -9638788.17648  -7461444.08247  22934464.6384   22934468.6274   22934464.626
        48.0004         44.0004
  -2001260.78547  -1553667.52046  24086009.3114   24086009.5034   24086010.457
        42.0004         37.0004
 15  1  1  0  0 32.0000000  0  7G02G29G24G25G12G06G14
 -19842665.11549 -15452504.86348  21241620.0714   21241619.4274   21241620.691
        54.0004         49.0004
 -18624080.80648 -14450858.76447  22097606.4174   22097607.2994   22097606.266
        51.0004         46.0004
 -12740180.46348  -9871854.88447  22332735.8944   22332738.8824   22332735.588
        51.0004         46.0004
 -23721939.34349 -18441864.30048  20932950.9834   20932954.8174   20932951.218
        54.0004         49.0004
 -25382243.02149 -19719026.77248  20324341.2904   20324342.4484   20324341.188
        56.0004         52.0004
  -9636347.47948  -7459542.23547  22934929.6294   22934932.6204   22934928.979
        48.0004         44.0004
  -1999796.73147  -1552526.70246  24086288.0034   24086287.7584   24086289.033
        42.0004         37.0004
 15  1  1  0  0 33.0000000  0  7G02G29G24G25G12G06G14
 -19842738.81849 -15452562.29648  21241606.2394   21241605.1174   21241606.731
        54.0004         49.0004
 -18626653.01748 -14452863.08747  22097117.0774   22097118.0644   22097116.930
        51.0004         46.0004
 -12736997.92748  -9869374.98747  22333341.7194   22333343.8714   22333341.228
        51.0004         46.0004
 -23723703.20349 -18443238.73748  20932614.9564   20932619.2264   20932615.594
        54.0004         49.0004
 -25381594.27649 -19718521.25648  20324464.8314   20324466.0204   20324464.683
        56.0004         52.0004
  -9633906.46248  -7457640.14647  22935394.6314   22935396.9244   22935393.505
        48.0004         44.0004
  -1998332.40547  -1551385.66846  24086567.0144   24086567.1154   24086567.702
        42.0004         37.0004
 15  1  1  0  0 34.0000000  0  7G02G29G24G25G12G06G14
 -19842812.05949 -15452619.36548  21241592.2524   21241591.4484   21241592.821
        54.0004         49.0004
 -18629225.05848 -14454867.27647  22096627.2274   22096628.5624   22096627.499
        51.0004         46.0004
 -12733815.17648  -9866894.91947  22333946.8124   22333949.9624   22333946.929
        51.0004         46.0004
 -23725466.86149 -18444613.01648  20932279.3974   20932283.5164   20932279.893
        54.0004         49.0004
 -25380945.24849 -19718015.52148  20324588.1974   20324589.4184   20324588.198
        56.0004         52.0004
  -9631465.09648  -7455737.78547  22935858.5834   22935861.7014   22935858.114
        48.0004         44.0004
  -1996867.72547  -1550244.36246  24086845.8204   24086846.1734   24086846.539
        42.0004         37.0004
 15  1  1  0  0 35.0000000  0  7G02G29G24G25G12G06G14
 -19842884.43249 -15452675.75848  21241577.9594   21241577.7234   21241579.051
        54.0004         49.0004
 -18631796.50948 -14456871.00447  22096138.0174   22096139.4994   22096138.273
        51.0004         46.0004
 -12730631.80348  -9864414.36647  22334553.0824   22334555.8234   22334552.804
        51.0004         46.0004
 -23727229.91649 -18445986.82648  20931944.2674   20931947.8954   20931944.349
        54.0004         49.0004
 -25380295.53349 -19717509.24848  20324711.9034   20324712.9574   20324711.867
        56.0004         52.0004
  -9629022.96648  -7453834.82647  22936324.2954   22936327.5484   22936322.720
        48.0004         44.0004
  -1995402.28647  -1549102.46246  24087124.0804   24087124.7654   24087125.507
        42.0004         37.0004
 15  1  1  0  0 36.0000000  0  7G02G29G24G25G12G06G14
 -19842956.01549 -15452731.53648  21241564.7884   21241563.9454   21241565.407
        54.0004         49.0004
 -18634367.45448 -14458874.34047  22095649.2024   22095649.6264   22095649.104
        51.0004         46.0004
 -12727447.90848  -9861933.41247  22335158.8284   22335161.5124   22335158.749
        51.0004         46.0004
 -23728992.45349 -18447360.23248  20931608.3454   20931612.6974   20931608.941
        54.0004         49.0004
 -25379645.21449 -19717002.50848  20324835.8594   20324836.7454   20324835.655
        56.0004         52.0004
  -9626580.16948  -7451931.34747  22936788.4654   22936792.0894   22936787.442
        48.0004         44.0004
  -1993936.15847  -1547960.02546  24087402.6624   24087403.4944   24087404.464
        42.0004         38.0004
 15  1  1  0  0 37.0000000  0  7G02G29G24G25G12G06G14
 -19843027.12649 -15452786.94948  21241551.3434   21241550.6164   21241551.877
        54.0004         49.0004
 -18636938.21348 -14460877.52747  22095159.5184   22095160.8464   22095160.044
        51.0004         46.0004
 -12724263.79348  -9859452.27847  22335764.1334   22335767.2684   22335764.640
        51.0004         46.0004
 -23730754.77549 -18448733.47048  20931273.4554   20931277.2714   20931273.553
        54.0004         49.0004
 -25378994.60949 -19716495.54448  20324959.5604   20324960.3964   20324959.496
        56.0004         52.0004
  -9624136.99448  -7450027.57447  22937251.9094   22937256.6254   22937252.257
        49.0004         44.0004
  -1992469.68347  -1546817.32246  24087681.3814   24087682.3294   24087683.470
        42.0004         38.0004
 15  1  1  0  0 38.0000000  0  7G02G29G24G25G12G06G14
 -19843097.56349 -15452841.83348  21241537.6664   21241536.8644   21241538.518
        54.0004         49.0004
 -18639508.57048 -14462880.40047  22094671.0294   22094671.9344   22094671.009
        51.0004         46.0004
 -12721079.26348  -9856970.82447  22336370.8944   22336373.0404   22336370.617
        51.0004         46.0004
 -23732516.69449 -18450106.39348  20930937.7434   20930942.1894   20930938.251
        54.0004         49.0004
 -25378343.50349 -19715988.18748  20325083.5904   20325084.4824   20325083.363
        56.0004         52.0004
  -9621693.25748  -7448123.35947  22937717.9074   22937722.4114   22937717.113
        49.0004         44.0004
  -1991002.63347  -1545674.16546  24087961.1734   24087961.8634   24087962.717
        42.0004         38.0004
 15  1  1  0  0 39.0000000  0  7G02G29G24G25G12G06G14
 -19843167.30049 -15452896.17348  21241524.6154   21241523.6054   21241525.294
        54.0004         49.0004
 -18642078.52548 -14464882.96047  22094181.9534   22094182.8714   22094181.948
        51.0004         46.0004
 -12717894.28548  -9854489.02647  22336977.0614   22336980.0674   22336976.776
        51.0004         46.0004
 -23734278.17349 -18451478.97348  20930602.7804   20930606.7744   20930603.002
        54.0004         49.0004
 -25377691.88449 -19715480.43448  20325207.6794   20325208.3304   20325207.393
        56.0004         52.0004
  -9619248.91748  -7446218.68347  22938184.0024   22938186.4684   22938182.295
        49.0004         44.0004
  -1989535.01147  -1544530.56246  24088241.2864   24088241.4924   24088242.107
        42.0004         38.0004
 15  1  1  0  0 40.0000000  0  7G02G29G24G25G12G06G14
 -19843236.60749 -15452950.17848  21241511.2524   21241510.8714   21241512.183
        54.0004         49.0004
 -18644648.32548 -14466885.40747  22093692.7574   22093693.6464   22093692.924
        51.0004         46.0004
 -12714709.11148  -9852007.07147  22337582.7364   22337585.6494   22337582.831
        51.0004         46.0004
 -23736039.49049 -18452851.42848  20930267.5454   20930272.0984   20930267.800
        54.0004         49.0004
 -25377040.01149 -19714972.48048  20325331.8654   20325332.5504   20325331.504
        56.0004         52.0004
  -9616804.25948  -7444313.75547  22938648.1094   22938651.4694   22938647.521
        49.0004         44.0004
  -1988067.06347  -1543386.70746  24088519.8734   24088520.4194   24088521.414
        42.0004         38.0004
 15  1  1  0  0 41.0000000  0  7G02G29G24G25G12G06G14
 -19843305.14549 -15453003.58448  21241498.3364   21241497.6924   21241499.169
        54.0004         49.0004
 -18647217.63648 -14468887.46647  22093203.8494   22093204.6154   22093204.009
        51.0004         46.0004
 -12711523.40948  -9849524.69847  22338189.3924   22338191.6804   22338188.951
        51.0004         46.0004
 -23737800.29549 -18454223.48548  20929932.4814   20929936.7624   20929932.685
        54.0004         49.0004
 -25376387.55049 -19714464.06948  20325455.6614   20325456.5264   20325455.736
        56.0004         52.0004
  -9614358.93848  -7442408.31147  22939113.8184   22939117.3224   22939112.784
        49.0004         44.0004
  -1986598.47247  -1542242.34846  24088798.2584   24088799.3724   24088800.626
        42.0004         38.0004
 15  1  1  0  0 42.0000000  0  7G02G29G24G25G12G06G14
 -19843372.93449 -15453056.40948  21241485.4224   21241484.5674   21241486.318
        54.0004         49.0004
 -18649786.48648 -14470889.17047  22092714.8874   22092715.9554   22092715.161
        51.0004         46.0004
 -12708337.19048  -9847041.93347  22338795.0914   22338797.7654   22338795.215
        51.0004         46.0004
 -23739560.62449 -18455595.16748  20929597.3974   20929601.7094   20929597.633
        54.0004         49.0004
 -25375734.51249 -19713955.20948  20325580.0714   20325580.9454   20325580.099
        56.0004         52.0004
  -9611912.97648  -7440502.36247  22939578.8854   22939583.3124   22939578.277
        49.0004         44.0004
  -1985129.23347  -1541097.48646  24089077.7694   24089079.4764   24089080.144
        42.0004         38.0004
 15  1  1  0  0 43.0000000  0  7G02G29G24G25G12G06G14
 -19843440.08549 -15453108.73348  21241472.7324   21241471.8014   21241473.608
        54.0004         49.0004
 -18652354.96448 -14472890.58147  22092226.3554   22092226.7324   22092226.440
        51.0004         46.0004
 -12705150.59048  -9844558.86547  22339402.3614   22339404.5244   22339401.544
        51.0004         46.0004
 -23741320.57849 -18456966.56348  20929262.9374   20929266.8124   20929262.732
        54.0004         49.0004
 -25375081.02149 -19713445.99748  20325704.7164   20325705.1194   20325704.469
        56.0004         52.0004
  -9609466.48548  -7438596.01047  22940045.1924   22940048.9674   22940043.913
        49.0004         44.0004
  -1983659.45547  -1539952.20446  24089357.5304   24089359.2234   24089359.667
        42.0004         38.0004
 15  1  1  0  0 44.0000000  0  7G02G29G24G25G12G06G14
 -19843506.76749 -15453160.69148  21241460.0814   21241459.3934   21241460.971
        54.0004         49.0004
 -18654923.26948 -14474891.85947  22091737.3414   22091738.2374   22091737.707
        51.0004         46.0004
 -12701963.76848  -9842075.63047  22340008.0614   22340011.0494   22340007.959
        51.0004         46.0004
 -23743080.32549 -18458337.79648  20928927.6914   20928931.9524   20928927.869
        54.0004         49.0004
 -25374427.24249 -19712936.55948  20325828.9474   20325829.6874   20325828.935
        56.0004         52.0004
  -9607019.61548  -7436689.35647  22940509.7724   22940514.4514   22940509.568
        49.0004         44.0004
  -1982189.32847  -1538806.64746  24089637.3184   24089639.7034   24089639.015
        42.0004         38.0004
 15  1  1  0  0 45.0000000  0  7G02G29G24G25G12G06G14
 -19843572.79049 -15453212.13648  21241447.2894   21241446.6044   21241448.358
        54.0004         49.0004
 -18657491.19148 -14476892.83547  22091249.4924   22091249.9704   22091249.082
        51.0004         46.0004
 -12698776.54848  -9839592.08047  22340614.3424   22340617.2774   22340614.382
        51.0004         46.0004
 -23744839.68149 -18459708.72048  20928592.9764   20928597.2654   20928593.048
        54.0004         49.0004
 -25373772.98049 -19712426.74548  20325953.6454   20325954.1084   20325953.489
        56.0004         52.0004
  -9604572.21948  -7434782.29147  22940976.2564   22940979.8174   22940975.151
        49.0004         44.0004
  -1980718.65147  -1537660.66346  24089917.6224   24089919.4744   24089918.972
        42.0004         38.0004
 15  1  1  0  0 46.0000000  0  7G02G29G24G25G12G06G14
 -19843638.59349 -15453263.41148  21241435.0354   21241434.3914   21241435.860
        54.0004         49.0004
 -18660059.18448 -14478893.87047  22090759.8084   22090761.3004   22090760.376
        51.0004         46.0004
 -12695589.34748  -9837108.54647  22341220.3694   22341223.8794   22341220.882
        51.0004         46.0004
 -23746599.08349 -18461079.68548  20928258.0114   20928262.3874   20928258.257
        54.0004         49.0004
 -25373118.68849 -19711916.90748  20326077.9324   20326078.6944   20326078.028
        56.0004         52.0004
  -9602124.69648  -7432875.13547  22941441.6264   22941445.8204   22941440.860
        49.0004         44.0004
  -1979247.88147  -1536514.60946  24090197.8764   24090199.8044   24090198.580
        42.0004         38.0004
 15  1  1  0  0 47.0000000  0  7G02G29G24G25G12G06G14
 -19843704.11449 -15453314.46448  21241422.4794   21241421.6164   21241423.318
        54.0004         49.0004
 -18662627.17648 -14480894.90347  22090271.1344   22090272.6824   22090271.622
        51.0004         46.0004
 -12692402.12948  -9834624.99847  22341827.6834   22341830.2724   22341827.282
        51.0004         46.0004
 -23748358.45949 -18462450.62748  20927923.4234   20927927.6194   20927923.519
        54.0004         49.0004
 -25372464.28949 -19711406.98648  20326202.6524   20326203.0794   20326202.649
        56.0004         52.0004
  -9599676.99548  -7430967.83647  22941907.8234   22941910.8644   22941906.683
        49.0004         44.0004
  -1977776.91747  -1535368.40346  24090478.2474   24090479.0334   24090478.462
        42.0004         38.0004
 15  1  1  0  0 48.0000000  0  7G02G29G24G25G12G06G14
 -19843768.77949 -15453364.85148  21241410.2344   21241409.5564   21241410.977
        54.0004         49.0004
 -18665194.58848 -14482895.47847  22089782.3894   22089783.4224   22089782.985
        51.0004         46.0004
 -12689214.30048  -9832140.97247  22342434.0354   22342437.5604   22342433.833
        51.0004         46.0004
 -23750117.23349 -18463821.09748  20927588.9174   20927592.8684   20927588.858
        54.0004         49.0004
 -25371809.21449 -19710896.53748  20326327.3824   20326327.8384   20326327.329
        56.0004         52.0004
  -9597228.54948  -7429059.95047  22942373.3574   22942377.1894   22942372.641
        49.0004         44.0004
  -1976305.21847  -1534221.62546  24090758.3814   24090758.3484   24090758.228
        42.0004         38.0004
 15  1  1  0  0 49.0000000  0  7G02G29G24G25G12G06G14
 -19843832.62649 -15453414.60348  21241397.8894   21241397.2564   21241398.811
        54.0004         49.0004
 -18667761.47748 -14484895.65347  22089294.0394   22089295.1644   22089294.460
        51.0004         46.0004
 -12686025.91348  -9829656.51147  22343040.7474   22343043.7614   22343040.488
        51.0004         46.0004
 -23751875.46849 -18465191.15148  20927253.9754   20927258.3274   20927254.240
        54.0004         49.0004
 -25371153.51049 -19710385.60148  20326451.8734   20326452.6864   20326452.199
        56.0004         52.0004
  -9594779.39148  -7427151.51347  22942839.5964   22942842.8314   22942838.828
        49.0004         44.0004
  -1974832.81547  -1533074.29646  24091038.5434   24091038.2324   24091038.246
        42.0004         38.0004
 15  1  1  0  0 50.0000000  0  7G02G29G24G25G12G06G14
 -19843895.92549 -15453463.92748  21241386.0544   21241385.0664   21241386.712
        54.0004         49.0004
 -18670328.08948 -14486895.60947  22088806.3594   22088806.8484   22088806.053
        51.0004         46.0004
 -12682837.22048  -9827171.81847  22343647.9024   22343650.5594   22343647.192
        51.0004         46.0004
 -23753633.40249 -18466560.97248  20926919.7904   20926923.8614   20926919.780
        54.0004         49.0004
 -25370497.42849 -19709874.36948  20326576.8364   20326577.4224   20326577.083
        56.0004         52.0004
  -9592329.79048  -7425242.73847  22943305.8154   22943309.7964   22943304.929
        49.0004         44.0004
  -1973359.95947  -1531926.61846  24091318.9914   24091319.2004   24091318.725
        42.0004         38.0004
 15  1  1  0  0 51.0000000  0  7G02G29G24G25G12G06G14
 -19843958.67749 -15453512.82448  21241373.8554   21241373.0004   21241374.750
        54.0004         49.0004
 -18672894.43948 -14488895.36547  22088317.1794   22088318.4894   22088317.730
        51.0004         46.0004
 -12679648.23848  -9824686.89647  22344254.4364   22344257.5104   22344253.988
        51.0004         46.0004
 -23755391.07149 -18467930.58548  20926585.5114   20926589.3664   20926585.316
        54.0004         49.0004
 -25369840.98949 -19709362.85848  20326701.8574   20326702.2864   20326702.050
        56.0004         52.0004
  -9589879.75448  -7423333.62347  22943772.0034   22943775.9024   22943771.180
        49.0004         44.0004
  -1971886.69447  -1530778.62146  24091600.0134   24091600.7154   24091599.243
        42.0004         38.0004
 15  1  1  0  0 52.0000000  0  7G02G29G24G25G12G06G14
 -19844020.87449 -15453561.28848  21241362.4424   21241361.4334   21241362.915
        54.0004         49.0004
 -18675460.51948 -14490894.91047  22087829.4614   22087830.1114   22087829.378
        51.0004         46.0004
 -12676458.95348  -9822201.73647  22344862.2934   22344864.8914   22344860.876
        51.0004         46.0004
 -23757148.43549 -18469299.95948  20926250.7774   20926255.0714   20926250.926
        54.0004         49.0004
 -25369184.17049 -19708851.05348  20326826.8894   20326827.1184   20326827.065
        56.0004         52.0004
  -9587429.25248  -7421424.14047  22944238.1244   22944242.1184   22944237.460
        49.0004         44.0004
  -1970412.96447  -1529630.26146  24091880.2074   24091881.2034   24091879.446
        42.0004         38.0004
 15  1  1  0  0 53.0000000  0  7G02G29G24G25G12G06G14
 -19844082.67849 -15453609.44748  21241350.6774   21241349.8524   21241351.158
        54.0004         49.0004
 -18678026.48248 -14492894.36247  22087341.5194   22087342.6744   22087341.097
        51.0004         46.0004
 -12673269.54448  -9819716.48147  22345467.9894   22345471.4394   22345467.719
        51.0004         46.0004
 -23758905.67049 -18470669.23448  20925916.5534   20925920.4794   20925916.584
        54.0004         49.0004
 -25368527.13349 -19708339.07648  20326951.8894   20326952.5064   20326952.121
        56.0004         52.0004
  -9584978.49348  -7419514.45647  22944704.5304   22944707.9484   22944703.848
        49.0004         44.0004
  -1968938.95447  -1528481.68546  24092160.5824   24092161.7264   24092160.074
        42.0004         38.0004
 15  1  1  0  0 54.0000000  0  7G02G29G24G25G12G06G14
 -19844144.04449 -15453657.26348  21241338.5944   21241337.7754   21241339.417
        54.0004         49.0004
 -18680592.28048 -14494893.68447  22086852.9024   22086853.5024   22086852.805
        51.0004         46.0004
 -12670079.95048  -9817231.08047  22346075.4224   22346078.7204   22346074.600
        51.0004         46.0004
 -23760662.72449 -18472038.36848  20925582.3244   20925586.0504   20925582.338
        54.0004         49.0004
 -25367869.83549 -19707826.89548  20327077.0434   20327077.3194   20327077.191
        56.0004         52.0004
  -9582527.38148  -7417604.49647  22945170.1464   22945174.6374   22945170.265
        49.0004         44.0004
  -1967464.62747  -1527332.86146  24092441.6004   24092441.7584   24092440.895
        42.0004         38.0004
 15  1  1  0  0 55.0000000  0  7G02G29G24G25G12G06G14
 -19844204.55149 -15453704.41148  21241327.5254   21241326.3624   21241327.913
        54.0004         49.0004
 -18683157.50448 -14496892.55547  22086364.5114   22086365.5694   22086364.724
        51.0004         46.0004
 -12666889.74048  -9814745.20147  22346681.9884   22346685.5944   22346681.738
        51.0004         46.0004
 -23762419.19149 -18473407.04348  20925247.9394   20925251.4704   20925248.178
        54.0004         49.0004
 -25367211.86949 -19707314.19548  20327202.0884   20327202.6804   20327202.408
        56.0004         52.0004
  -9580075.53848  -7415693.97247  22945637.6664   22945641.3164   22945636.866
        49.0004         44.0004
  -1965989.55247  -1526183.45146  24092722.5264   24092722.8144   24092721.864
        42.0004         38.0004
 15  1  1  0  0 56.0000000  0  7G02G29G24G25G12G06G14
 -19844264.32849 -15453750.99148  21241315.7824   21241314.9134   21241316.588
        54.0004         49.0004
 -18685722.28848 -14498891.09347  22085876.8454   22085877.3004   22085876.728
        51.0004         46.0004
 -12663699.03248  -9812258.93447  22347289.2684   22347292.9464   22347288.870
        51.0004         46.0004
 -23764175.19949 -18474775.36248  20924913.9944   20924917.5414   20924914.107
        54.0004         49.0004
 -25366553.34449 -19706801.05948  20327327.6814   20327327.9714   20327327.703
        56.0004         52.0004
  -9577623.05748  -7413782.95047  22946103.9204   22946108.0354   22946103.567
        49.0004         44.0004
  -1964513.85847  -1525033.56146  24093003.5084   24093003.6264   24093002.785
        42.0004         38.0004
 15  1  1  0  0 57.0000000  0  7G02G29G24G25G12G06G14
 -19844323.46549 -15453797.07348  21241304.5814   21241304.0134   21241305.320
        54.0004         49.0004
 -18688286.69148 -14500889.32747  22085388.0744   22085389.6514   22085388.774
        51.0004         46.0004
 -12660507.92248  -9809772.35947  22347896.5164   22347900.7124   22347896.176
        51.0004         46.0004
 -23765930.81449 -18476143.37348  20924579.5724   20924583.6304   20924580.151
        54.0004         49.0004
 -25365894.35249 -19706287.55948  20327452.7874   20327453.2194   20327453.089
        56.0004         52.0004
  -9575170.04948  -7411871.51047  22946570.4124   22946574.3044   22946570.226
        49.0004         44.0004
  -1963037.63747  -1523883.25846  24093284.5354   24093284.2084   24093283.576
        42.0004         38.0004
 15  1  1  0  0 58.0000000  0  7G02G29G24G25G12G06G14
 -19844382.09149 -15453842.75448  21241293.4544   21241292.2134   21241294.198
        54.0004         49.0004
 -18690850.87148 -14502887.39347  22084900.8214   22084901.7094   22084900.919
        51.0004         46.0004
 -12657316.55848  -9807285.58447  22348504.3594   22348507.3104   22348503.468
        51.0004         46.0004
 -23767686.19049 -18477511.19848  20924245.5964   20924249.7484   20924246.210
        54.0004         49.0004
 -25365235.03249 -19705773.80548  20327578.4324   20327578.7974   20327578.604
        56.0004         52.0004
  -9572716.61448  -7409959.74447  22947036.9874   22947041.7084   22947037.087
        49.0004         44.0004
  -1961561.01747  -1522732.64746  24093565.1304   24093563.8964   24093564.780
        42.0004         38.0004
 15  1  1  0  0 59.0000000  0  7G02G29G24G25G12G06G14
 -19844439.95549 -15453887.84148  21241282.5244   21241281.6684   21241283.221
        54.0004         49.0004
 -18693414.55748 -14504885.07347  22084412.9064   22084414.1154   22084413.097
        51.0004         46.0004
 -12654124.66948  -9804798.39847  22349111.3024   22349115.0334   22349110.918
        51.0004         46.0004
 -23769441.06249 -18478878.63148  20923911.7574   20923915.5684   20923912.339
        54.0004         49.0004
 -25364575.12349 -19705259.58848  20327703.8974   20327704.3084   20327704.193
        56.0004         52.0004
  -9570262.54248  -7408047.48347  22947505.1034   22947508.5254   22947503.998
        49.0004         44.0004
  -1960083.74447  -1521581.52946  24093845.9214   24093844.8474   24093845.967
        42.0004         38.0004
 15  1  1  0  1  0.0000000  0  7G02G29G24G25G12G06G14
 -19844497.47949 -15453932.66548  21241271.6914   21241270.7614   21241272.344
        54.0004         49.0004
 -18695978.18948 -14506882.70247  22083925.4544   22083926.2684   22083925.306
        51.0004         46.0004
 -12650932.73448  -9802311.17347  22349719.1924   22349721.9644   22349718.291
        51.0004         46.0004
 -23771195.86249 -18480246.00848  20923577.6044   20923581.3174   20923578.506
        54.0004         49.0004
 -25363915.05949 -19704745.25448  20327829.5834   20327830.0674   20327829.780
        56.0004         52.0004
  -9567808.24248  -7406135.04647  22947971.3494   22947975.0834   22947970.962
        49.0004         44.0004
  -1958606.23147  -1520430.22246  24094126.4344   24094125.4044   24094126.938
        42.0004         38.0004
 15  1  1  0  1  1.0000000  0  7G02G29G24G25G12G06G14
 -19844554.72849 -15453977.27548  21241260.5084   21241259.7854   21241261.428
        54.0004         49.0004
 -18698541.81648 -14508880.33547  22083437.3254   22083437.9514   22083437.488
        51.0004         46.0004
 -12647740.76048  -9799823.91947  22350326.1594   22350330.6454   22350325.766
        51.0004         46.0004
 -23772950.64849 -18481613.37448  20923243.7714   20923247.6844   20923244.640
        54.0004         49.0004
 -25363254.89749 -19704230.84248  20327955.1994   20327955.5694   20327955.380
        56.0004         52.0004
  -9565353.77548  -7404222.46847  22948438.6544   22948443.0574   22948437.974
        49.0004         44.0004
  -1957128.57147  -1519278.80146  24094407.7274   24094406.5824   24094408.142
        42.0004         38.0004
 15  1  1  0  1  2.0000000  0  7G02G29G24G25G12G06G14
 -19844611.08549 -15454021.18948  21241249.9334   21241249.1894   21241250.702
        54.0004         49.0004
 -18701104.84148 -14510877.49747  22082949.5424   22082950.1274   22082949.687
        51.0004         46.0004
 -12644548.15448  -9797336.17347  22350934.1944   22350936.9344   22350933.276
        51.0004         46.0004
 -23774704.80449 -18482980.24748  20922910.1924   20922913.7514   20922910.920
        54.0004         49.0004
 -25362594.03849 -19703715.88848  20328080.9294   20328081.4184   20328081.107
        56.0004         52.0004
  -9562898.51848  -7402309.28047  22948906.0314   22948910.2864   22948905.267
        49.0004         44.0004
  -1955650.12947  -1518126.76546  24094688.9714   24094688.7394   24094689.528
        42.0004         38.0004
 15  1  1  0  1  3.0000000  0  7G02G29G24G25G12G06G14
 -19844666.69749 -15454064.52248  21241239.5284   21241238.5484   21241240.164
        54.0004         49.0004
 -18703667.38948 -14512874.28747  22082461.6704   22082463.0934   22082462.035
        51.0004         46.0004
 -12641355.05948  -9794848.04847  22351541.2074   22351545.1414   22351540.951
        51.0004         46.0004
 -23776458.47149 -18484346.73948  20922576.1894   20922580.0944   20922577.245
        54.0004         49.0004
 -25361932.60249 -19703200.48248  20328206.6534   20328207.1544   20328206.911
        56.0004         52.0004
  -9560442.63748  -7400395.60647  22949373.2964   22949376.8134   22949372.621
        49.0004         44.0004
  -1954171.06247  -1516974.24546  24094970.0684   24094970.1534   24094971.241
        42.0004         38.0004
 15  1  1  0  1  4.0000000  0  7G02G29G24G25G12G06G14
 -19844721.43149 -15454107.17348  21241228.9874   21241228.0294   21241229.709
        54.0004         49.0004
 -18706229.35148 -14514870.62247  22081974.7474   22081975.1544   22081974.494
        51.0004         46.0004
 -12638161.32948  -9792359.42847  22352149.3884   22352152.6384   22352148.775
        51.0004         46.0004
 -23778211.53049 -18485712.76148  20922242.8584   20922246.6074   20922243.613
        54.0004         49.0004
 -25361270.47349 -19702684.53948  20328332.8714   20328333.3104   20328332.872
        56.0004         52.0004
  -9557985.97048  -7398481.32747  22949840.5294   22949844.3774   22949840.080
        49.0004         44.0004
  -1952691.20947  -1515821.11246  24095251.8514   24095252.6104   24095253.092
        42.0004         38.0004
 15  1  1  0  1  5.0000000  0  7G02G29G24G25G12G06G14
 -19844776.00149 -15454149.69648  21241218.3844   21241217.7704   21241219.317
        54.0004         49.0004
 -18708791.42248 -14516867.03647  22081486.4514   22081487.5914   22081486.958
        51.0004         47.0004
 -12634967.67648  -9789870.86947  22352757.2304   22352760.8234   22352756.597
        51.0004         46.0004
 -23779964.69049 -18487078.86048  20921909.1714   20921912.8984   20921909.989
        54.0004         49.0004
 -25360608.36349 -19702168.60948  20328458.7354   20328459.2394   20328458.866
        56.0004         52.0004
  -9555529.24248  -7396566.99147  22950307.3954   22950311.8284   22950307.598
        49.0004         44.0004
  -1951211.32047  -1514667.95346  24095533.6774   24095535.2884   24095535.296
        42.0004         38.0004
 15  1  1  0  1  6.0000000  0  7G02G29G24G25G12G06G14
 -19844830.17349 -15454191.90948  21241208.2534   21241207.3214   21241208.988
        54.0004         49.0004
 -18711353.37548 -14518863.36847  22080999.5274   22080999.9374   22080999.328
        51.0004         46.0004
 -12631773.89848  -9787382.21047  22353365.0304   22353367.7504   22353364.385
        51.0004         46.0004
 -23781717.70049 -18488444.84348  20921575.4524   20921579.2444   20921576.361
        54.0004         49.0004
 -25359946.05849 -19701652.52848  20328584.7674   20328585.4044   20328584.912
        56.0004         52.0004
  -9553072.23148  -7394652.43647  22950776.3764   22950779.4204   22950775.169
        49.0004         44.0004
  -1949731.13547  -1513514.56646  24095815.1424   24095815.7514   24095817.147
        42.0004         38.0004
 15  1  1  0  1  7.0000000  0  7G02G29G24G25G12G06G14
 -19844883.81949 -15454233.70848  21241198.2484   21241197.3474   21241198.736
        54.0004         49.0004
 -18713915.08348 -14520859.50647  22080511.5644   22080512.2234   22080511.864
        51.0004         46.0004
 -12628579.84348  -9784893.33147  22353971.6404   22353976.3044   22353972.316
        51.0004         46.0004
 -23783470.45549 -18489810.62448  20921241.7534   20921245.7714   20921242.779
        54.0004         49.0004
 -25359283.40849 -19701136.17648  20328711.0134   20328711.3404   20328711.036
        56.0004         52.0004
  -9550614.81748  -7392737.56847  22951242.8094   22951247.5834   22951242.748
        49.0004         44.0004
  -1948250.57247  -1512360.88246  24096096.5664   24096097.5224   24096099.066
        42.0004         38.0004
 15  1  1  0  1  8.0000000  0  7G02G29G24G25G12G06G14
 -19844936.87449 -15454275.05148  21241188.1364   21241187.1094   21241188.635
        54.0004         49.0004
 -18716476.47648 -14522855.39647  22080025.1094   22080025.3904   22080024.396
        51.0004         47.0004
 -12625385.46748  -9782404.20947  22354580.4794   22354584.7744   22354580.292
        51.0004         46.0004
 -23785222.88549 -18491176.15348  20920908.5734   20920912.2144   20920909.219
        54.0004         49.0004
 -25358620.33449 -19700619.49548  20328837.0884   20328837.6864   20328837.217
        56.0004         52.0004
  -9548156.89848  -7390822.30547  22951712.1544   22951715.3164   22951710.456
        49.0004         44.0004
  -1946769.50647  -1511206.80846  24096378.3214   24096378.8524   24096381.038
        42.0004         38.0004
 15  1  1  0  1  9.0000000  0  7G02G29G24G25G12G06G14
 -19844989.28249 -15454315.89048  21241177.8834   21241177.1974   21241178.699
        54.0004         49.0004
 -18719037.50548 -14524851.00147  22079536.5954   22079538.2684   22079537.098
        51.0004         47.0004
 -12622190.69848  -9779914.78347  22355188.3814   22355191.8014   22355188.317
        51.0004         46.0004
 -23786974.91849 -18492541.37448  20920574.8684   20920578.9474   20920575.704
        54.0004         49.0004
 -25357956.79849 -19700102.45448  20328963.3764   20328963.9564   20328963.497
        56.0004         52.0004
  -9545698.45748  -7388906.63347  22952178.3804   22952182.7804   22952178.213
        49.0004         44.0004
  -1945287.90447  -1510052.31146  24096660.4244   24096660.7924   24096662.849
        42.0004         38.0004
 15  1  1  0  1 10.0000000  0  7G02G29G24G25G12G06G14
 -19845040.97049 -15454356.16348  21241168.1584   21241167.2014   21241168.902
        54.0004         49.0004
 -18721598.09648 -14526846.26747  22079050.2874   22079050.1974   22079049.773
        51.0004         46.0004
 -12618995.45248  -9777424.97747  22355795.9804   22355800.5384   22355796.420
        51.0004         46.0004
 -23788726.50849 -18493906.24948  20920241.7094   20920245.7194   20920242.311
        54.0004         49.0004
 -25357292.71749 -19699584.98848  20329089.5424   20329090.3044   20329089.861
        56.0004         52.0004
  -9543239.40448  -7386990.49247  22952645.5634   22952651.6574   22952646.168
        49.0004         44.0004
  -1943805.70847  -1508897.35146  24096942.4234   24096942.7354   24096944.763
        42.0004         38.0004
 15  1  1  0  1 11.0000000  0  7G02G29G24G25G12G06G14
 -19845092.06849 -15454395.97848  21241158.3634   21241157.3864   21241159.283
        54.0004         49.0004
 -18724158.37948 -14528841.29147  22078562.3904   22078563.7724   22078562.522
        51.0004         46.0004
 -12615799.88648  -9774934.92947  22356404.2754   22356408.4504   22356404.596
        51.0004         46.0004
 -23790477.76249 -18495270.86348  20919908.4634   20919912.2854   20919908.918
        54.0004         49.0004
 -25356628.22549 -19699067.20248  20329215.9544   20329216.6334   20329216.344
        56.0004         52.0004
  -9540779.86948  -7385073.97147  22953114.2734   22953118.5564   22953114.246
        49.0004         44.0004
  -1942323.01847  -1507742.01046  24097223.5424   24097224.0574   24097226.406
        42.0004         37.0004
 15  1  1  0  1 12.0000000  0  7G02G29G24G25G12G06G14
 -19845142.44249 -15454435.23348  21241149.0994   21241148.0334   21241149.708
        54.0004         49.0004
 -18726718.21648 -14530835.97047  22078075.6704   22078076.4194   22078075.375
        51.0004         46.0004
 -12612603.86148  -9772444.52147  22357012.9874   22357016.4814   22357012.762
        51.0004         46.0004
 -23792228.56949 -18496635.13048  20919575.3904   20919579.3034   20919575.698
        54.0004         49.0004
 -25355963.19749 -19698548.99948  20329342.7814   20329343.3334   20329342.935
        56.0004         52.0004
  -9538319.72748  -7383156.98047  22953583.5274   22953587.4544   22953582.431
        49.0004         44.0004
  -1940839.74147  -1506586.21046  24097505.4454   24097505.3994   24097508.317
        42.0004         37.0004
 15  1  1  0  1 13.0000000  0  7G02G29G24G25G12G06G14
 -19845192.27149 -15454474.05848  21241139.1604   21241138.7214   21241140.312
        54.0004         49.0004
 -18729277.79148 -14532830.44347  22077588.1004   22077589.4404   22077588.254
        51.0004         46.0004
 -12609407.53448  -9769953.87347  22357621.0654   22357624.3004   22357621.097
        51.0004         46.0004
 -23793979.08449 -18497999.16648  20919242.0134   20919246.1404   20919242.483
        54.0004         49.0004
 -25355297.79849 -19698030.50548  20329469.3064   20329469.8614   20329469.578
        56.0004         52.0004
  -9535859.14748  -7381239.64447  22954051.1044   22954055.3254   22954050.755
        49.0004         44.0004
  -1939356.01847  -1505430.06146  24097787.3794   24097788.9864   24097790.045
        42.0004         37.0004
 15  1  1  0  1 14.0000000  0  7G02G29G24G25G12G06G14
 -19845241.49349 -15454512.41548  21241129.7234   21241129.3744   21241131.008
        54.0004         49.0004
 -18731837.03248 -14534824.66047  22077101.8134   22077102.4214   22077101.305
        51.0004         46.0004
 -12606210.83948  -9767462.94147  22358229.3654   22358233.7424   22358229.430
        51.0004         46.0004
 -23795729.25249 -18499362.93648  20918908.7914   20918913.1534   20918909.444
        54.0004         49.0004
 -25354631.96149 -19697511.67348  20329596.0734   20329596.6034   20329596.324
        56.0004         52.0004
  -9533398.06648  -7379321.92247  22954519.6964   22954523.2214   22954519.112
        49.0004         44.0004
  -1937871.80047  -1504273.52846  24098069.7934   24098070.2454   24098071.925
        42.0004         37.0004
 15  1  1  0  1 15.0000000  0  7G02G29G24G25G12G06G14
 -19845290.38649 -15454550.51348  21241120.6554   21241119.9034   21241121.783
        54.0004         49.0004
 -18734396.23148 -14536818.83747  22076614.2704   22076614.7504   22076614.378
        51.0004         46.0004
 -12603014.06948  -9764971.95547  22358837.6524   22358841.8074   22358837.830
        51.0004         46.0004
 -23797479.35749 -18500726.65348  20918576.4254   20918579.8304   20918576.432
        54.0004         49.0004
 -25353965.98749 -19696992.73248  20329722.7164   20329723.2454   20329723.067
        56.0004         52.0004
  -9530936.76748  -7377404.02547  22954988.0574   22954991.4784   22954987.553
        49.0004         44.0004
  -1936387.34147  -1503116.80846  24098352.6344   24098353.3124   24098353.837
        42.0004         37.0004
 15  1  1  0  1 16.0000000  0  7G02G29G24G25G12G06G14
 -19845338.55849 -15454588.04648  21241111.4704   21241110.7894   21241112.689
        54.0004         49.0004
 -18736954.97848 -14538812.66147  22076127.5014   22076128.8334   22076127.466
        51.0004         46.0004
 -12599816.85648  -9762480.61947  22359446.1004   22359450.1644   22359446.211
        51.0004         46.0004
 -23799228.99849 -18502090.00948  20918243.4414   20918247.2244   20918243.447
        54.0004         49.0004
 -25353299.47649 -19696473.37148  20329849.4894   20329850.1964   20329849.922
        56.0004         52.0004
  -9528474.85448  -7375485.65347  22955456.1314   22955461.0654   22955456.030
        49.0004         44.0004
  -1934902.30147  -1501959.63746  24098635.5864   24098636.4384   24098636.190
        42.0004         37.0004
 15  1  1  0  1 17.0000000  0  7G02G29G24G25G12G06G14
 -19845386.34049 -15454625.28048  21241102.5544   21241101.5984   21241103.604
        54.0004         49.0004
 -18739513.62148 -14540806.41247  22075640.4084   22075641.4504   22075640.711
        51.0004         47.0004
 -12596619.50348  -9759989.17747  22360055.0554   22360057.8884   22360054.701
        51.0004         46.0004
 -23800978.52549 -18503453.27848  20917910.2624   20917913.9574   20917910.528
        54.0004         49.0004
 -25352632.75349 -19695953.84948  20329976.5974   20329977.0484   20329976.761
        56.0004         52.0004
  -9526012.65348  -7373567.05547  22955925.3464   22955928.3584   22955924.500
        49.0004         44.0004
  -1933416.98147  -1500802.24746  24098918.6464   24098920.2994   24098918.672
        42.0004         37.0004
 15  1  1  0  1 18.0000000  0  7G02G29G24G25G12G06G14
 -19845433.82549 -15454662.28048  21241093.2544   21241092.6684   21241094.590
        54.0004         49.0004
 -18742072.24648 -14542800.14447  22075154.0774   22075154.0824   22075153.914
        51.0004         46.0004
 -12593422.11248  -9757497.70347  22360662.9064   22360667.2684   22360663.212
        51.0004         46.0004
 -23802728.00549 -18504816.51048  20917577.3334   20917581.5004   20917577.606
        54.0004         49.0004
 -25351965.91349 -19695434.23348  20330103.3224   20330104.0554   20330103.602
        56.0004         52.0004
  -9523550.27948  -7371648.32047  22956393.9084   22956397.7324   22956393.180
        49.0004         44.0004
  -1931931.49647  -1499644.72846  24099202.2884   24099203.5234   24099201.598
        42.0004         37.0004
 15  1  1  0  1 19.0000000  0  7G02G29G24G25G12G06G14
 -19845480.47549 -15454698.63148  21241084.3604   21241083.5684   21241085.718
        54.0004         49.0004
 -18744630.31648 -14544793.44547  22074667.0704   22074668.1524   22074667.105
        51.0004         46.0004
 -12590224.13148  -9755005.77047  22361270.8174   22361275.2084   22361271.748
        51.0004         46.0004
 -23804476.92349 -18506179.30448  20917244.3724   20917248.4464   20917244.860
        54.0004         49.0004
 -25351298.41549 -19694914.10548  20330230.5124   20330231.0754   20330230.599
        56.0004         52.0004
  -9521087.17148  -7369729.01547  22956861.7244   22956866.2374   22956861.824
        49.0004         44.0004
  -1930445.26047  -1498486.62346  24099485.3804   24099485.9494   24099484.514
        42.0004         37.0004
 15  1  1  0  1 20.0000000  0  7G02G29G24G25G12G06G14
 -19845526.51849 -15454734.50948  21241075.9804   21241074.9244   21241076.899
        54.0004         49.0004
 -18747188.04948 -14546786.48447  22074180.7754   22074181.3344   22074180.458
        51.0004         46.0004
 -12587025.79648  -9752513.56347  22361879.8544   22361884.4744   22361880.379
        51.0004         46.0004
 -23806225.47749 -18507541.81548  20916911.6404   20916915.9624   20916912.121
        54.0004         49.0004
 -25350630.48849 -19694393.64248  20330357.2874   20330358.0924   20330357.682
        56.0004         52.0004
  -9518623.56348  -7367809.32347  22957331.2054   22957335.3074   22957330.422
        49.0004         44.0004
  -1928958.55147  -1497328.15146  24099768.2134   24099768.3814   24099767.552
        42.0004         37.0004
 15  1  1  0  1 21.0000000  0  7G02G29G24G25G12G06G14
 -19845571.92849 -15454769.89348  21241067.0924   21241066.4374   21241068.227
        54.0004         49.0004
 -18749745.44548 -14548779.25847  22073693.4084   22073694.5884   22073693.887
        51.0004         46.0004
 -12583827.07748  -9750021.05347  22362488.9394   22362492.6414   22362489.069
        51.0004         46.0004
 -23807973.67449 -18508904.04748  20916579.0924   20916582.8984   20916579.486
        54.0004         49.0004
 -25349962.10849 -19693872.82648  20330484.6674   20330485.3644   20330484.848
        56.0004         52.0004
  -9516159.43748  -7365889.22647  22957799.4904   22957803.3634   22957799.292
        49.0004         44.0004
  -1927471.33147  -1496169.28046  24100051.6824   24100051.9334   24100050.535
        42.0004         37.0004
 15  1  1  0  1 22.0000000  0  7G02G29G24G25G12G06G14
 -19845616.99849 -15454805.01148  21241058.5774   21241057.6974   21241059.603
        54.0004         49.0004
 -18752302.76348 -14550771.97547  22073207.3014   22073207.1304   22073207.284
        51.0004         46.0004
 -12580628.26248  -9747528.47147  22363097.2084   22363101.3904   22363097.817
        51.0004         46.0004
 -23809721.78049 -18510266.20948  20916246.5254   20916250.2784   20916246.838
        54.0004         49.0004
 -25349293.56449 -19693351.88348  20330611.8564   20330612.5714   20330612.018
        56.0004         52.0004
  -9513695.06148  -7363968.93347  22958269.0934   22958273.2294   22958268.232
        49.0004         44.0004
  -1925983.86447  -1495010.21446  24100334.7334   24100334.7194   24100333.683
        42.0004         37.0004
 15  1  1  0  1 23.0000000  0  7G02G29G24G25G12G06G14
 -19845661.46349 -15454839.66048  21241050.2114   21241049.5924   21241051.051
        54.0004         49.0004
 -18754859.76948 -14552764.44347  22072720.1124   22072721.1944   22072720.759
        51.0004         47.0004
 -12577429.12248  -9745035.63547  22363706.2994   22363710.1674   22363706.614
        51.0004         46.0004
 -23811469.55349 -18511628.10948  20915913.7474   20915917.6574   20915914.259
        54.0004         50.0004
 -25348624.60449 -19692830.61648  20330739.1044   20330739.7864   20330739.312
        56.0004         52.0004
  -9511230.20848  -7362048.26747  22958737.8854   22958741.7704   22958737.383
        49.0004         44.0004
  -1924495.91447  -1493850.77446  24100616.6404   24100617.2394   24100616.742
        42.0004         37.0004
 15  1  1  0  1 24.0000000  0  7G02G29G24G25G12G06G14
 -19845705.07649 -15454873.64348  21241041.8424   21241040.9414   21241042.674
        54.0004         49.0004
 -18757416.20448 -14554756.47147  22072233.7774   22072234.4724   22072234.432
        51.0004         46.0004
 -12574229.39048  -9742542.33847  22364315.3124   22364319.5884   22364315.596
        51.0004         46.0004
 -23813216.73249 -18512989.54648  20915581.5474   20915585.3984   20915581.817
        54.0004         49.0004
 -25347954.97449 -19692308.82548  20330866.4784   20330867.4684   20330866.672
        56.0004         52.0004
  -9508764.61648  -7360127.02247  22959206.6654   22959211.7944   22959206.632
        49.0004         44.0004
  -1923007.25147  -1492690.77546  24100899.5794   24100900.7724   24100899.715
        42.0004         37.0004
 15  1  1  0  1 25.0000000  0  7G02G29G24G25G12G06G14
 -19845747.96849 -15454907.06648  21241033.5864   21241033.0884   21241034.458
        54.0004         49.0004
 -18759972.19448 -14556748.15447  22071747.4514   22071748.7864   22071748.145
        51.0004         46.0004
 -12571029.17648  -9740048.66547  22364923.6424   22364928.4904   22364924.618
        51.0004         46.0004
 -23814963.44749 -18514350.62448  20915249.0754   20915253.1674   20915249.426
        54.0004         50.0004
 -25347284.79549 -19691786.60948  20330994.0014   20330994.7514   20330994.133
        56.0004         52.0004
  -9506298.40248  -7358205.30247  22959676.2944   22959679.4534   22959675.918
        49.0004         44.0004
  -1921517.94947  -1491530.28246  24101182.7964   24101183.6064   24101182.847
        42.0004         37.0004
 15  1  1  0  1 26.0000000  0  7G02G29G24G25G12G06G14
 -19845790.42549 -15454940.15048  21241025.6634   21241024.7614   21241026.325
        54.0004         49.0004
 -18762528.02248 -14558739.70547  22071261.1224   22071261.4044   22071261.749
        51.0004         46.0004
 -12567828.76648  -9737554.83947  22365532.5974   22365536.3144   22365533.610
        51.0004         46.0004
 -23816709.99949 -18515711.57548  20914916.9444   20914920.4804   20914917.070
        54.0004         50.0004
 -25346614.36349 -19691264.19448  20331121.6214   20331122.5404   20331121.652
        56.0004         52.0004
  -9503831.86948  -7356283.32647  22960145.6244   22960149.7344   22960145.244
        49.0004         44.0004
  -1920028.30247  -1490369.52046  24101466.2634   24101466.4734   24101466.065
        42.0004         37.0004
 15  1  1  0  1 27.0000000  0  7G02G29G24G25G12G06G14
 -19845832.34349 -15454972.81348  21241017.6294   21241016.7864   21241018.289
        54.0004         49.0004
 -18765083.59048 -14560731.05647  22070774.6204   22070775.9274   22070775.527
        51.0004         46.0004
 -12564628.06448  -9735060.78747  22366142.0084   22366146.4204   22366142.713
        51.0004         46.0004
 -23818456.26249 -18517072.30048  20914584.3454   20914588.4634   20914584.789
        54.0004         49.0004
 -25345943.56849 -19690741.49748  20331249.2514   20331249.9674   20331249.267
        56.0004         52.0004
  -9501364.90848  -7354361.01747  22960615.9704   22960619.1064   22960614.763
        49.0004         44.0004
  -1918538.27347  -1489208.45946  24101750.0344   24101751.0744   24101749.470
        42.0004         37.0004
 15  1  1  0  1 28.0000000  0  7G02G29G24G25G12G06G14
 -19845874.01449 -15455005.28248  21241009.9804   21241009.2014   21241010.405
        54.0004         49.0004
 -18767639.19548 -14562722.43547  22070288.5954   22070289.1934   22070289.307
        51.0004         46.0004
 -12561427.36948  -9732566.74147  22366750.9294   22366755.0834   22366751.775
        51.0004         46.0004
 -23820202.54249 -18518433.03648  20914252.1624   20914255.8784   20914252.433
        54.0004         50.0004
 -25345272.70249 -19690218.74348  20331376.9414   20331377.7274   20331376.884
        56.0004         52.0004
  -9498897.81648  -7352438.60947  22961084.0904   22961087.8954   22961084.238
        49.0004         44.0004
  -1917048.09947  -1488047.28246  24102033.5404   24102034.0034   24102033.167
        42.0004         37.0004
 15  1  1  0  1 29.0000000  0  7G02G29G24G25G12G06G14
 -19845915.07549 -15455037.27748  21241001.8304   21241000.8894   21241002.552
        54.0004         49.0004
 -18770194.46748 -14564713.55047  22069801.9144   22069803.0264   22069803.168
        51.0004         46.0004
 -12558226.32948  -9730072.42347  22367360.3674   22367364.5654   22367360.877
        51.0004         46.0004
 -23821948.46549 -18519793.49548  20913919.8494   20913923.7624   20913920.203
        54.0004         50.0004
 -25344601.40949 -19689695.65848  20331504.7584   20331505.4674   20331504.588
        56.0004         52.0004
  -9496430.21248  -7350515.80147  22961554.6554   22961559.0774   22961553.756
        49.0004         44.0004
  -1915557.43147  -1486885.72346  24102317.7154   24102317.7294   24102316.983
        42.0004         37.0004
 15  1  1  0  1 30.0000000  0  7G02G29G24G25G12G06G14
 -19845955.39049 -15455068.69148  21240994.3304   21240993.5644   21240994.905
        54.0004         49.0004
 -18772749.26948 -14566704.30647  22069316.6774   22069316.8794   22069317.025
        51.0004         46.0004
 -12555024.81348  -9727577.73847  22367969.2224   22367973.1924   22367970.210
        51.0004         46.0004
 -23823693.91349 -18521153.58748  20913588.1604   20913591.7074   20913588.028
        54.0004         50.0004
 -25343929.54749 -19689172.12848  20331632.5224   20331633.3844   20331632.400
        56.0004         52.0004
  -9493961.99248  -7348592.51247  22962024.2754   22962027.3114   22962023.456
        49.0004         44.0004
  -1914066.11647  -1485723.66046  24102601.8004   24102601.3034   24102600.849
        42.0004         37.0004
 15  1  1  0  1 31.0000000  0  7G02G29G24G25G12G06G14
 -19845994.70649 -15455099.32748  21240986.9334   21240986.2504   21240987.436
        54.0004         49.0004
 -18775303.34748 -14568694.49847  22068830.1104   22068830.8454   22068830.993
        51.0004         46.0004
 -12551822.54448  -9725082.46347  22368579.3004   22368582.4534   22368579.622
        51.0004         46.0004
 -23825438.61649 -18522513.09748  20913255.8814   20913259.7334   20913255.995
        54.0004         50.0004
 -25343256.86749 -19688647.96448  20331760.6334   20331761.3294   20331760.383
        56.0004         52.0004
  -9491492.86348  -7346668.51647  22962493.5014   22962498.1174   22962493.231
        49.0004         44.0004
  -1912573.94747  -1484560.93246  24102885.9504   24102885.8424   24102885.241
        42.0004         37.0004
 15  1  1  0  1 32.0000000  0  7G02G29G24G25G12G06G14
 -19846033.42249 -15455129.49648  21240979.2754   21240978.4984   21240980.076
        54.0004         49.0004
 -18777857.11648 -14570684.44547  22068343.6794   22068344.9714   22068345.028
        51.0004         46.0004
 -12548619.90948  -9722586.90247  22369187.9724   22369192.8604   22369189.016
        51.0004         46.0004
 -23827182.98249 -18523872.34248  20912923.6584   20912927.8924   20912924.043
        54.0004         50.0004
 -25342583.77249 -19688123.47448  20331888.5224   20331889.4434   20331888.470
        56.0004         52.0004
  -9489023.25248  -7344744.14247  22962963.4634   22962969.0884   22962963.263
        49.0004         44.0004
  -1911081.28147  -1483397.81646  24103169.8884   24103170.0504   24103169.659
        42.0004         37.0004
 15  1  1  0  1 33.0000000  0  7G02G29G24G25G12G06G14
 -19846071.31649 -15455159.02348  21240972.3284   21240971.2574   21240972.921
        54.0004         49.0004
 -18780410.32848 -14572673.96047  22067858.4444   22067858.3394   22067859.148
        51.0004         47.0004
 -12545416.72348  -9720090.91447  22369798.1024   22369802.1394   22369798.534
        51.0004         46.0004
 -23828926.78849 -18525231.15248  20912592.1084   20912595.8454   20912592.183
        54.0004         50.0004
 -25341910.02249 -19687598.47548  20332016.8324   20332017.6964   20332016.688
        56.0004         52.0004
  -9486552.93048  -7342819.21647  22963434.4634   22963436.6734   22963433.318
        49.0004         44.0004
  -1909587.91847  -1482234.15546  24103453.5664   24103454.0244   24103453.925
        42.0004         37.0004
 15  1  1  0  1 34.0000000  0  7G02G29G24G25G12G06G14
 -19846108.78349 -15455188.21848  21240965.2894   21240964.1824   21240965.875
        54.0004         49.0004
 -18782963.40048 -14574663.36647  22067372.1754   22067373.1844   22067373.277
        51.0004         46.0004
 -12542213.36348  -9717594.79047  22370407.2154   22370411.4134   22370407.994
        51.0004         46.0004
 -23830670.43049 -18526589.83548  20912260.2314   20912264.3504   20912260.423
        54.0004         50.0004
 -25341236.04249 -19687073.29548  20332145.1584   20332145.9124   20332144.950
        56.0004         52.0004
  -9484082.30048  -7340894.04747  22963904.1254   22963908.5684   22963903.405
        49.0004         44.0004
  -1908094.21747  -1481070.22946  24103738.0834   24103739.3994   24103738.654
        42.0004         37.0004
 15  1  1  0  1 35.0000000  0  7G02G29G24G25G12G06G14
 -19846145.65549 -15455216.94948  21240958.0104   21240957.4154   21240958.959
        54.0004         49.0004
 -18785516.15048 -14576652.51947  22066886.4234   22066886.9514   22066887.526
        51.0004         46.0004
 -12539009.66248  -9715098.40247  22371017.1314   22371021.0704   22371017.562
        51.0004         46.0004
 -23832413.73049 -18527948.25248  20911928.4174   20911932.6444   20911928.750
        54.0004         50.0004
 -25340561.63749 -19686547.78648  20332273.3444   20332274.2534   20332273.320
        56.0004         52.0004
  -9481611.16648  -7338968.48547  22964374.0104   22964377.4804   22964373.638
        49.0004         44.0004
  -1906600.05947  -1479905.95046  24104022.3024   24104024.2144   24104023.277
        42.0004         37.0004
 15  1  1  0  1 36.0000000  0  7G02G29G24G25G12G06G14
 -19846182.14949 -15455245.38548  21240951.2414   21240950.4024   21240952.021
        54.0004         49.0004
 -18788068.80948 -14578641.60247  22066400.4444   22066401.3434   22066401.684
        51.0004         46.0004
 -12535805.82448  -9712601.90447  22371627.2614   22371630.9304   22371627.048
        51.0004         46.0004
 -23834156.92249 -18529306.58148  20911596.6764   20911601.0204   20911597.056
        54.0004         50.0004
 -25339887.03649 -19686022.12348  20332401.7964   20332402.6374   20332401.667
        56.0004         52.0004
  -9479139.77548  -7337042.72547  22964844.6254   22964848.1764   22964843.967
        49.0004         44.0004
  -1905105.61647  -1478741.44946  24104305.6794   24104308.4994   24104307.687
        42.0004         37.0004
 15  1  1  0  1 37.0000000  0  7G02G29G24G25G12G06G14
 -19846218.12549 -15455273.41948  21240944.2864   21240943.2554   21240945.223
        54.0004         49.0004
 -18790621.22248 -14580630.49647  22065915.3324   22065916.1814   22065915.782
        51.0004         46.0004
 -12532601.72948  -9710105.20847  22372236.1764   22372240.1244   22372236.749
        51.0004         46.0004
 -23835899.83549 -18530664.69548  20911265.2644   20911269.2534   20911265.382
        54.0004         50.0004
 -25339212.08649 -19685496.18748  20332530.3104   20332531.0904   20332530.108
        56.0004         52.0004
  -9476667.97048  -7335116.64047  22965315.6484   22965319.1504   22965314.488
        49.0004         44.0004
  -1903610.78347  -1477576.64246  24104590.4934   24104593.2004   24104592.042
        42.0004         37.0004
 15  1  1  0  1 38.0000000  0  7G02G29G24G25G12G06G14
 -19846253.18649 -15455300.73848  21240937.7784   21240936.9344   21240938.581
        54.0004         49.0004
 -18793173.01648 -14582618.90747  22065429.2754   22065429.8894   22065430.048
        51.0004         46.0004
 -12529396.99548  -9707608.01447  22372845.8804   22372850.0994   22372846.470
        51.0004         46.0004
 -23837642.12349 -18532022.32248  20910933.3874   20910937.6534   20910933.867
        54.0004         50.0004
 -25338536.41149 -19684969.68748  20332658.8144   20332659.7064   20332658.710
        56.0004         52.0004
  -9474195.36648  -7333189.93547  22965786.0134   22965788.9734   22965785.095
        49.0004         44.0004
  -1902115.14347  -1476411.21046  24104873.9284   24104877.1474   24104876.323
        42.0004         37.0004
 15  1  1  0  1 39.0000000  0  7G02G29G24G25G12G06G14
 -19846287.65149 -15455327.59548  21240931.0134   21240930.1224   21240932.053
        54.0004         49.0004
 -18795724.47948 -14584607.06047  22064943.4854   22064945.0504   22064944.365
        51.0004         46.0004
 -12526191.93548  -9705110.56447  22373456.2494   22373459.8884   22373456.218
        51.0004         46.0004
 -23839384.05549 -18533379.67348  20910602.1884   20910606.1464   20910602.480
        54.0004         50.0004
 -25337860.30949 -19684442.85648  20332787.6814   20332788.2004   20332787.369
        56.0004         52.0004
  -9471722.28048  -7331262.85347  22966255.3874   22966259.5694   22966255.583
        49.0004         44.0004
  -1900619.02747  -1475245.40646  24105158.0784   24105160.7154   24105160.381
        42.0004         37.0004
 15  1  1  0  1 40.0000000  0  7G02G29G24G25G12G06G14
 -19846321.74749 -15455354.16448  21240924.5194   21240923.9174   21240925.606
        54.0004         49.0004
 -18798275.86048 -14586595.14847  22064458.6334   22064458.8904   22064458.814
        51.0004         46.0004
 -12522986.77248  -9702613.03747  22374065.3414   22374070.1174   22374066.074
        51.0004         46.0004
 -23841125.89949 -18534736.95548  20910270.4134   20910274.6634   20910271.063
        54.0004         50.0004
 -25337184.02149 -19683915.87948  20332916.0694   20332917.0914   20332916.090
        56.0004         52.0004
  -9469248.92348  -7329335.57047  22966727.0844   22966730.1604   22966726.388
        49.0004         44.0004
  -1899122.68647  -1474079.42446  24105442.8934   24105445.2264   24105444.722
        42.0004         37.0004
 15  1  1  0  1 41.0000000  0  7G02G29G24G25G12G06G14
 -19846355.31249 -15455380.31748  21240918.3094   21240917.3724   21240919.179
        54.0004         49.0004
 -18800826.97848 -14588583.03247  22063972.4854   22063973.4154   22063973.274
        51.0004         46.0004
 -12519781.31448  -9700115.27947  22374675.6364   22374679.5504   22374675.975
        51.0004         46.0004
 -23842867.46049 -18536094.01548  20909939.5534   20909943.4554   20909939.712
        54.0004         50.0004
 -25336507.38049 -19683388.62648  20333045.0154   20333045.5774   20333044.879
        56.0004         52.0004
  -9466775.16248  -7327407.95347  22967197.7824   22967200.5654   22967197.181
        49.0004         44.0004
  -1897625.89747  -1472913.09246  24105728.8574   24105730.1344   24105729.566
        42.0004         37.0004
 15  1  1  0  1 42.0000000  0  7G02G29G24G25G12G06G14
 -19846388.72449 -15455406.35248  21240911.7704   21240910.7834   21240912.843
        54.0004         49.0004
 -18803378.23448 -14590571.02347  22063487.0484   22063488.1594   22063487.661
        51.0004         46.0004
 -12516575.95448  -9697617.59547  22375285.8084   22375290.2894   22375285.896
        51.0004         46.0004
 -23844609.12749 -18537451.15948  20909607.5934   20909611.9254   20909608.287
        54.0004         50.0004
 -25335830.76749 -19682861.39548  20333173.7254   20333174.3694   20333173.665
        56.0004         52.0004
  -9464301.35848  -7325480.31747  22967669.3184   22967672.8874   22967667.948
        49.0004         44.0004
  -1896129.03647  -1471746.70946  24106013.0584   24106014.8834   24106014.102
        42.0004         37.0004
 15  1  1  0  1 43.0000000  0  7G02G29G24G25G12G06G14
 -19846421.79849 -15455432.12448  21240905.5464   21240904.6104   21240906.489
        54.0004         49.0004
 -18805929.42748 -14592558.96047  22063001.8664   22063002.6814   22063002.170
        51.0004         46.0004
 -12513370.51648  -9695119.85247  22375896.0594   22375900.0814   22375895.726
        51.0004         46.0004
 -23846350.71949 -18538808.24148  20909276.2334   20909280.4204   20909276.894
        54.0004         50.0004
 -25335153.99349 -19682334.03848  20333302.4754   20333303.2234   20333302.484
        56.0004         52.0004
  -9461827.32648  -7323552.50247  22968138.9514   22968142.8904   22968138.755
        49.0004         44.0004
  -1894632.02447  -1470580.20446  24106298.1504   24106300.2624   24106298.705
        42.0004         37.0004
 15  1  1  0  1 44.0000000  0  7G02G29G24G25G12G06G14
 -19846454.07349 -15455457.27248  21240899.3384   21240898.6894   21240900.303
        54.0004         49.0004
 -18808480.10348 -14594546.49847  22062516.7764   22062517.8994   22062516.802
        51.0004         46.0004
 -12510164.54448  -9692621.69747  22376505.3104   22376509.4214   22376505.737
        51.0004         46.0004
 -23848091.77849 -18540164.90948  20908945.1304   20908949.4064   20908945.634
        54.0004         50.0004
 -25334476.59949 -19681806.19848  20333431.3714   20333432.1434   20333431.376
        56.0004         52.0004
  -9459352.61548  -7321624.15047  22968609.8144   22968613.5264   22968609.703
        49.0004         44.0004
  -1893134.30547  -1469413.15146  24106584.0444   24106585.6414   24106583.564
        42.0004         37.0004
 15  1  1  0  1 45.0000000  0  7G02G29G24G25G12G06G14
 -19846485.61249 -15455481.85048  21240893.4584   21240892.5884   21240894.255
        54.0004         49.0004
 -18811030.30948 -14596533.67447  22062030.8414   22062031.8864   22062031.519
        51.0004         46.0004
 -12506958.10248  -9690123.17047  22377116.2534   22377120.1214   22377115.839
        51.0004         46.0004
 -23849832.34549 -18541521.19648  20908613.6414   20908617.9984   20908614.468
        54.0004         50.0004
 -25333798.63949 -19681277.91848  20333560.4234   20333561.1144   20333560.419
        56.0004         52.0004
  -9456877.27348  -7319695.31447  22969081.3804   22969085.0274   22969080.800
        49.0004         44.0004
  -1891635.93947  -1468245.59546  24106869.3124   24106870.9264   24106869.056
        42.0004         37.0004
 15  1  1  0  1 46.0000000  0  7G02G29G24G25G12G06G14
 -19846516.62849 -15455506.01748  21240887.2894   21240886.4594   21240888.254
        54.0004         49.0004
 -18813580.27248 -14598520.65547  22061545.5974   22061546.6734   22061546.241
        51.0004         46.0004
 -12503751.38148  -9687624.42447  22377725.9764   22377729.8344   22377725.963
        51.0004         46.0004
 -23851572.65849 -18542877.28248  20908282.4824   20908286.7254   20908283.324
        54.0004         50.0004
 -25333120.33949 -19680749.37248  20333689.5314   20333690.2284   20333689.564
        56.0004         52.0004
  -9454401.50448  -7317766.14247  22969552.2624   22969556.3914   22969551.976
        49.0004         44.0004
  -1890137.19947  -1467077.74746  24107155.3464   24107157.3574   24107154.424
        42.0004         37.0004
 15  1  1  0  1 47.0000000  0  7G02G29G24G25G12G06G14
 -19846546.90349 -15455529.60748  21240881.5774   21240880.5444   21240882.399
        54.0004         49.0004
 -18816129.77848 -14600507.28347  22061060.7294   22061062.0484   22061061.057
        51.0004         46.0004
 -12500544.17148  -9685125.30047  22378336.3374   22378340.5874   22378336.145
        51.0004         46.0004
 -23853312.48249 -18544232.99048  20907951.5164   20907955.7014   20907952.217
        54.0004         50.0004
 -25332441.47449 -19680220.38748  20333818.9234   20333819.3874   20333818.818
        56.0004         52.0004
  -9451925.11648  -7315836.49047  22970022.6944   22970026.7104   22970023.204
        49.0004         44.0004
  -1888637.80947  -1465909.38946  24107441.4904   24107442.3284   24107440.155
        42.0004         37.0004
 15  1  1  0  1 48.0000000  0  7G02G29G24G25G12G06G14
 -19846576.75349 -15455552.86848  21240875.8294   21240875.3464   21240876.691
        54.0004         49.0004
 -18818679.13448 -14602493.79547  22060575.7414   22060576.8934   22060575.925
        51.0004         46.0004
 -12497336.79648  -9682626.04947  22378946.8154   22378951.2044   22378946.547
        51.0004         46.0004
 -23855052.14549 -18545588.57248  20907620.3144   20907624.4814   20907621.134
        54.0004         50.0004
 -25331762.36849 -19679691.21348  20333947.9014   20333948.6414   20333948.124
        56.0004         52.0004
  -9449448.42148  -7313906.60147  22970494.5684   22970498.3494   22970494.458
        49.0004         44.0004
  -1887138.13247  -1464740.80946  24107727.3154   24107728.5554   24107725.872
        42.0004         37.0004
 15  1  1  0  1 49.0000000  0  7G02G29G24G25G12G06G14
 -19846606.02549 -15455575.67948  21240870.6054   21240869.5024   21240871.052
        54.0004         49.0004
 -18821228.19748 -14604480.07347  22060090.2754   22060091.4014   22060090.765
        51.0004         46.0004
 -12494129.09748  -9680126.54247  22379557.0284   22379560.3834   22379556.971
        51.0004         46.0004
 -23856791.49049 -18546943.90748  20907289.4064   20907293.6894   20907290.096
        54.0004         50.0004
 -25331082.86149 -19679161.72948  20334077.3254   20334077.9824   20334077.486
        56.0004         52.0004
  -9446971.24948  -7311976.33347  22970966.8634   22970969.7744   22970966.039
        49.0004         44.0004
  -1885637.98247  -1463571.86146  24108013.4964   24108013.2574   24108011.944
        42.0004         37.0004
 15  1  1  0  1 50.0000000  0  7G02G29G24G25G12G06G14
 -19846634.64249 -15455597.97548  21240864.7254   21240864.2514   21240865.501
        54.0004         49.0004
 -18823776.87948 -14606466.05847  22059605.2564   22059606.5244   22059605.721
        51.0004         46.0004
 -12490921.01348  -9677626.74047  22380168.2004   22380172.1694   22380167.473
        51.0004         46.0004
 -23858530.43949 -18548298.92848  20906958.2954   20906962.5854   20906959.158
        54.0004         50.0004
 -25330402.87949 -19678631.87348  20334206.6054   20334207.3444   20334206.946
        56.0004         52.0004
  -9444493.54248  -7310045.65247  22971437.2224   22971440.7794   22971437.493
        49.0004         44.0004
  -1884137.29747  -1462402.49746  24108298.3864   24108298.7184   24108297.845
        42.0004         37.0004
 15  1  1  0  1 51.0000000  0  7G02G29G24G25G12G06G14
 -19846662.54849 -15455619.72248  21240859.6594   21240858.7674   21240860.080
        54.0004         49.0004
 -18826325.13148 -14608451.70947  22059120.8624   22059121.5194   22059120.893
        51.0004         46.0004
 -12487712.47948  -9675126.58247  22380778.4794   22380781.9904   22380778.080
        51.0004         46.0004
 -23860268.94549 -18549653.61148  20906627.7304   20906632.2194   20906628.315
        54.0004         50.0004
 -25329722.36749 -19678101.60348  20334336.1444   20334336.8604   20334336.517
        56.0004         52.0004
  -9442015.22948  -7308114.49647  22971909.1124   22971912.3604   22971909.141
        49.0004         44.0004
  -1882636.00747  -1461232.66146  24108583.5154   24108584.1874   24108583.750
        42.0004         37.0004
 15  1  1  0  1 52.0000000  0  7G02G29G24G25G12G06G14
 -19846689.65449 -15455640.84148  21240854.3794   21240853.9344   21240854.864
        54.0004         49.0004
 -18828872.86248 -14610436.94947  22058635.5854   22058636.6324   22058636.058
        51.0004         46.0004
 -12484503.39248  -9672625.99347  22381388.9714   22381392.8644   22381388.728
        51.0004         46.0004
 -23862006.90449 -18551007.86348  20906297.1374   20906301.1754   20906297.529
        54.0004         50.0004
 -25329041.22849 -19677570.84448  20334466.0444   20334466.4124   20334466.234
        56.0004         52.0004
  -9439536.23748  -7306182.81447  22972381.0444   22972384.3404   22972380.880
        49.0004         44.0004
  -1881134.04547  -1460062.29846  24108868.6014   24108869.2954   24108869.838
        42.0004         37.0004
 15  1  1  0  1 53.0000000  0  7G02G29G24G25G12G06G14
 -19846716.20149 -15455661.52848  21240849.3314   21240848.3264   21240849.760
        54.0004         49.0004
 -18831420.31848 -14612421.98447  22058150.5714   22058152.2364   22058151.242
        51.0004         46.0004
 -12481294.01848  -9670125.18547  22382000.3114   22382003.5314   22381999.471
        51.0004         46.0004
 -23863744.57749 -18552361.89448  20905966.3714   20905970.6424   20905966.860
        54.0004         50.0004
 -25328359.71549 -19677039.79748  20334595.6134   20334596.0354   20334595.973
        56.0004         52.0004
  -9437056.79648  -7304250.79147  22972852.1994   22972855.8924   22972852.672
        49.0004         44.0004
  -1879631.64147  -1458891.59046  24109153.6784   24109154.3074   24109155.854
        42.0004         37.0004
 15  1  1  0  1 54.0000000  0  7G02G29G24G25G12G06G14
 -19846742.08749 -15455681.70048  21240844.5524   21240843.4684   21240844.869
        54.0004         49.0004
 -18833967.38348 -14614406.71047  22057666.7964   22057667.1284   22057666.611
        51.0004         46.0004
 -12478084.23948  -9667624.06047  22382610.4434   22382614.2764   22382610.288
        51.0004         46.0004
 -23865481.83949 -18553715.60448  20905635.8684   20905640.0814   20905636.249
        54.0004         50.0004
 -25327677.71649 -19676508.36948  20334725.2234   20334725.9044   20334725.804
        56.0004         52.0004
  -9434576.80948  -7302318.32647  22973323.7604   22973329.0684   22973324.645
        49.0004         44.0004
  -1878128.69447  -1457720.46146  24109437.9024   24109440.9064   24109441.654
        42.0004         37.0004
 15  1  1  0  1 55.0000000  0  7G02G29G24G25G12G06G14
 -19846767.36349 -15455701.39548  21240839.7064   21240838.9974   21240840.095
        54.0004         49.0004
 -18836514.12248 -14616391.18347  22057181.6464   22057182.7854   22057181.978
        51.0004         46.0004
 -12474874.11048  -9665122.66347  22383221.4074   22383225.3824   22383221.092
        51.0004         46.0004
 -23867218.75749 -18555069.04748  20905305.1084   20905309.0754   20905305.664
        54.0004         50.0004
 -25326995.28849 -19675976.60748  20334855.2144   20334855.7254   20334855.673
        56.0004         52.0004
  -9432096.33348  -7300385.48947  22973797.3564   22973800.0264   22973796.635
        49.0004         44.0004
  -1876625.26547  -1456548.95946  24109724.6184   24109727.2064   24109728.144
        42.0004         37.0004
 15  1  1  0  1 56.0000000  0  7G02G29G24G25G12G06G14
 -19846792.18349 -15455720.73548  21240834.8694   21240834.0534   21240835.397
        54.0004         49.0004
 -18839060.68048 -14618375.50947  22056696.7874   22056698.0544   22056697.312
        51.0004         46.0004
 -12471663.78848  -9662621.11647  22383831.8624   22383835.7724   22383831.958
        51.0004         46.0004
 -23868955.47949 -18556422.33748  20904974.7794   20904979.0054   20904975.107
        54.0004         50.0004
 -25326312.58749 -19675444.63148  20334985.0234   20334985.7224   20334985.621
        56.0004         52.0004
  -9429615.50848  -7298452.37647  22974268.8724   22974273.2934   22974268.748
        49.0004         44.0004
  -1875121.47947  -1455377.17646  24110011.5484   24110013.2444   24110014.473
        42.0004         37.0004
 15  1  1  0  1 57.0000000  0  7G02G29G24G25G12G06G14
 -19846816.60149 -15455739.76048  21240830.4034   21240829.4664   21240830.811
        54.0004         49.0004
 -18841607.11448 -14620359.74247  22056212.7164   22056213.7124   22056212.731
        51.0004         46.0004
 -12468453.32148  -9660119.44947  22384443.4414   22384447.6484   22384442.900
        51.0004         46.0004
 -23870692.05549 -18557775.51248  20904644.3964   20904648.3644   20904644.604
        54.0004         50.0004
 -25325629.66449 -19674912.48548  20335115.0564   20335115.5254   20335115.586
        56.0004         52.0004
  -9427134.39048  -7296519.04347  22974741.5694   22974744.2304   22974740.892
        49.0004         44.0004
  -1873617.41447  -1454205.18146  24110297.1904   24110299.5894   24110300.642
        42.0004         37.0004
 15  1  1  0  1 58.0000000  0  7G02G29G24G25G12G06G14
 -19846840.49249 -15455758.37548  21240825.7194   21240824.8784   21240826.303
        54.0004         49.0004
 -18844153.30048 -14622343.78547  22055727.5234   22055728.5284   22055728.192
        51.0004         46.0004
 -12465242.55948  -9657617.55747  22385054.1954   22385057.6634   22385053.888
        50.0004         46.0004
 -23872428.36249 -18559128.48148  20904313.8244   20904318.2164   20904314.176
        54.0004         50.0004
 -25324946.38749 -19674380.06348  20335245.0344   20335245.7364   20335245.572
        56.0004         52.0004
  -9424652.86348  -7294585.38647  22975211.7754   22975217.5024   22975213.176
        49.0004         44.0004
  -1872112.93447  -1453032.86146  24110584.4234   24110585.9024   24110587.170
        42.0004         37.0004
 15  1  1  0  1 59.0000000  0  7G02G29G24G25G12G06G14
 -19846863.59949 -15455776.37948  21240821.5854   21240820.5764   21240822.052
        54.0004         49.0004
 -18846698.99148 -14624327.43947  22055243.7244   22055244.3984   22055243.681
        51.0004         46.0004
 -12462031.28048  -9655115.26547  22385665.7624   22385669.2484   22385664.980
        50.0004         46.0004
 -23874164.14049 -18560481.03448  20903983.5164   20903987.7824   20903983.823
        54.0004         50.0004
 -25324262.51849 -19673847.17848  20335375.3084   20335375.8144   20335375.651
        56.0004         52.0004
  -9422170.65848  -7292651.19747  22975684.5884   22975689.8774   22975685.405
        49.0004         44.0004
  -1870607.79747  -1451860.02846  24110871.7404   24110871.8614   24110873.756
        42.0004         37.0004
 15  1  1  0  2  0.0000000  0  7G02G29G24G25G12G06G14
 -19846886.22449 -15455794.01248  21240817.2164   21240816.2024   21240817.896
        54.0004         49.0004
 -18849244.47348 -14626310.93247  22054759.5444   22054760.3004   22054759.274
        51.0004         46.0004
 -12458819.77048  -9652612.78947  22386276.4164   22386280.4384   22386276.166
        50.0004         46.0004
 -23875899.71049 -18561833.43048  20903653.4104   20903657.7184   20903653.533
        54.0004         50.0004
 -25323578.36349 -19673314.07248  20335505.4154   20335506.0384   20335505.803
        56.0004         52.0004
  -9419688.09848  -7290716.73647  22976158.1884   22976161.4704   22976157.796
        49.0004         44.0004
  -1869102.29747  -1450686.91046  24111159.4284   24111158.9684   24111160.673
        42.0004         37.0004
 15  1  1  0  2  1.0000000  0  7G02G29G24G25G12G06G14
 -19846908.67549 -15455811.50548  21240812.8594   21240811.7264   21240813.688
        54.0004         49.0004
 -18851790.05948 -14628294.50447  22054275.0134   22054275.3974   22054274.875
        51.0004         46.0004
 -12455608.34848  -9650110.37847  22386887.2134   22386890.7464   22386887.342
        50.0004         46.0004
 -23877635.35749 -18563185.88048  20903323.0334   20903327.2044   20903323.264
        54.0004         50.0004
 -25322894.20949 -19672780.96548  20335635.4814   20335636.3544   20335635.941
        56.0004         52.0004
  -9417205.46148  -7288782.21247  22976629.7054   22976633.9344   22976630.229
        49.0004         44.0004
  -1867596.75147  -1449513.75946  24111446.5904   24111445.7164   24111447.308
        42.0004         37.0004
 15  1  1  0  2  2.0000000  0  7G02G29G24G25G12G06G14
 -19846930.53649 -15455828.53848  21240808.5364   21240807.7944   21240809.618
        54.0004         49.0004
 -18854335.34348 -14630277.83947  22053790.4134   22053791.5974   22053790.473
        51.0004         46.0004
 -12452396.61148  -9647607.72547  22387498.7004   22387502.4014   22387498.546
        50.0004         46.0004
 -23879370.67649 -18564538.07648  20902992.7864   20902997.2814   20902993.022
        54.0004         50.0004
 -25322209.64849 -19672247.54248  20335765.7954   20335766.5624   20335766.188
        56.0004         52.0004
  -9414722.36148  -7286847.33547  22977103.5894   22977105.7554   22977102.730
        49.0004         44.0004
  -1866090.73147  -1448340.23846  24111732.7464   24111732.2594   24111734.089
        42.0004         37.0004
 15  1  1  0  2  3.0000000  0  7G02G29G24G25G12G06G14
 -19846951.50249 -15455844.87348  21240804.6854   21240803.8034   21240805.718
        54.0004         49.0004
 -18856879.99848 -14632260.68647  22053306.4454   22053307.1044   22053306.135
        51.0004         46.0004
 -12449184.21448  -9645104.56047  22388110.7144   22388114.0534   22388109.868
        50.0004         46.0004
 -23881105.35549 -18565889.77548  20902662.7344   20902667.1034   20902662.912
        54.0004         50.0004
 -25321524.35949 -19671713.55048  20335896.3144   20335896.9114   20335896.573
        56.0004         52.0004
  -9412238.48048  -7284911.84547  22977574.8694   22977579.5354   22977575.375
        49.0004         44.0004
  -1864583.89347  -1447166.07946  24112018.4864   24112019.3524   24112020.649
        42.0004         37.0004
 15  1  1  0  2  4.0000000  0  7G02G29G24G25G12G06G14
 -19846971.72049 -15455860.62848  21240800.9874   21240800.0464   21240801.970
        54.0004         49.0004
 -18859424.18548 -14634243.17047  22052821.8624   22052822.7444   22052822.004
        51.0004         46.0004
 -12445971.33048  -9642601.01247  22388721.4364   22388724.5444   22388721.327
        50.0004         46.0004
 -23882839.54149 -18567241.08748  20902332.6924   20902336.9914   20902332.937
        54.0004         50.0004
 -25320838.50149 -19671179.11648  20336026.6234   20336027.4264   20336027.059
        56.0004         52.0004
  -9409753.94948  -7282975.84747  22978048.7014   22978051.9504   22978048.191
        49.0004         44.0004
  -1863076.46747  -1445991.46346  24112305.8864   24112306.0544   24112307.173
        42.0004         37.0004
 15  1  1  0  2  5.0000000  0  7G02G29G24G25G12G06G14
 -19846991.35649 -15455875.92948  21240797.0384   21240796.2824   21240798.339
        54.0004         49.0004
 -18861968.06748 -14636225.41647  22052337.7694   22052339.0414   22052337.971
        51.0004         46.0004
 -12442758.11848  -9640097.21547  22389332.3754   22389336.2994   22389332.827
        50.0004         46.0004
 -23884573.40749 -18568592.15248  20902002.7824   20902006.9784   20902002.935
        54.0004         50.0004
 -25320152.23349 -19670644.36248  20336157.4104   20336158.1744   20336157.611
        56.0004         52.0004
  -9407268.95148  -7281039.48547  22978521.0284   22978525.1954   22978521.101
        49.0004         44.0004
  -1861568.53247  -1444816.44946  24112590.9794   24112591.9894   24112593.211
        42.0004         37.0004
 15  1  1  0  2  6.0000000  0  7G02G29G24G25G12G06G14
 -19847010.56049 -15455890.89348  21240793.3534   21240792.5984   21240794.709
        54.0004         49.0004
 -18864511.80448 -14638207.55247  22051853.9064   22051854.3694   22051854.005
        51.0004         46.0004
 -12439544.76348  -9637593.29747  22389944.9964   22389948.1484   22389944.332
        50.0004         46.0004
 -23886307.11049 -18569943.09048  20901672.7304   20901677.0604   20901672.909
        54.0004         50.0004
 -25319465.71649 -19670109.41448  20336287.9914   20336288.6654   20336288.238
        56.0004         52.0004
  -9404783.64448  -7279102.88147  22978993.4564   22978997.8124   22978994.056
        49.0004         44.0004
  -1860060.31447  -1443641.21446  24112877.5654   24112879.0324   24112879.837
        42.0004         37.0004
 15  1  1  0  2  7.0000000  0  7G02G29G24G25G12G06G14
 -19847028.85549 -15455905.15048  21240790.1104   21240789.0834   21240791.252
        54.0004         49.0004
 -18867054.91648 -14640189.19547  22051369.8894   22051370.3174   22051370.054
        51.0004         46.0004
 -12436330.75648  -9635088.87847  22390556.4264   22390560.0934   22390556.060
        50.0004         46.0004
 -23888040.15149 -18571293.51048  20901342.7044   20901347.5754   20901343.071
        54.0004         50.0004
 -25318778.47149 -19669573.89848  20336418.8964   20336419.4204   20336418.970
        56.0004         52.0004
  -9402297.53348  -7277165.65247  22979466.1744   22979470.7214   22979467.071
        49.0004         44.0004
  -1858551.30647  -1442465.35946  24113163.9864   24113166.0144   24113166.460
        42.0004         37.0004
 15  1  1  0  2  8.0000000  0  7G02G29G24G25G12G06G14
 -19847046.62349 -15455918.99748  21240786.4334   21240786.0764   21240787.944
        54.0004         49.0004
 -18869597.78148 -14642170.64947  22050885.4084   22050887.2174   22050886.187
        51.0004         46.0004
 -12433116.49948  -9632584.26847  22391168.2964   22391171.0394   22391167.692
        50.0004         45.0004
 -23889772.92949 -18572643.73048  20901013.0194   20901017.9824   20901013.354
        54.0004         50.0004
 -25318090.87449 -19669038.11048  20336549.6194   20336550.3514   20336549.834
        56.0004         52.0004
  -9399811.00948  -7275228.10647  22979939.6194   22979944.1784   22979940.250
        49.0004         44.0004
  -1857041.87047  -1441289.17646  24113451.1524   24113454.2734   24113453.331
        42.0004         37.0004
 15  1  1  0  2  9.0000000  0  7G02G29G24G25G12G06G14
 -19847064.09849 -15455932.61448  21240783.6004   21240782.4484   21240784.549
        54.0004         49.0004
 -18872140.62148 -14644152.08347  22050402.5684   22050402.9564   22050402.282
        51.0004         46.0004
 -12429902.18448  -9630079.60347  22391779.0294   22391782.6084   22391779.238
        50.0004         46.0004
 -23891505.67049 -18573993.91648  20900683.6324   20900687.7884   20900683.590
        54.0004         50.0004
 -25317403.15749 -19668502.22648  20336680.6954   20336681.2354   20336680.666
        56.0004         52.0004
  -9397324.30648  -7273290.41747  22980413.7144   22980418.0904   22980413.386
        49.0004         44.0004
  -1855532.25447  -1440112.85246  24113738.5574   24113741.3854   24113740.401
        42.0004         37.0004
 15  1  1  0  2 10.0000000  0  7G02G29G24G25G12G06G14
 -19847080.75849 -15455945.59448  21240780.1174   21240779.1814   21240781.365
        54.0004         50.0004
 -18874682.93848 -14646133.11247  22049918.4534   22049919.0494   22049918.416
        51.0004         46.0004
 -12426687.33448  -9627574.52647  22392391.4894   22392394.2874   22392391.045
        50.0004         46.0004
 -23893237.85649 -18575343.67148  20900353.8454   20900358.0754   20900353.978
        54.0004         50.0004
 -25316714.81349 -19667965.85548  20336811.6264   20336812.1684   20336811.646
        56.0004         52.0004
  -9394836.91848  -7271352.19647  22980886.8334   22980891.7894   22980886.655
        49.0004         44.0004
  -1854021.95647  -1438935.99946  24114026.6734   24114029.0564   24114027.315
        42.0004         37.0004
 15  1  1  0  2 11.0000000  0  7G02G29G24G25G12G06G14
 -19847097.05149 -15455958.29048  21240776.6434   21240776.1214   21240778.228
        54.0004         49.0004
 -18877225.16048 -14648114.06147  22049435.1424   22049435.4374   22049434.700
        51.0004         46.0004
 -12423472.35448  -9625069.34547  22393002.9714   22393006.2574   22393002.937
        50.0004         46.0004
 -23894969.94049 -18576693.34548  20900024.1314   20900028.5974   20900024.386
        54.0004         50.0004
 -25316026.28249 -19667429.33548  20336942.5704   20336943.1404   20336942.654
        56.0004         52.0004
  -9392349.26848  -7269413.76447  22981360.1274   22981363.7704   22981360.085
        49.0004         44.0004
  -1852511.41747  -1437758.95646  24114314.4104   24114317.2794   24114314.384
        42.0004         37.0004
 15  1  1  0  2 12.0000000  0  7G02G29G24G25G12G06G14
 -19847112.90749 -15455970.64648  21240774.2114   21240773.1114   21240775.236
        54.0004         50.0004
 -18879767.22748 -14650094.88947  22048950.5764   22048952.2604   22048950.972
        51.0004         46.0004
 -12420257.20748  -9622564.03747  22393615.2724   22393618.0674   22393614.799
        50.0004         45.0004
 -23896701.84549 -18578042.88248  20899694.6364   20899699.2564   20899694.788
        54.0004         50.0004
 -25315337.48449 -19666892.60948  20337073.6744   20337074.3104   20337073.719
        56.0004         52.0004
  -9389861.29248  -7267475.08747  22981832.7424   22981837.6154   22981833.585
        49.0004         44.0004
  -1851000.55347  -1436581.66046  24114601.8994   24114603.9354   24114601.570
        42.0004         37.0004
 15  1  1  0  2 13.0000000  0  7G02G29G24G25G12G06G14
 -19847128.09449 -15455982.48148  21240771.3214   21240770.1364   21240772.266
        54.0004         49.0004
 -18882308.90548 -14652075.41847  22048467.2014   22048467.9564   22048467.299
        51.0004         46.0004
 -12417041.62248  -9620058.38747  22394226.8834   22394230.4274   22394226.746
        50.0004         45.0004
 -23898433.33649 -18579392.09548  20899364.9904   20899369.7094   20899365.300
        54.0004         50.0004
 -25314648.20149 -19666355.50648  20337204.6544   20337205.4334   20337204.866
        56.0004         52.0004
  -9387372.75848  -7265535.96847  22982307.3574   22982311.0564   22982307.172
        49.0004         44.0004
  -1849489.15947  -1435403.94946  24114890.5844   24114891.2074   24114888.999
        42.0004         37.0004
 15  1  1  0  2 14.0000000  0  7G02G29G24G25G12G06G14
 -19847143.15649 -15455994.21948  21240768.2264   21240767.5324   21240769.397
        54.0004         50.0004
 -18884850.73548 -14654056.06647  22047983.4694   22047984.6734   22047983.692
        51.0004         46.0004
 -12413826.17148  -9617552.83747  22394838.8724   22394841.5274   22394838.555
        50.0004         45.0004
 -23900164.96449 -18580741.41648  20899035.6474   20899040.1744   20899035.744
        54.0004         50.0004
 -25313958.97349 -19665818.44848  20337335.8214   20337336.6874   20337336.033
        56.0004         52.0004
  -9384884.22548  -7263596.85447  22982781.8064   22982784.9524   22982780.734
        49.0004         44.0004
  -1847977.74047  -1434226.22246  24115178.2604   24115179.5314   24115176.821
        42.0004         37.0004
 15  1  1  0  2 15.0000000  0  7G02G29G24G25G12G06G14
 -19847157.56149 -15456005.44248  21240765.6614   21240764.6724   21240766.560
        54.0004         50.0004
 -18887392.17748 -14656036.41047  22047500.0104   22047500.8324   22047500.123
        51.0004         46.0004
 -12410610.34848  -9615047.00247  22395450.8084   22395453.5514   22395450.391
        50.0004         45.0004
 -23901896.19249 -18582090.42548  20898706.1684   20898710.7814   20898706.275
        54.0004         50.0004
 -25313269.27049 -19665281.01748  20337467.2344   20337467.9814   20337467.304
        56.0004         52.0004
  -9382395.14748  -7261657.31247  22983254.1484   22983257.9814   22983254.302
        49.0004         44.0004
  -1846465.77547  -1433048.07046  24115466.5114   24115467.5614   24115464.727
        42.0004         37.0004
 15  1  1  0  2 16.0000000  0  7G02G29G24G25G12G06G14
 -19847171.24849 -15456016.10848  21240763.2024   21240762.4494   21240763.949
        54.0004         50.0004
 -18889933.18448 -14658016.41747  22047016.2114   22047017.2674   22047016.654
        51.0004         46.0004
 -12407394.06248  -9612540.80647  22396063.2554   22396066.6394   22396062.420
        50.0004         45.0004
 -23903626.95849 -18583439.07248  20898376.7504   20898381.2544   20898376.937
        54.0004         50.0004
 -25312579.01949 -19664743.15848  20337598.5454   20337599.0844   20337598.672
        56.0004         52.0004
  -9379905.45448  -7259717.28847  22983728.7764   22983732.1924   22983728.106
        49.0004         44.0004
  -1844953.22147  -1431869.45946  24115753.9624   24115756.0554   24115752.844
        42.0004         37.0004
 15  1  1  0  2 17.0000000  0  7G02G29G24G25G12G06G14
 -19847183.83649 -15456025.91748  21240760.4964   21240759.9784   21240761.494
        54.0004         50.0004
 -18892473.36948 -14659995.77947  22046532.8414   22046533.6644   22046533.227
        51.0004         46.0004
 -12404176.93548  -9610033.95147  22396674.6234   22396677.7974   22396674.559
        50.0004         46.0004
 -23905356.88649 -18584787.06748  20898047.5224   20898052.1484   20898047.731
        54.0004         50.0004
 -25311887.85549 -19664204.59048  20337730.0844   20337730.8154   20337730.150
        56.0004         52.0004
  -9377414.77948  -7257776.50747  22984202.1334   22984206.2064   22984201.997
        49.0004         44.0004
  -1843439.70547  -1430690.09546  24116041.3094   24116044.1314   24116040.730
        42.0004         37.0004
 15  1  1  0  2 18.0000000  0  7G02G29G24G25G12G06G14
 -19847195.77849 -15456035.22048  21240758.4354   21240757.6334   21240759.150
        54.0004         50.0004
 -18895013.20248 -14661974.87047  22046050.3064   22046050.5114   22046049.916
        51.0004         46.0004
 -12400959.42648  -9607526.79547  22397287.0654   22397289.6304   22397286.839
        50.0004         45.0004
 -23907086.43349 -18586134.76448  20897718.7184   20897723.1434   20897718.625
        54.0004         50.0004
 -25311196.22949 -19663665.66248  20337861.7944   20337862.2224   20337861.791
        56.0004         52.0004
  -9374923.58548  -7255835.31447  22984676.7334   22984680.3854   22984676.075
        49.0004         44.0004
  -1841925.66247  -1429510.32146  24116328.6684   24116332.3624   24116329.026
        42.0004         37.0004
 15  1  1  0  2 19.0000000  0  7G02G29G24G25G12G06G14
 -19847207.03349 -15456043.98948  21240756.2564   21240755.3044   21240757.020
        54.0004         50.0004
 -18897552.61748 -14663953.63747  22045566.2724   22045568.0284   22045566.705
        51.0004         46.0004
 -12397741.48948  -9605019.31747  22397899.9734   22397903.0804   22397899.166
        50.0004         45.0004
 -23908815.55149 -18587482.13048  20897389.2234   20897394.0334   20897389.526
        54.0004         50.0004
 -25310504.09849 -19663126.34048  20337993.3754   20337994.2514   20337993.536
        56.0004         52.0004
  -9372431.82048  -7253893.68547  22985150.4324   22985155.0314   22985150.255
        49.0004         44.0004
  -1840411.03647  -1428330.09246  24116616.8384   24116619.9914   24116617.300
        42.0004         37.0004
 15  1  1  0  2 20.0000000  0  7G02G29G24G25G12G06G14
 -19847217.85249 -15456052.42148  21240753.7964   21240753.5444   21240754.917
        54.0004         49.0004
 -18900091.86648 -14665932.27047  22045082.9704   22045083.6294   22045083.499
        51.0004         46.0004
 -12394523.37548  -9602511.69547  22398511.5864   22398514.9984   22398511.519
        50.0004         45.0004
 -23910544.48449 -18588829.35048  20897060.2614   20897064.8664   20897060.557
        54.0004         50.0004
 -25309811.70449 -19662586.81248  20338125.2374   20338125.8844   20338125.322
        56.0004         52.0004
  -9369939.72548  -7251951.79147  22985624.2114   22985628.4924   22985624.490
        49.0004         44.0004
  -1838896.07847  -1427149.60546  24116905.2364   24116907.1224   24116905.251
        42.0004         37.0004
 15  1  1  0  2 21.0000000  0  7G02G29G24G25G12G06G14
 -19847228.24049 -15456060.51548  21240752.1454   21240751.4504   21240752.873
        54.0004         50.0004
 -18902630.96548 -14667910.79047  22044599.9784   22044600.9334   22044600.396
        51.0004         46.0004
 -12391305.08648  -9600003.93247  22399124.0694   22399127.8754   22399123.893
        50.0004         45.0004
 -23912273.23649 -18590176.42848  20896731.3784   20896735.6684   20896731.526
        54.0004         50.0004
 -25309119.05949 -19662047.08748  20338256.9174   20338257.5254   20338257.118
        56.0004         52.0004
  -9367447.30948  -7250009.65147  22986099.9334   22986102.2854   22986098.889
        49.0004         44.0004
  -1837380.84247  -1425968.90346  24117192.8684   24117194.4474   24117193.153
        42.0004         37.0004
 15  1  1  0  2 22.0000000  0  7G02G29G24G25G12G06G14
 -19847237.98249 -15456068.10748  21240750.2174   21240749.6384   21240751.024
        54.0004         50.0004
 -18905169.69548 -14669889.02047  22044116.7104   22044117.4004   22044117.292
        51.0004         46.0004
 -12388086.40948  -9597495.86947  22399736.2484   22399739.7534   22399736.361
        50.0004         45.0004
 -23914001.60849 -18591523.21248  20896402.4794   20896406.9744   20896402.625
        54.0004         50.0004
 -25308425.94649 -19661506.99948  20338388.8874   20338389.6234   20338388.978
        56.0004         52.0004
  -9364954.37948  -7248067.10247  22986574.4844   22986577.9294   22986573.349
        49.0004         44.0004
  -1835865.01847  -1424787.74246  24117480.0824   24117483.0124   24117481.475
        42.0004         37.0004
 15  1  1  0  2 23.0000000  0  7G02G29G24G25G12G06G14
 -19847246.93149 -15456075.08048  21240748.5954   21240748.1114   21240749.339
        54.0004         50.0004
 -18907707.91048 -14671866.84847  22043634.0624   22043634.7324   22043634.165
        51.0004         46.0004
 -12384867.19448  -9594987.39747  22400348.8124   22400352.8764   22400348.981
        50.0004         45.0004
 -23915729.45149 -18592869.58548  20896073.9654   20896078.2654   20896073.844
        54.0004         50.0004
 -25307732.21949 -19660966.43348  20338521.0524   20338521.3784   20338521.045
        56.0004         52.0004
  -9362460.76048  -7246124.02647  22987048.2584   22987052.7544   22987047.804
        49.0004         44.0004
  -1834348.57047  -1423606.09646  24117769.1134   24117771.0654   24117770.071
        42.0004         37.0004
 15  1  1  0  2 24.0000000  0  7G02G29G24G25G12G06G14
 -19847255.09549 -15456081.44248  21240746.7434   21240746.3664   21240747.753
        54.0004         50.0004
 -18910245.62348 -14673844.28747  22043151.2324   22043151.7064   22043151.209
        51.0004         46.0004
 -12381647.46448  -9592478.51647  22400962.1394   22400965.6274   22400961.726
        50.0004         45.0004
 -23917456.76149 -18594215.54148  20895745.1944   20895749.6034   20895745.141
        54.0004         50.0004
 -25307037.88849 -19660425.39748  20338653.0424   20338653.5354   20338653.176
        56.0004         52.0004
  -9359966.47648  -7244180.42847  22987522.5904   22987526.6984   22987522.457
        48.0004         44.0004
  -1832831.44747  -1422423.92046  24118057.8884   24118061.3574   24118059.415
        42.0004         37.0004
 15  1  1  0  2 25.0000000  0  7G02G29G24G25G12G06G14
 -19847263.04349 -15456087.63748  21240745.4684   21240744.7624   21240746.171
        54.0004         49.0004
 -18912783.39448 -14675821.77047  22042668.2424   22042668.9544   22042668.292
        51.0004         46.0004
 -12378427.78248  -9589969.67347  22401574.7984   22401577.9514   22401574.429
        50.0004         45.0004
 -23919184.11749 -18595561.53048  20895416.2874   20895420.7154   20895416.472
        54.0004         50.0004
 -25306343.51949 -19659884.32948  20338785.1844   20338785.9104   20338785.228
        56.0004         52.0004
  -9357472.09748  -7242236.75647  22987996.8364   22988002.2044   22987996.986
        48.0004         44.0004
  -1831314.24947  -1421241.69046  24118347.2614   24118351.6344   24118348.727
        42.0004         37.0004
 15  1  1  0  2 26.0000000  0  7G02G29G24G25G12G06G14
 -19847270.73149 -15456093.62448  21240743.7964   21240743.4354   21240744.709
        54.0004         49.0004
 -18915321.18348 -14677799.26847  22042185.0214   22042185.9694   22042185.301
        51.0004         46.0004
 -12375208.08548  -9587460.81647  22402187.3014   22402190.7454   22402187.105
        50.0004         45.0004
 -23920911.47049 -18596907.52048  20895087.8774   20895092.0704   20895087.762
        54.0004         50.0004
 -25305649.07849 -19659343.20748  20338917.2874   20338917.9274   20338917.307
        56.0004         52.0004
  -9354977.56248  -7240292.95947  22988471.4214   22988475.9824   22988471.707
        48.0004         44.0004
  -1829796.88747  -1420059.33446  24118636.9084   24118641.2304   24118637.819
        42.0004         37.0004
 15  1  1  0  2 27.0000000  0  7G02G29G24G25G12G06G14
 -19847277.62849 -15456099.00048  21240742.4994   21240742.3154   21240743.392
        54.0004         50.0004
 -18917858.45148 -14679776.35747  22041702.4504   22041703.2714   22041702.425
        51.0004         46.0004
 -12371987.85748  -9584951.54347  22402799.6404   22402803.6484   22402799.962
        50.0004         45.0004
 -23922638.29449 -18598253.09548  20894759.0684   20894763.4404   20894759.178
        54.0004         50.0004
 -25304954.03249 -19658801.61248  20339049.5164   20339050.1914   20339049.552
        56.0004         52.0004
  -9352482.36348  -7238348.64947  22988946.7514   22988950.1424   22988946.551
        48.0004         44.0004
  -1828278.85347  -1418876.45146  24118926.2274   24118928.8324   24118927.326
        42.0004         37.0004
 15  1  1  0  2 28.0000000  0  7G02G29G24G25G12G06G14
 -19847284.14049 -15456104.07348  21240741.4374   21240740.7654   21240742.152
        54.0004         50.0004
 -18920395.61548 -14681753.36847  22041218.9644   22041220.4384   22041219.593
        51.0004         46.0004
 -12368767.49948  -9582442.17347  22403412.7614   22403416.3274   22403412.803
        50.0004         45.0004
 -23924364.98849 -18599598.57248  20894430.7954   20894434.9434   20894430.632
        54.0004         50.0004
 -25304258.77749 -19658259.85448  20339181.9184   20339182.4104   20339181.824
        56.0004         52.0004
  -9349986.88248  -7236404.12347  22989421.4434   22989425.6164   22989421.463
        48.0004         44.0004
  -1826760.56147  -1417693.36746  24119214.8414   24119217.2444   24119216.812
        42.0004         37.0004
 15  1  1  0  2 29.0000000  0  7G02G29G24G25G12G06G14
 -19847290.04149 -15456108.67248  21240740.1254   21240739.8944   21240741.005
        54.0004         49.0004
 -18922932.44548 -14683730.11447  22040736.5784   22040737.9544   22040736.753
        51.0004         46.0004
 -12365546.78048  -9579932.52447  22404025.7414   22404029.2814   22404025.704
        50.0004         45.0004
 -23926091.32449 -18600943.76748  20894101.9194   20894106.3494   20894102.116
        54.0004         50.0004
 -25303563.08749 -19657717.75748  20339314.0214   20339314.9714   20339314.188
        56.0004         52.0004
  -9347490.91748  -7234459.21547  22989896.0674   22989900.4844   22989896.268
        48.0004         44.0004
  -1825241.78547  -1416509.90546  24119503.5234   24119504.8824   24119506.152
        42.0004         37.0004
 15  1  1  0  2 30.0000000  0  7G02G29G24G25G12G06G14
 -19847295.53049 -15456112.95048  21240739.2764   21240738.7554   21240739.908
        54.0004         49.0004
 -18925469.14248 -14685706.76447  22040254.1704   22040254.6614   22040254.034
        51.0004         46.0004
 -12362325.92948  -9577422.77347  22404638.7384   22404642.2734   22404638.626
        50.0004         45.0004
 -23927817.51149 -18602288.84948  20893773.7144   20893777.8884   20893773.652
        54.0004         50.0004
 -25302867.16449 -19657175.48048  20339446.5964   20339447.2864   20339446.558
        56.0004         52.0004
  -9344994.65248  -7232514.07147  22990371.9354   22990375.3924   22990371.339
        48.0004         44.0004
  -1823722.71447  -1415326.21146  24119791.8194   24119793.8054   24119795.574
        42.0004         37.0004
 15  1  1  0  2 31.0000000  0  7G02G29G24G25G12G06G14
 -19847300.18349 -15456116.57648  21240738.3734   21240737.7234   21240738.996
        54.0004         50.0004
 -18928005.27548 -14687682.97447  22039771.9524   22039772.6324   22039771.412
        51.0004         46.0004
 -12359104.48748  -9574912.55647  22405251.2924   22405256.0844   22405251.605
        50.0004         45.0004
 -23929543.11149 -18603633.47148  20893445.2564   20893449.3904   20893445.343
        54.0004         50.0004
 -25302170.56849 -19656632.67848  20339579.1584   20339579.8684   20339579.105
        56.0004         52.0004
  -9342497.65848  -7230568.36247  22990846.2964   22990850.3334   22990846.433
        48.0004         44.0004
  -1822202.92547  -1414141.96046  24120080.9334   24120082.4644   24120084.937
        42.0004         37.0004
 15  1  1  0  2 32.0000000  0  7G02G29G24G25G12G06G14
 -19847304.25949 -15456119.75148  21240737.7194   21240736.9544   21240738.203
        54.0004         49.0004
 -18930541.11648 -14689658.95447  22039288.3924   22039290.1294   22039288.762
        51.0004         46.0004
 -12355882.75248  -9572402.11347  22405864.2874   22405868.7104   22405864.683
        50.0004         45.0004
 -23931268.40349 -18604977.85548  20893116.8864   20893120.8614   20893117.045
        54.0004         50.0004
 -25301473.58649 -19656089.57548  20339711.9014   20339712.4754   20339711.722
        56.0004         52.0004
  -9340000.20448  -7228622.29247  22991321.8444   22991327.1934   22991321.622
        48.0004         44.0004
  -1820682.66647  -1412957.34446  24120369.7464   24120372.3114   24120374.248
        42.0004         37.0004
 15  1  1  0  2 33.0000000  0  7G02G29G24G25G12G06G14
 -19847307.65949 -15456122.39948  21240737.2874   21240736.5524   21240737.569
        54.0004         49.0004
 -18933076.55248 -14691634.61947  22038806.8324   22038807.7424   22038806.328
        51.0004         46.0004
 -12352660.59848  -9569891.34547  22406478.2024   22406482.0014   22406477.829
        50.0004         45.0004
 -23932993.27149 -18606321.90948  20892788.5774   20892792.6824   20892788.870
        54.0004         50.0004
 -25300776.09749 -19655546.07748  20339844.5684   20339845.1974   20339844.465
        56.0004         52.0004
  -9337502.19048  -7226675.78647  22991797.4824   22991801.3584   22991797.005
        48.0004         44.0004
  -1819161.85147  -1411772.29446  24120659.5014   24120661.5964   24120663.328
        42.0004         37.0004
 15  1  1  0  2 34.0000000  0  7G02G29G24G25G12G06G14
 -19847310.62549 -15456124.71248  21240736.2834   21240735.9744   21240737.046
        54.0004         49.0004
 -18935611.82848 -14693610.16047  22038323.4874   22038324.6934   22038323.982
        51.0004         47.0004
 -12349438.29948  -9567380.46647  22407090.6024   22407095.0354   22407091.067
        50.0004         45.0004
 -23934717.95649 -18607665.82148  20892460.4234   20892464.5994   20892460.702
        54.0004         50.0004
 -25300078.35749 -19655002.38648  20339977.4764   20339977.9874   20339977.258
        56.0004         52.0004
  -9335003.85748  -7224729.03647  22992272.4414   22992277.3994   22992272.461
        48.0004         44.0004
  -1817640.72347  -1410586.99946  24120948.4624   24120949.9714   24120952.105
        42.0004         37.0004
 15  1  1  0  2 35.0000000  0  7G02G29G24G25G12G06G14
 -19847313.20049 -15456126.71948  21240735.9454   21240735.0354   21240736.626
        54.0004         49.0004
 -18938146.99548 -14695585.61847  22037841.7954   22037842.6964   22037841.649
        51.0004         47.0004
 -12346215.85548  -9564869.46947  22407704.1054   22407708.0754   22407704.345
        50.0004         45.0004
 -23936442.51049 -18609009.62848  20892132.3564   20892136.3474   20892132.497
        54.0004         50.0004
 -25299380.39749 -19654458.51948  20340110.1564   20340110.7244   20340110.160
        56.0004         52.0004
  -9332505.25748  -7222782.07347  22992746.9524   22992753.1474   22992747.776
        48.0004         44.0004
  -1816119.30847  -1409401.48546  24121237.6484   24121239.6594   24121241.227
        42.0004         37.0004
 15  1  1  0  2 36.0000000  0  7G02G29G24G25G12G06G14
 -19847314.82449 -15456127.98348  21240735.4694   21240734.8394   21240736.313
        54.0004         49.0004
 -18940681.48648 -14697560.54647  22037359.5934   22037360.9384   22037359.426
        51.0004         46.0004
 -12342992.72648  -9562357.93947  22408317.8974   22408322.3574   22408317.690
        50.0004         45.0004
 -23938166.37649 -18610352.90048  20891804.1434   20891808.4374   20891804.486
        54.0004         50.0004
 -25298681.66749 -19653914.05648  20340243.1414   20340243.6974   20340243.197
        56.0004         52.0004
  -9330005.82848  -7220834.46747  22993224.2844   22993228.3974   22993223.393
        48.0004         44.0004
  -1814597.06647  -1408215.32546  24121527.4984   24121529.4764   24121530.288
        42.0004         37.0004
 15  1  1  0  2 37.0000000  0  7G02G29G24G25G12G06G14
 -19847315.97149 -15456128.87848  21240735.3944   21240734.6334   21240736.177
        54.0004         49.0004
 -18943215.76448 -14699535.30547  22036876.9534   22036877.6754   22036877.267
        51.0004         46.0004
 -12339769.36648  -9559846.23547  22408930.5954   22408933.9174   22408931.150
        50.0004         45.0004
 -23939890.00049 -18611695.98448  20891476.0754   20891480.2744   20891476.572
        54.0004         50.0004
 -25297982.62649 -19653369.34948  20340376.0104   20340376.7474   20340376.260
        56.0004         52.0004
  -9327506.00748  -7218886.55647  22993697.6804   22993704.0634   22993699.068
        48.0004         44.0004
  -1813074.46247  -1407028.88446  24121817.8254   24121819.3344   24121819.942
        42.0004         37.0004
 15  1  1  0  2 38.0000000  0  7G02G29G24G25G12G06G14
 -19847316.80149 -15456129.52448  21240734.8784   21240734.5744   21240736.020
        54.0004         49.0004
 -18945750.01348 -14701510.04447  22036394.8374   22036396.3104   22036395.182
        51.0004         46.0004
 -12336545.97548  -9557334.50047  22409544.3584   22409548.7594   22409544.553
        50.0004         45.0004
 -23941613.57349 -18613039.02748  20891148.2594   20891152.3704   20891148.640
        54.0004         50.0004
 -25297283.45049 -19652824.53848  20340509.2374   20340509.7644   20340509.311
        56.0004         52.0004
  -9325006.00248  -7216938.50547  22994175.2104   22994179.4954   22994174.691
        48.0004         44.0004
  -1811551.67547  -1405842.30046  24122109.7734   24122109.5734   24122109.817
        42.0004         37.0004
 15  1  1  0  2 39.0000000  0  7G02G29G24G25G12G06G14
 -19847317.03049 -15456129.70048  21240734.8914   21240734.5924   21240735.951
        54.0004         49.0004
 -18948283.93648 -14703484.53247  22035913.0614   22035913.5324   22035913.096
        51.0004         47.0004
 -12333322.20548  -9554822.46847  22410158.3734   22410161.6244   22410157.986
        50.0004         45.0004
 -23943336.80249 -18614381.80448  20890820.3254   20890824.1334   20890820.715
        54.0004         50.0004
 -25296583.85149 -19652279.39548  20340642.2424   20340642.9354   20340642.493
        56.0004         52.0004
  -9322505.50048  -7214990.05747  22994650.6484   22994654.9534   22994650.570
        48.0004         44.0004
  -1810028.42347  -1404655.35446  24122400.4424   24122399.7624   24122399.786
        42.0004         37.0004
 15  1  1  0  2 40.0000000  0  7G02G29G24G25G12G06G14
 -19847316.52349 -15456129.30548  21240734.8884   21240734.9064   21240736.018
        54.0004         49.0004
 -18950817.39948 -14705458.65747  22035430.6624   22035432.0544   22035431.105
        51.0004         46.0004
 -12330097.98648  -9552310.09447  22410770.9324   22410775.4014   22410771.520
        50.0004         45.0004
 -23945059.55449 -18615724.20848  20890492.2144   20890496.7664   20890492.866
        54.0004         50.0004
 -25295883.69349 -19651733.81848  20340775.5774   20340776.0814   20340775.803
        56.0004         52.0004
  -9320004.39148  -7213041.15047  22995126.1084   22995130.8534   22995126.553
        48.0004         44.0004
  -1808504.54247  -1403467.91746  24122690.1824   24122691.3074   24122690.101
        42.0004         37.0004
 15  1  1  0  2 41.0000000  0  7G02G29G24G25G12G06G14
 -19847315.28549 -15456128.33948  21240735.1324   21240735.1484   21240736.138
        54.0004         49.0004
 -18953350.41648 -14707432.43647  22034948.4594   22034949.8274   22034949.194
        51.0004         46.0004
 -12326873.29448  -9549797.34747  22411385.1674   22411388.9344   22411385.152
        50.0004         45.0004
 -23946781.83649 -18617066.24548  20890164.5184   20890168.4644   20890165.145
        54.0004         50.0004
 -25295182.98149 -19651187.81048  20340908.8444   20340909.4844   20340909.144
        56.0004         52.0004
  -9317502.67048  -7211091.75847  22995602.2534   22995607.6144   22995602.554
        48.0004         44.0004
  -1806980.07147  -1402280.02246  24122980.1154   24122981.9034   24122980.296
        42.0004         37.0004
 15  1  1  0  2 42.0000000  0  7G02G29G24G25G12G06G14
 -19847313.64949 -15456127.06348  21240735.6674   21240735.1594   21240736.333
        54.0004         49.0004
 -18955883.30648 -14709406.11447  22034466.3534   22034467.9324   22034467.246
        51.0004         46.0004
 -12323648.47848  -9547284.50347  22411999.0174   22412002.1174   22411998.872
        50.0004         45.0004
 -23948503.97549 -18618408.17148  20889837.0754   20889841.4304   20889837.472
        54.0004         50.0004
 -25294482.05449 -19650641.63248  20341042.3554   20341043.0524   20341042.531
        56.0004         52.0004
  -9315000.67548  -7209142.14947  22996079.1864   22996082.9824   22996078.698
        48.0004         44.0004
  -1805455.31547  -1401091.90146  24123270.8254   24123271.9234   24123270.706
        42.0004         37.0004
 15  1  1  0  2 43.0000000  0  7G02G29G24G25G12G06G14
 -19847311.66049 -15456125.51348  21240735.9814   21240735.5814   21240736.693
        54.0004         49.0004
 -18958416.12548 -14711379.74047  22033984.5654   22033985.4674   22033985.287
        51.0004         47.0004
 -12320423.55248  -9544771.57247  22412611.5724   22412616.3674   22412612.573
        50.0004         45.0004
 -23950226.01949 -18619750.02448  20889509.1784   20889513.4124   20889509.773
        54.0004         50.0004
 -25293780.94549 -19650095.31448  20341175.7444   20341176.2844   20341175.967
        56.0004         52.0004
  -9312498.42748  -7207192.34547  22996555.1444   22996559.3964   22996554.892
        48.0004         44.0004
  -1803930.32647  -1399903.60546  24123561.2114   24123561.6994   24123561.156
        42.0004         37.0004
 15  1  1  0  2 44.0000000  0  7G02G29G24G25G12G06G14
 -19847308.63649 -15456123.15748  21240736.6424   21240735.9784   21240737.254
        54.0004         49.0004
 -18960948.17748 -14713352.76647  22033502.6934   22033504.6444   22033503.443
        51.0004         46.0004
 -12317197.85948  -9542258.04647  22413226.0824   22413230.2404   22413226.397
        50.0004         45.0004
 -23951947.28649 -18621091.27148  20889181.4504   20889185.8244   20889182.215
        54.0004         50.0004
 -25293078.96949 -19649548.32048  20341309.1524   20341309.8474   20341309.547
        56.0004         52.0004
  -9309995.25948  -7205241.82047  22997031.1614   22997035.8384   22997031.196
        48.0004         44.0004
  -1802404.40047  -1398714.57246  24123850.7974   24123851.0634   24123851.518
        42.0004         37.0004
 15  1  1  0  2 45.0000000  0  7G02G29G24G25G12G06G14
 -19847304.81749 -15456120.18248  21240737.0734   21240737.1154   21240737.898
        54.0004         49.0004
 -18963479.71648 -14715325.39647  22033021.3954   22033021.6674   22033021.609
        51.0004         46.0004
 -12313971.65848  -9539744.12347  22413840.1864   22413844.3684   22413840.246
        50.0004         45.0004
 -23953668.02149 -18622432.10748  20888854.1914   20888858.0564   20888854.800
        54.0004         50.0004
 -25292376.38849 -19649000.85548  20341442.9614   20341443.5174   20341443.183
        56.0004         52.0004
  -9307491.42448  -7203290.78047  22997507.8374   22997512.7204   22997507.612
        48.0004         44.0004
  -1800877.82447  -1397525.03546  24124141.4664   24124141.7854   24124142.220
        42.0004         37.0004
 15  1  1  0  2 46.0000000  0  7G02G29G24G25G12G06G14
 -19847300.24149 -15456116.61648  21240737.8144   21240737.9404   21240738.713
        54.0004         49.0004
 -18966010.77648 -14717297.65047  22032539.5154   22032540.5194   22032539.948
        51.0004         47.0004
 -12310744.95048  -9537229.80747  22414454.5414   22414458.1724   22414454.360
        50.0004         45.0004
 -23955388.24749 -18623772.54148  20888526.8134   20888530.7424   20888527.463
        54.0004         50.0004
 -25291673.22249 -19648452.93348  20341576.8014   20341577.1994   20341576.953
        56.0004         52.0004
  -9304986.94648  -7201339.23847  22997985.3814   22997989.1214   22997984.166
        48.0004         44.0004
  -1799350.61247  -1396335.00346  24124431.9934   24124432.8654   24124432.734
        42.0004         37.0004
 15  1  1  0  2 47.0000000  0  7G02G29G24G25G12G06G14
 -19847295.23449 -15456112.71448  21240738.8834   21240738.6714   21240739.635
        54.0004         49.0004
 -18968541.67948 -14719269.78047  22032058.3074   22032059.2184   22032058.327
        51.0004         46.0004
 -12307518.05248  -9534715.34347  22415067.9034   22415071.9554   22415068.463
        50.0004         45.0004
 -23957108.29749 -18625112.84048  20888199.6004   20888203.4884   20888200.133
        54.0004         50.0004
 -25290969.80249 -19647904.81448  20341710.5704   20341711.1484   20341710.778
        56.0004         52.0004
  -9302482.16048  -7199387.46147  22998461.9854   22998465.2604   22998460.672
        48.0004         44.0004
  -1797823.09147  -1395144.73146  24124723.2364   24124723.6384   24124723.557
        42.0004         37.0004
 15  1  1  0  2 48.0000000  0  7G02G29G24G25G12G06G14
 -19847289.98949 -15456108.62748  21240739.7474   21240739.7214   21240740.587
        54.0004         49.0004
 -18971072.61348 -14721241.93747  22031576.2654   22031577.4024   22031576.619
        51.0004         46.0004
 -12304291.18648  -9532200.90147  22415681.6464   22415685.9534   22415682.510
        50.0004         45.0004
 -23958828.35949 -18626453.14948  20887872.3204   20887876.5314   20887872.822
        54.0004         50.0004
 -25290266.31749 -19647356.64548  20341844.4884   20341844.8934   20341844.606
        56.0004         52.0004
  -9299977.22248  -7197435.56747  22998938.1154   22998942.4504   22998937.281
        48.0004         44.0004
  -1796295.41947  -1393954.33946  24125014.8494   24125013.8074   24125014.327
        42.0004         37.0004
 15  1  1  0  2 49.0000000  0  7G02G29G24G25G12G06G14
 -19847284.31949 -15456104.20748  21240740.9974   21240740.7124   21240741.665
        54.0004         49.0004
 -18973603.40948 -14723213.98447  22031094.6114   22031095.7244   22031094.886
        51.0004         46.0004
 -12301064.14548  -9529686.32647  22416296.4234   22416300.0034   22416296.525
        50.0004         45.0004
 -23960548.26949 -18627793.33648  20887544.9624   20887549.1114   20887545.516
        54.0004         50.0004
 -25289562.59649 -19646808.29048  20341978.1064   20341978.9574   20341978.444
        56.0004         52.0004
  -9297472.00748  -7195483.45147  22999414.4414   22999418.3184   22999414.100
        48.0004         43.0004
  -1794767.48047  -1392763.73846  24125305.1074   24125305.0654   24125305.223
        42.0004         37.0004
 15  1  1  0  2 50.0000000  0  7G02G29G24G25G12G06G14
 -19847277.86049 -15456099.17348  21240742.4214   21240741.9494   21240742.881
        54.0004         49.0004
 -18976133.69448 -14725185.63547  22030613.3454   22030614.1954   22030613.213
        51.0004         46.0004
 -12297836.57548  -9527171.33647  22416910.6784   22416914.6284   22416910.595
        50.0004         45.0004
 -23962267.63549 -18629133.10248  20887217.7904   20887221.4854   20887218.352
        54.0004         50.0004
 -25288858.25749 -19646259.45448  20342112.3614   20342112.9764   20342112.377
        56.0004         52.0004
  -9294966.11048  -7193530.80147  22999891.5744   22999896.4694   22999890.902
        48.0004         43.0004
  -1793238.84447  -1391572.59846  24125595.7274   24125595.6994   24125596.259
        42.0004         37.0004
 15  1  1  0  2 51.0000000  0  7G02G29G24G25G12G06G14
 -19847270.80249 -15456093.67448  21240743.5164   21240743.3934   21240744.183
        54.0004         49.0004
 -18978663.64848 -14727157.02947  22030132.0924   22030132.9204   22030131.735
        51.0004         47.0004
 -12294608.67048  -9524656.09247  22417523.7234   22417528.7964   22417524.900
        50.0004         45.0004
 -23963986.66149 -18630472.60448  20886890.4924   20886894.5754   20886891.321
        54.0004         50.0004
 -25288153.49649 -19645710.28948  20342246.4814   20342246.9534   20342246.446
        56.0004         52.0004
  -9292459.73048  -7191577.78047  23000369.2264   23000372.0444   23000367.888
        48.0004         43.0004
  -1791709.74347  -1390381.09246  24125886.8844   24125886.1874   24125887.229
        42.0004         37.0004
 15  1  1  0  2 52.0000000  0  7G02G29G24G25G12G06G14
 -19847263.45349 -15456087.94648  21240745.0904   21240744.4604   21240745.613
        54.0004         49.0004
 -18981193.59548 -14729128.41247  22029650.3534   22029651.3344   22029650.215
        51.0004         47.0004
 -12291380.73148  -9522140.81347  22418138.2934   22418142.7554   22418139.082
        50.0004         45.0004
 -23965705.65149 -18631812.07648  20886563.7864   20886567.7124   20886564.262
        54.0004         50.0004
 -25287448.62649 -19645161.04048  20342380.5364   20342381.1234   20342380.545
        56.0004         52.0004
  -9289953.18348  -7189624.62047  23000844.5634   23000850.0754   23000844.961
        48.0004         44.0004
  -1790180.46247  -1389189.44546  24126177.0394   24126177.9634   24126178.189
        42.0004         37.0004
 15  1  1  0  2 53.0000000  0  7G02G29G24G25G12G06G14
 -19847255.61249 -15456081.83648  21240746.3154   21240746.3054   21240747.153
        54.0004         49.0004
 -18983723.31748 -14731099.62547  22029169.0854   22029169.6454   22029168.701
        51.0004         46.0004
 -12288152.55748  -9519625.35147  22418753.7514   22418757.4924   22418753.297
        50.0004         45.0004
 -23967424.39649 -18633151.35548  20886236.3044   20886240.3284   20886237.243
        54.0004         50.0004
 -25286743.43449 -19644611.54048  20342514.7634   20342515.3464   20342514.676
        56.0004         52.0004
  -9287446.25348  -7187671.17647  23001322.0574   23001326.9854   23001321.967
        48.0004         43.0004
  -1788650.80147  -1387997.50346  24126467.8934   24126469.0434   24126469.353
        42.0004         37.0004
 15  1  1  0  2 54.0000000  0  7G02G29G24G25G12G06G14
 -19847247.08449 -15456075.19148  21240748.1004   21240747.7854   21240748.842
        54.0004         49.0004
 -18986252.63148 -14733070.51947  22028687.4174   22028688.3604   22028687.454
        51.0004         46.0004
 -12284923.96648  -9517109.57047  22419367.3824   22419371.6334   22419367.671
        50.0004         45.0004
 -23969142.71849 -18634490.30748  20885909.2714   20885913.5034   20885910.199
        54.0004         50.0004
 -25286037.73949 -19644061.64748  20342648.7624   20342649.4964   20342648.867
        56.0004         52.0004
  -9284938.76248  -7185717.28247  23001799.8854   23001803.4064   23001799.153
        48.0004         44.0004
  -1787120.59347  -1386805.13846  24126758.5784   24126759.5044   24126760.236
        42.0004         37.0004
 15  1  1  0  2 55.0000000  0  7G02G29G24G25G12G06G14
 -19847237.77949 -15456067.93948  21240749.7084   21240749.6724   21240750.711
        54.0004         49.0004
 -18988781.44948 -14735041.02447  22028206.7074   22028207.0504   22028206.274
        51.0004         46.0004
 -12281694.85048  -9514593.37147  22419982.1944   22419986.5344   22419982.116
        50.0004         45.0004
 -23970860.51149 -18635828.84948  20885582.6764   20885586.7484   20885583.327
        54.0004         50.0004
 -25285331.44349 -19643511.28548  20342783.1904   20342784.1774   20342783.215
        56.0004         52.0004
  -9282430.59848  -7183762.86847  23002276.9364   23002281.0404   23002276.356
        48.0004         43.0004
  -1785589.72547  -1385612.25446  24127050.2204   24127050.7884   24127051.785
        42.0004         38.0004
 15  1  1  0  2 56.0000000  0  7G02G29G24G25G12G06G14
 -19847227.78549 -15456060.15048  21240751.5474   21240751.1554   21240752.644
        54.0004         49.0004
 -18991309.85148 -14737011.20747  22027725.9354   22027725.9104   22027725.083
        51.0004         46.0004
 -12278465.31448  -9512076.84947  22420596.0014   22420601.2884   22420596.646
        50.0004         45.0004
 -23972577.87549 -18637167.05548  20885255.5834   20885259.6474   20885256.518
        54.0004         50.0004
 -25284624.63649 -19642960.52648  20342917.8494   20342918.5054   20342917.714
        56.0004         52.0004
  -9279921.86748  -7181808.01647  23002754.3664   23002757.9654   23002753.705
        48.0004         43.0004
  -1784058.27047  -1384418.91446  24127342.4864   24127342.3824   24127343.542
        42.0004         38.0004
 15  1  1  0  2 57.0000000  0  7G02G29G24G25G12G06G14
 -19847217.17649 -15456051.88148  21240753.5844   21240753.6264   21240754.696
        54.0004         49.0004
 -18993837.91448 -14738981.12447  22027243.7634   22027244.9734   22027243.917
        51.0004         46.0004
 -12275235.43348  -9509560.05547  22421211.4074   22421215.6964   22421211.246
        50.0004         45.0004
 -23974294.87549 -18638504.97548  20884928.9734   20884932.8814   20884929.757
        54.0004         50.0004
 -25283917.39349 -19642409.42848  20343052.4204   20343052.9764   20343052.235
        56.0004         52.0004
  -9277412.64248  -7179852.77147  23003231.4294   23003237.3294   23003231.296
        48.0004         43.0004
  -1782526.34147  -1383225.20046  24127634.4224   24127633.0474   24127635.213
        42.0004         38.0004
 15  1  1  0  2 58.0000000  0  7G02G29G24G25G12G06G14
 -19847206.02249 -15456043.19148  21240756.2144   21240755.5344   21240756.845
        54.0004         49.0004
 -18996365.70448 -14740950.83347  22026764.2944   22026764.1494   22026762.954
        51.0004         46.0004
 -12272005.28248  -9507043.06247  22421825.4344   22421829.8054   22421825.846
        50.0004         45.0004
 -23976011.58749 -18639842.67648  20884602.4414   20884606.2664   20884603.040
        54.0004         50.0004
 -25283209.77849 -19641858.04048  20343186.9824   20343187.5824   20343186.832
        56.0004         52.0004
  -9274902.98148  -7177897.19347  23003709.4674   23003713.8984   23003708.905
        48.0004         43.0004
  -1780993.98947  -1382031.16146  24127925.4554   24127924.8964   24127926.842
        42.0004         38.0004
 15  1  1  0  2 59.0000000  0  7G02G29G24G25G12G06G14
 -19847194.19249 -15456033.97048  21240758.3574   21240757.8414   21240759.104
        54.0004         49.0004
 -18998893.10848 -14742920.23947  22026282.1494   22026282.8694   22026282.016
        51.0004         46.0004
 -12268774.71448  -9504525.73647  22422440.4204   22422444.9394   22422440.481
        50.0004         45.0004
 -23977727.89649 -18641180.05848  20884275.7544   20884279.8334   20884276.443
        54.0004         50.0004
 -25282501.66349 -19641306.26148  20343321.8424   20343322.3504   20343321.552
        56.0004         52.0004
  -9272392.77848  -7175941.18547  23004188.2354   23004190.0234   23004186.743
        48.0004         43.0004
  -1779461.08147  -1380836.68746  24128217.3414   24128216.7114   24128218.494
        42.0004         38.0004
 15  1  1  0  3  0.0000000  0  7G02G29G24G25G12G06G14
 -19847181.72049 -15456024.25448  21240760.5274   21240760.3244   21240761.468
        54.0004         49.0004
 -19001420.14248 -14744889.35647  22025801.6474   22025802.1684   22025801.151
        51.0004         46.0004
 -12265543.76648  -9502008.11747  22423055.5254   22423059.8424   22423055.223
        50.0004         45.0004
 -23979443.80049 -18642517.12648  20883949.3734   20883953.3384   20883949.864
        54.0004         50.0004
 -25281793.08949 -19640754.12748  20343456.5244   20343457.4824   20343456.402
        56.0004         52.0004
  -9269882.04148  -7173984.76647  23004664.5524   23004668.9994   23004664.517
        48.0004         43.0004
  -1777927.65047  -1379641.80846  24128509.5114   24128508.3824   24128510.242
        42.0004         38.0004
 15  1  1  0  3  1.0000000  0  7G02G29G24G25G12G06G14
 -19847168.78449 -15456014.17048  21240762.9024   21240762.3034   21240763.914
        54.0004         49.0004
 -19003946.99248 -14746858.32947  22025320.7474   22025320.7994   22025320.361
        51.0004         46.0004
 -12262312.62948  -9499490.35047  22423669.9004   22423674.2354   22423670.032
        50.0004         45.0004
 -23981159.51049 -18643854.04348  20883622.8824   20883626.7104   20883623.348
        54.0004         50.0004
 -25281084.22549 -19640201.76548  20343591.4174   20343592.2364   20343591.297
        56.0004         52.0004
  -9267370.95548  -7172028.07747  23005143.7404   23005146.4954   23005142.307
        48.0004         43.0004
  -1776393.89647  -1378446.67346  24128800.4024   24128800.5914   24128802.015
        42.0004         38.0004
 15  1  1  0  3  2.0000000  0  7G02G29G24G25G12G06G14
 -19847155.14749 -15456003.54448  21240765.7104   21240765.3094   21240766.464
        54.0004         49.0004
 -19006473.41748 -14748826.97447  22024839.8184   22024840.3464   22024839.625
        51.0004         46.0004
 -12259081.04348  -9496972.22847  22424284.5304   22424289.4834   22424284.999
        50.0004         45.0004
 -23982874.77249 -18645190.61248  20883296.3054   20883300.4044   20883296.894
        54.0004         50.0004
 -25280374.84549 -19639649.00348  20343726.2254   20343727.0124   20343726.247
        56.0004         52.0004
  -9264859.29248  -7170070.93547  23005620.4534   23005624.9614   23005620.277
        48.0004         43.0004
  -1774859.55347  -1377251.08046  24129091.9724   24129093.4304   24129093.659
        42.0004         38.0004
 15  1  1  0  3  3.0000000  0  7G02G29G24G25G12G06G14
 -19847141.31149 -15455992.76548  21240768.3744   21240767.6074   21240769.047
        54.0004         49.0004
 -19008999.91348 -14750795.67747  22024358.6774   22024359.4934   22024358.846
        51.0004         46.0004
 -12255849.53048  -9494454.16647  22424899.6584   22424904.4954   22424899.866
        50.0004         45.0004
 -23984590.08949 -18646527.22348  20882970.0964   20882973.9254   20882970.430
        54.0004         50.0004
 -25279665.43949 -19639096.21848  20343861.3894   20343862.2774   20343861.204
        56.0004         52.0004
  -9262347.55748  -7168113.74647  23006099.2524   23006101.6684   23006098.236
        48.0004         43.0004
  -1773325.13347  -1376055.43146  24129383.9794   24129384.8814   24129385.121
        42.0004         38.0004
 15  1  1  0  3  4.0000000  0  7G02G29G24G25G12G06G14
 -19847126.97849 -15455981.59248  21240770.8164   21240770.7364   21240771.785
        54.0004         49.0004
 -19011526.19948 -14752764.20947  22023878.1694   22023879.1174   22023878.213
        51.0004         46.0004
 -12252617.77748  -9491935.92147  22425514.8784   22425519.1844   22425514.856
        50.0004         45.0004
 -23986305.16749 -18647863.64448  20882643.9244   20882647.9884   20882644.022
        54.0004         50.0004
 -25278955.71849 -19638543.18748  20343996.3204   20343997.0704   20343996.250
        56.0004         52.0004
  -9259835.44848  -7166156.25347  23006576.4434   23006580.6864   23006576.283
        48.0004         43.0004
  -1771790.34747  -1374859.49446  24129676.0444   24129677.1744   24129677.130
        42.0004         38.0004
 15  1  1  0  3  5.0000000  0  7G02G29G24G25G12G06G14
 -19847112.02249 -15455969.93948  21240773.6744   21240773.3394   21240774.617
        54.0004         49.0004
 -19014052.13748 -14754732.47447  22023397.5274   22023398.2754   22023397.594
        51.0004         46.0004
 -12249385.67948  -9489417.40247  22426130.4214   22426135.3394   22426129.762
        50.0004         45.0004
 -23988019.88049 -18649199.78548  20882317.5044   20882321.2614   20882317.674
        54.0004         50.0004
 -25278245.55449 -19637989.81448  20344131.5504   20344131.9894   20344131.385
        56.0004         52.0004
  -9257322.82248  -7164198.36347  23007054.1194   23007057.7764   23007054.485
        48.0004         43.0004
  -1770255.05447  -1373663.16246  24129969.1554   24129969.2084   24129969.249
        42.0004         38.0004
 15  1  1  0  3  6.0000000  0  7G02G29G24G25G12G06G14
 -19847096.39649 -15455957.76348  21240776.9474   21240776.2844   21240777.611
        54.0004         49.0004
 -19016577.67948 -14756700.42647  22022917.2374   22022917.7434   22022916.834
        51.0004         47.0004
 -12246153.17048  -9486898.56247  22426745.2994   22426749.8844   22426744.780
        50.0004         45.0004
 -23989734.17649 -18650535.60148  20881991.2784   20881995.3654   20881991.395
        54.0004         50.0004
 -25277534.89449 -19637436.05348  20344266.7354   20344267.5434   20344266.640
        56.0004         52.0004
  -9254809.65448  -7162240.05047  23007533.0314   23007536.2354   23007532.821
        48.0004         43.0004
  -1768719.21847  -1372466.40746  24130262.2784   24130261.1044   24130261.415
        42.0004         38.0004
 15  1  1  0  3  7.0000000  0  7G02G29G24G25G12G06G14
 -19847080.30949 -15455945.22748  21240779.7884   21240779.4704   21240780.673
        54.0004         49.0004
 -19019103.04248 -14758668.24147  22022436.3684   22022436.9564   22022436.224
        51.0004         46.0004
 -12242920.46048  -9484379.56847  22427361.0484   22427365.1194   22427359.909
        50.0004         45.0004
 -23991448.26749 -18651871.25948  20881665.0354   20881669.1124   20881665.149
        54.0004         50.0004
 -25276823.95549 -19636882.07348  20344402.0824   20344402.7344   20344401.985
        56.0004         52.0004
  -9252296.14148  -7160281.47047  23008011.1334   23008014.2514   23008011.100
        48.0004         43.0004
  -1767183.02847  -1371269.37446  24130555.2444   24130552.4874   24130553.818
        42.0004         38.0004
 15  1  1  0  3  8.0000000  0  7G02G29G24G25G12G06G14
 -19847063.70749 -15455932.28948  21240782.9494   21240782.3694   21240783.802
        54.0004         49.0004
 -19021628.17348 -14760635.87447  22021955.7804   22021955.8024   22021955.718
        51.0004         46.0004
 -12239687.51148  -9481860.38947  22427976.1344   22427979.8444   22427975.108
        50.0004         46.0004
 -23993162.10649 -18653206.71848  20881338.9974   20881343.0434   20881339.031
        54.0004         50.0004
 -25276112.69749 -19636327.84648  20344537.4204   20344538.0944   20344537.386
        56.0004         52.0004
  -9249782.23248  -7158322.58047  23008489.3404   23008494.4264   23008489.322
        48.0004         43.0004
  -1765646.47747  -1370072.06146  24130847.1774   24130845.0284   24130846.704
        42.0004         38.0004
 15  1  1  0  3  9.0000000  0  7G02G29G24G25G12G06G14
 -19847046.71449 -15455919.04648  21240786.3774   21240785.5314   21240787.033
        54.0004         49.0004
 -19024153.17948 -14762603.41047  22021475.1984   22021476.6114   22021475.297
        51.0004         46.0004
 -12236454.42748  -9479341.10247  22428590.6484   22428595.3374   22428590.354
        50.0004         45.0004
 -23994875.79649 -18654542.06148  20881012.9354   20881016.7374   20881012.831
        54.0004         50.0004
 -25275401.20849 -19635773.43848  20344672.6604   20344673.5344   20344672.867
        56.0004         52.0004
  -9247268.05048  -7156363.47747  23008968.3204   23008971.8174   23008967.759
        48.0004         43.0004
  -1764109.63147  -1368874.52046  24131140.2464   24131138.1084   24131139.570
        42.0004         38.0004
 15  1  1  0  3 10.0000000  0  7G02G29G24G25G12G06G14
 -19847028.74649 -15455905.04448  21240789.9824   21240789.1194   21240790.468
        54.0004         49.0004
 -19026677.49448 -14764570.40747  22020994.9064   22020995.7274   22020995.019
        51.0004         46.0004
 -12233220.61848  -9476821.24947  22429206.5314   22429210.4564   22429205.682
        50.0004         46.0004
 -23996588.78349 -18655876.85548  20880686.8464   20880691.0254   20880686.822
        54.0004         50.0004
 -25274688.92849 -19635218.41548  20344808.4394   20344808.9634   20344808.448
        56.0004         52.0004
  -9244753.02248  -7154403.71847  23009446.6924   23009450.4734   23009446.342
        48.0004         43.0004
  -1762571.95547  -1367676.32846  24131432.6674   24131431.5164   24131432.524
        42.0004         38.0004
 15  1  1  0  3 11.0000000  0  7G02G29G24G25G12G06G14
 -19847010.29949 -15455890.66948  21240793.1474   21240792.4904   21240793.995
        54.0004         49.0004
 -19029201.61248 -14766537.25547  22020514.8314   22020515.5564   22020514.757
        51.0004         46.0004
 -12229986.58448  -9474301.22847  22429821.4554   22429825.9924   22429821.023
        50.0004         45.0004
 -23998301.54149 -18657211.47348  20880361.1434   20880364.9954   20880360.828
        54.0004         50.0004
 -25273976.35349 -19634663.16248  20344943.8474   20344944.5124   20344944.037
        56.0004         52.0004
  -9242237.63248  -7152443.67747  23009925.5604   23009929.4704   23009924.955
        48.0004         43.0004
  -1761033.92247  -1366477.85946  24131724.9944   24131724.3204   24131725.679
        42.0004         38.0004
 15  1  1  0  3 12.0000000  0  7G02G29G24G25G12G06G14
 -19846991.13549 -15455875.73948  21240797.0134   21240796.2794   21240797.624
        54.0004         49.0004
 -19031725.28848 -14768503.75747  22020034.0004   22020035.1074   22020034.631
        51.0004         46.0004
 -12226752.10048  -9471780.85047  22430437.3834   22430441.4814   22430436.470
        50.0004         46.0004
 -24000013.83849 -18658545.73048  20880035.1814   20880039.4034   20880034.981
        54.0004         50.0004
 -25273263.23049 -19634107.48048  20345079.7454   20345080.2074   20345079.734
        56.0004         52.0004
  -9239721.63148  -7150483.15547  23010403.8804   23010408.7604   23010403.743
        48.0004         43.0004
  -1759495.27647  -1365278.91546  24132015.9034   24132017.0084   24132018.400
        42.0004         38.0004
 15  1  1  0  3 13.0000000  0  7G02G29G24G25G12G06G14
 -19846971.40749 -15455860.36648  21240800.4674   21240799.9524   21240801.309
        54.0004         49.0004
 -19034248.67648 -14770470.03147  22019553.6214   22019554.7014   22019554.432
        51.0004         46.0004
 -12223517.33648  -9469260.25847  22431053.6664   22431057.1234   22431052.113
        50.0004         45.0004
 -24001725.81649 -18659879.73848  20879709.5894   20879713.2404   20879709.217
        54.0004         50.0004
 -25272549.73049 -19633551.50548  20345215.5534   20345216.1364   20345215.482
        56.0004         52.0004
  -9237205.20348  -7148522.29947  23010882.5804   23010886.8114   23010882.501
        48.0004         43.0004
  -1757956.20747  -1364079.64146  24132308.1304   24132308.5984   24132310.925
        42.0004         38.0004
 15  1  1  0  3 14.0000000  0  7G02G29G24G25G12G06G14
 -19846950.66349 -15455844.20148  21240804.4374   21240804.3534   21240805.200
        54.0004         49.0004
 -19036771.32348 -14772435.72447  22019074.5404   22019074.6864   22019074.497
        51.0004         46.0004
 -12220281.80848  -9466739.06447  22431668.5034   22431672.9574   22431667.744
        50.0004         45.0004
 -24003437.03549 -18661213.15648  20879383.6774   20879387.5854   20879383.654
        54.0004         50.0004
 -25271835.39749 -19632994.88148  20345351.1614   20345351.9504   20345351.362
        56.0004         52.0004
  -9234687.86248  -7146560.73247  23011361.5834   23011366.3574   23011361.527
        48.0004         43.0004
  -1756416.22047  -1362879.65246  24132599.9354   24132601.2144   24132603.745
        42.0004         37.0004
 15  1  1  0  3 15.0000000  0  7G02G29G24G25G12G06G14
 -19846929.27649 -15455827.53648  21240808.8474   21240807.6544   21240809.325
        54.0004         49.0004
 -19039293.60348 -14774401.13947  22018593.6074   22018595.1984   22018594.639
        51.0004         46.0004
 -12217045.91748  -9464217.59147  22432284.2894   22432289.2364   22432283.519
        50.0004         46.0004
 -24005147.87749 -18662546.28048  20879058.1414   20879062.3744   20879058.128
        54.0004         50.0004
 -25271120.59749 -19632437.89348  20345487.1504   20345488.0724   20345487.302
        56.0004         52.0004
  -9232170.00748  -7144598.77247  23011840.5414   23011845.0894   23011840.555
        48.0004         43.0004
  -1754875.73247  -1361679.27346  24132893.2634   24132894.2564   24132896.336
        42.0004         37.0004
 15  1  1  0  3 16.0000000  0  7G02G29G24G25G12G06G14
 -19846907.53849 -15455810.59948  21240812.9764   21240812.4114   21240813.517
        54.0004         49.0004
 -19041815.80548 -14776366.49247  22018113.9244   22018114.9844   22018114.727
        51.0004         46.0004
 -12213809.90248  -9461696.02547  22432900.0414   22432904.2074   22432899.403
        50.0004         46.0004
 -24006858.60849 -18663879.31948  20878732.7874   20878736.7264   20878732.619
        54.0004         50.0004
 -25270405.62149 -19631880.76948  20345623.3284   20345624.3114   20345623.302
        56.0004         52.0004
  -9229651.90948  -7142636.61947  23012320.7494   23012324.3834   23012319.638
        48.0004         43.0004
  -1753335.00547  -1360478.70546  24133186.4004   24133187.6934   24133189.281
        42.0004         37.0004
 15  1  1  0  3 17.0000000  0  7G02G29G24G25G12G06G14
 -19846885.88649 -15455793.72648  21240817.0774   21240816.2244   21240817.721
        54.0004         49.0004
 -19044338.37448 -14778332.12647  22017633.9594   22017635.1574   22017634.656
        51.0004         46.0004
 -12210574.26048  -9459174.74347  22433515.6884   22433519.7024   22433515.238
        50.0004         46.0004
 -24008569.69449 -18665212.63548  20878407.2864   20878411.2924   20878407.087
        54.0004         50.0004
 -25269690.90949 -19631323.85148  20345759.2114   20345759.8894   20345759.187
        56.0004         52.0004
  -9227134.03348  -7140674.63947  23012799.2874   23012803.4674   23012798.716
        48.0004         43.0004
  -1751794.49447  -1359278.30646  24133479.6964   24133480.9264   24133482.082
        42.0004         37.0004
 15  1  1  0  3 18.0000000  0  7G02G29G24G25G12G06G14
 -19846863.24049 -15455776.07848  21240821.5234   21240820.2734   21240822.030
        54.0004         49.0004
 -19046860.22948 -14780297.20147  22017153.9734   22017154.5374   22017154.663
        51.0004         46.0004
 -12207337.90548  -9456652.90947  22434131.7154   22434136.1654   22434131.143
        50.0004         46.0004
 -24010280.04149 -18666545.37148  20878081.6254   20878085.7814   20878081.704
        54.0004         50.0004
 -25268975.38349 -19630766.29648  20345895.2514   20345896.3834   20345895.346
        56.0004         52.0004
  -9224615.26648  -7138711.95947  23013279.0804   23013282.9544   23013277.925
        48.0004         43.0004
  -1750253.11947  -1358077.23546  24133772.3624   24133775.2264   24133775.116
        42.0004         37.0004
 15  1  1  0  3 19.0000000  0  7G02G29G24G25G12G06G14
 -19846839.49149 -15455757.57348  21240826.1564   21240824.7834   21240826.599
        54.0004         49.0004
 -19049381.24348 -14782261.62947  22016673.9854   22016675.1644   22016674.946
        51.0004         46.0004
 -12204100.70548  -9454130.41747  22434748.7994   22434751.9934   22434747.268
        50.0004         46.0004
 -24011989.52449 -18667877.43548  20877756.5044   20877760.6674   20877756.431
        54.0004         50.0004
 -25268258.95349 -19630208.04048  20346031.6974   20346032.6144   20346031.654
        56.0004         52.0004
  -9222095.53148  -7136748.53247  23013758.6364   23013762.1584   23013757.354
        48.0004         43.0004
  -1748710.77147  -1356875.40546  24134065.8934   24134069.3224   24134068.442
        42.0004         37.0004
 15  1  1  0  3 20.0000000  0  7G02G29G24G25G12G06G14
 -19846815.22649 -15455738.66648  21240830.7344   21240829.6794   21240831.266
        54.0004         49.0004
 -19051902.02848 -14784225.87747  22016194.4954   22016195.6144   22016195.204
        51.0004         46.0004
 -12200863.26548  -9451607.74047  22435363.3404   22435368.0814   22435363.342
        50.0004         46.0004
 -24013698.75049 -18669209.30348  20877431.3084   20877435.3034   20877431.230
        54.0004         50.0004
 -25267542.18049 -19629649.51848  20346168.1004   20346169.0924   20346168.035
        56.0004         52.0004
  -9219575.38748  -7134784.78347  23014237.8974   23014241.7394   23014236.870
        48.0004         43.0004
  -1747168.01147  -1355673.25146  24134359.7454   24134363.2484   24134362.187
        42.0004         37.0004
 15  1  1  0  3 21.0000000  0  7G02G29G24G25G12G06G14
 -19846790.63849 -15455719.50648  21240835.3434   21240834.3704   21240835.977
        54.0004         49.0004
 -19054422.75448 -14786190.07647  22015714.5414   22015715.6864   22015715.469
        51.0004         46.0004
 -12197625.76048  -9449085.00747  22435979.6854   22435984.6784   22435979.539
        50.0004         46.0004
 -24015407.90649 -18670541.11248  20877105.9914   20877109.8654   20877106.085
        54.0004         50.0004
 -25266825.25849 -19629090.87748  20346304.7764   20346305.3524   20346304.450
        56.0004         52.0004
  -9217055.02548  -7132820.87347  23014717.3764   23014721.1594   23014716.465
        48.0004         43.0004
  -1745625.04447  -1354470.93746  24134654.5674   24134657.7654   24134656.043
        42.0004         37.0004
 15  1  1  0  3 22.0000000  0  7G02G29G24G25G12G06G14
 -19846765.59249 -15455699.98948  21240840.1744   21240838.9824   21240840.782
        54.0004         49.0004
 -19056943.28848 -14788154.13047  22015235.0504   22015235.9354   22015235.733
        51.0004         46.0004
 -12194388.05548  -9446562.11947  22436595.8134   22436600.6464   22436595.775
        50.0004         46.0004
 -24017116.84749 -18671872.75348  20876780.9724   20876784.6514   20876780.958
        54.0004         50.0004
 -25266108.04149 -19628532.00748  20346441.1064   20346442.1214   20346440.934
        56.0004         52.0004
  -9214534.34448  -7130856.70247  23015196.1844   23015201.1174   23015196.058
        48.0004         43.0004
  -1744081.75547  -1353268.37846  24134948.7624   24134951.6854   24134949.696
        42.0004         37.0004
 15  1  1  0  3 23.0000000  0  7G02G29G24G25G12G06G14
 -19846740.14149 -15455680.15748  21240845.1354   21240844.0274   21240845.679
        54.0004         49.0004
 -19059463.70648 -14790118.09047  22014755.6094   22014756.9484   22014755.963
        51.0004         46.0004
 -12191150.20448  -9444039.12647  22437212.4314   22437216.0294   22437211.980
        50.0004         46.0004
 -24018825.64749 -18673204.28748  20876455.5884   20876459.6064   20876455.887
        54.0004         50.0004
 -25265390.60449 -19627972.96548  20346577.7534   20346578.5764   20346577.458
        56.0004         52.0004
  -9212013.36048  -7128892.29447  23015677.0354   23015680.3934   23015675.777
        48.0004         43.0004
  -1742538.16147  -1352065.57846  24135243.0814   24135245.9194   24135243.240
        42.0004         37.0004
 15  1  1  0  3 24.0000000  0  7G02G29G24G25G12G06G14
 -19846714.02449 -15455659.80448  21240849.9504   21240849.1564   21240850.753
        54.0004         49.0004
 -19061983.72548 -14792081.74147  22014275.6604   22014277.7774   22014276.251
        51.0004         46.0004
 -12187911.94448  -9441515.80447  22437828.1494   22437832.5904   22437828.218
        50.0004         46.0004
 -24020534.02849 -18674535.49148  20876130.6374   20876134.5774   20876130.862
        54.0004         50.0004
 -25264672.67649 -19627413.53948  20346714.3734   20346715.2014   20346714.119
        56.0004         52.0004
  -9209491.83648  -7126927.47147  23016157.2414   23016161.2584   23016155.509
        48.0004         43.0004
  -1740994.04147  -1350862.36746  24135535.8034   24135539.5244   24135536.899
        42.0004         37.0004
 15  1  1  0  3 25.0000000  0  7G02G29G24G25G12G06G14
 -19846687.04349 -15455638.78148  21240855.0774   21240854.0844   21240855.950
        54.0004         49.0004
 -19064503.16148 -14794044.93747  22013796.0514   22013798.0314   22013796.757
        51.0004         46.0004
 -12184673.07848  -9438992.01447  22438444.5694   22438449.5344   22438444.613
        50.0004         46.0004
 -24022241.80649 -18675866.22848  20875805.5584   20875809.4634   20875805.999
        55.0004         50.0004
 -25263954.05749 -19626853.57848  20346850.9884   20346851.9384   20346850.930
        56.0004         52.0004
  -9206969.55848  -7124962.06447  23016636.7434   23016639.9354   23016635.480
        48.0004         43.0004
  -1739449.17647  -1349658.57446  24135829.0064   24135832.2534   24135830.621
        42.0004         37.0004
 15  1  1  0  3 26.0000000  0  7G02G29G24G25G12G06G14
 -19846659.66249 -15455617.44348  21240860.5464   21240859.1064   21240861.302
        54.0004         49.0004
 -19067022.47248 -14796008.04147  22013317.3074   22013317.5584   22013317.222
        51.0004         46.0004
 -12181434.08548  -9436468.12347  22439061.1004   22439065.9454   22439061.021
        50.0004         46.0004
 -24023949.43249 -18677196.84648  20875480.6174   20875484.8404   20875481.109
        55.0004         50.0004
 -25263235.21449 -19626293.44148  20346987.8504   20346988.6554   20346987.714
        56.0004         52.0004
  -9204447.01848  -7122996.45147  23017116.7724   23017120.4764   23017115.598
        48.0004         43.0004
  -1737904.03447  -1348454.56846  24136123.2884   24136125.3094   24136124.470
        42.0004         37.0004
 15  1  1  0  3 27.0000000  0  7G02G29G24G25G12G06G14
 -19846631.43949 -15455595.45248  21240865.5444   21240864.7244   21240866.850
        54.0004         49.0004
 -19069541.21548 -14797970.69347  22012837.6944   22012838.7134   22012837.754
        51.0004         46.0004
 -12178194.51948  -9433943.79147  22439677.9364   22439681.4184   22439677.563
        50.0004         46.0004
 -24025656.47349 -18678527.00748  20875155.5584   20875159.6834   20875156.279
        55.0004         50.0004
 -25262515.69649 -19625732.77748  20347124.8524   20347125.7274   20347124.639
        56.0004         52.0004
  -9201923.74748  -7121030.26647  23017597.0074   23017601.0454   23017595.880
        48.0004         43.0004
  -1736358.18947  -1347250.01146  24136418.1334   24136419.2004   24136418.404
        42.0004         37.0004
 15  1  1  0  3 28.0000000  0  7G02G29G24G25G12G06G14
 -19846602.83249 -15455573.16048  21240871.1474   21240870.2264   21240872.393
        54.0004         49.0004
 -19072059.85048 -14799933.26747  22012358.0414   22012359.1104   22012358.333
        51.0004         46.0004
 -12174954.83948  -9431419.36047  22440294.3474   22440298.0304   22440294.165
        50.0004         46.0004
 -24027363.37649 -18679857.06248  20874830.8524   20874835.2884   20874831.436
        55.0004         50.0004
 -25261795.97549 -19625171.95748  20347261.6944   20347262.6164   20347261.600
        56.0004         52.0004
  -9199400.21048  -7119063.87847  23018076.4094   23018080.9384   23018076.201
        48.0004         43.0004
  -1734812.06747  -1346045.23946  24136711.5524   24136713.2864   24136712.304
        42.0004         37.0004
 15  1  1  0  3 29.0000000  0  7G02G29G24G25G12G06G14
 -19846574.08749 -15455550.76148  21240876.7374   21240875.3704   21240877.924
        54.0004         49.0004
 -19074578.61848 -14801895.94247  22011878.8724   22011880.0854   22011878.878
        51.0004         46.0004
 -12171715.27348  -9428895.02747  22440910.6814   22440915.1004   22440910.742
        50.0004         46.0004
 -24029070.39549 -18681187.20748  20874506.0494   20874510.3934   20874506.605
        55.0004         50.0004
 -25261076.28949 -19624611.16348  20347398.5374   20347399.5934   20347398.566
        56.0004         52.0004
  -9196876.66348  -7117097.47447  23018557.6904   23018561.2394   23018556.545
        48.0004         43.0004
  -1733265.90247  -1344840.43546  24137005.4814   24137007.3484   24137005.948
        42.0004         37.0004
 15  1  1  0  3 30.0000000  0  7G02G29G24G25G12G06G14
 -19846544.88649 -15455528.00548  21240882.5124   21240881.2194   21240883.480
        54.0004         49.0004
 -19077097.21148 -14803858.48347  22011400.4954   22011401.4124   22011399.507
        51.0004         46.0004
 -12168475.54048  -9426370.56047  22441527.9834   22441531.1954   22441527.346
        50.0004         46.0004
 -24030777.22449 -18682517.20248  20874181.5934   20874185.5134   20874181.785
        55.0004         50.0004
 -25260356.32449 -19624050.15148  20347535.9014   20347536.4674   20347535.628
        56.0004         52.0004
  -9194352.76848  -7115130.79947  23019037.7014   23019041.0534   23019036.795
        48.0004         43.0004
  -1731719.44347  -1343635.40346  24137299.2544   24137301.2544   24137299.935
        42.0004         37.0004
 15  1  1  0  3 31.0000000  0  7G02G29G24G25G12G06G14
 -19846514.70749 -15455504.48848  21240888.0144   21240887.0954   21240889.233
        54.0004         49.0004
 -19079615.11748 -14805820.48747  22010919.9844   22010922.5204   22010920.257
        51.0004         46.0004
 -12165235.08048  -9423845.52647  22442144.8224   22442148.5734   22442144.192
        50.0004         46.0004
 -24032483.32449 -18683846.63048  20873856.7154   20873860.7104   20873857.108
        55.0004         50.0004
 -25259635.56349 -19623488.52048  20347672.8984   20347673.8554   20347672.790
        56.0004         52.0004
  -9191828.03548  -7113163.47647  23019518.0114   23019521.3344   23019517.142
        48.0004         43.0004
  -1730172.13947  -1342429.71246  24137593.7514   24137594.9484   24137593.998
        42.0004         37.0004
 15  1  1  0  3 32.0000000  0  7G02G29G24G25G12G06G14
 -19846483.61349 -15455480.25948  21240893.8424   21240892.6334   21240895.120
        54.0004         49.0004
 -19082132.37948 -14807781.99347  22010441.7084   22010442.7934   22010441.168
        51.0004         46.0004
 -12161993.97848  -9421319.99347  22442760.5664   22442765.1254   22442761.066
        50.0004         46.0004
 -24034188.76049 -18685175.54248  20873532.0144   20873536.2834   20873532.598
        55.0004         50.0004
 -25258914.07949 -19622926.32748  20347810.2084   20347810.9034   20347810.142
        56.0004         52.0004
  -9189302.49948  -7111195.52747  23019998.3634   23020003.6604   23019997.770
        48.0004         43.0004
  -1728624.03347  -1341223.39546  24137888.9404   24137889.0104   24137888.609
        42.0004         37.0004
 15  1  1  0  3 33.0000000  0  7G02G29G24G25G12G06G14
 -19846452.07849 -15455455.68848  21240899.8304   21240898.8034   21240901.099
        54.0004         49.0004
 -19084649.47148 -14809743.36647  22009962.5344   22009964.4654   22009962.066
        51.0004         46.0004
 -12158752.68648  -9418794.31547  22443377.0934   22443381.6054   22443378.043
        50.0004         46.0004
 -24035894.02049 -18686504.31748  20873207.4634   20873211.9634   20873208.051
        55.0004         50.0004
 -25258192.33949 -19622363.93448  20347947.6414   20347948.4514   20347947.529
        56.0004         52.0004
  -9186776.64148  -7109227.33047  23020479.7094   23020483.0664   23020478.521
        48.0004         44.0004
  -1727075.60447  -1340016.82646  24138183.8884   24138184.1424   24138183.681
        42.0004         37.0004
 15  1  1  0  3 34.0000000  0  7G02G29G24G25G12G06G14
 -19846420.11349 -15455430.77848  21240905.9994   21240904.8024   21240907.180
        54.0004         49.0004
 -19087166.40848 -14811704.61347  22009483.8924   22009485.2904   22009483.133
        51.0004         46.0004
 -12155511.24648  -9416268.51947  22443994.5294   22443998.7094   22443994.930
        50.0004         46.0004
 -24037599.08949 -18687832.94448  20872883.1694   20872887.3694   20872883.579
        55.0004         50.0004
 -25257470.35349 -19621801.34848  20348085.2434   20348085.8764   20348084.974
        56.0004         52.0004
  -9184250.48248  -7107258.89847  23020959.5514   23020963.4064   23020959.470
        48.0004         43.0004
  -1725526.90047  -1338810.04646  24138478.7074   24138479.8534   24138478.899
        42.0004         37.0004
 15  1  1  0  3 35.0000000  0  7G02G29G24G25G12G06G14
 -19846387.96249 -15455405.72248  21240912.2864   21240910.9244   21240913.226
        54.0004         49.0004
 -19089683.43248 -14813665.92747  22009004.3204   22009006.4584   22009004.155
        51.0004         46.0004
 -12152269.87348  -9413742.77047  22444611.6054   22444615.4764   22444611.830
        50.0004         46.0004
 -24039304.23249 -18689161.62448  20872558.5134   20872562.6284   20872559.086
        55.0004         50.0004
 -25256748.35649 -19621238.75148  20348222.3194   20348223.2354   20348222.435
        56.0004         52.0004
  -9181724.26148  -7105290.41347  23021440.8274   23021444.3444   23021440.307
        48.0004         44.0004
  -1723978.09747  -1337603.18746  24138773.6774   24138775.6304   24138774.116
        42.0004         37.0004
 15  1  1  0  3 36.0000000  0  7G02G29G24G25G12G06G14
 -19846355.31849 -15455380.28848  21240918.2494   21240917.2154   21240919.435
        54.0004         49.0004
 -19092200.23548 -14815627.07247  22008525.3694   22008527.5454   22008525.157
        51.0004         46.0004
 -12149028.28248  -9411216.85447  22445227.8434   22445231.8854   22445228.744
        50.0004         46.0004
 -24041009.13649 -18690490.11948  20872234.4244   20872238.4124   20872234.603
        55.0004         50.0004
 -25256026.03949 -19620675.90748  20348360.0624   20348360.6824   20348359.969
        56.0004         52.0004
  -9179197.64648  -7103321.62047  23021922.1174   23021925.7784   23021921.153
        48.0004         44.0004
  -1722428.94547  -1336396.05646  24139068.8844   24139071.1834   24139069.352
        42.0004         37.0004
 15  1  1  0  3 37.0000000  0  7G02G29G24G25G12G06G14
 -19846321.90849 -15455354.25148  21240924.5234   21240923.5704   21240925.749
        54.0004         49.0004
 -19094716.55848 -14817587.84347  22008047.0774   22008048.8224   22008046.273
        51.0004         46.0004
 -12145786.18748  -9408690.54647  22445845.2924   22445849.0134   22445845.792
        50.0004         46.0004
 -24042713.53149 -18691818.21748  20871910.0314   20871914.0274   20871910.193
        55.0004         50.0004
 -25255303.13749 -19620112.60748  20348497.5884   20348498.0414   20348497.613
        56.0004         52.0004
  -9176670.40348  -7101352.33947  23022402.2804   23022407.1964   23022402.178
        48.0004         44.0004
  -1720879.16547  -1335188.43246  24139364.3894   24139366.4894   24139364.796
        42.0004         37.0004
 15  1  1  0  3 38.0000000  0  7G02G29G24G25G12G06G14
 -19846287.36549 -15455327.33548  21240931.1044   21240930.2714   21240932.340
        54.0004         49.0004
 -19097232.01748 -14819547.94247  22007567.8844   22007569.7304   22007567.628
        51.0004         46.0004
 -12142543.23548  -9406163.57447  22446462.5294   22446466.1574   22446462.999
        50.0004         46.0004
 -24044417.04349 -18693145.63048  20871585.5934   20871589.9704   20871586.047
        55.0004         50.0004
 -25254579.27349 -19619548.55848  20348635.3084   20348636.0634   20348635.425
        56.0004         52.0004
  -9174142.14148  -7099382.26447  23022883.5154   23022887.7924   23022883.342
        48.0004         44.0004
  -1719328.35947  -1333980.01046  24139658.9074   24139660.3734   24139659.946
        42.0004         37.0004
 15  1  1  0  3 39.0000000  0  7G02G29G24G25G12G06G14
 -19846252.14649 -15455299.89348  21240937.6514   21240936.9554   21240938.961
        54.0004         49.0004
 -19099747.06548 -14821507.71747  22007089.5804   22007091.0784   22007088.985
        51.0004         46.0004
 -12139299.87148  -9403636.28347  22447079.9444   22447083.5414   22447080.233
        50.0004         46.0004
 -24046120.13349 -18694472.71448  20871261.9194   20871265.9124   20871262.001
        55.0004         50.0004
 -25253854.90849 -19618984.11848  20348773.3544   20348773.7734   20348773.367
        56.0004         52.0004
  -9171613.33948  -7097411.77347  23023364.4234   23023368.7684   23023364.622
        48.0004         43.0004
  -1717776.98747  -1332771.14846  24139953.9544   24139954.9894   24139954.790
        42.0004         37.0004
 15  1  1  0  3 40.0000000  0  7G02G29G24G25G12G06G14
 -19846216.24349 -15455271.91748  21240944.7754   21240944.1594   21240945.678
        54.0004         49.0004
 -19102261.71548 -14823467.18647  22006610.8664   22006613.0324   22006610.372
        51.0004         46.0004
 -12136056.09748  -9401108.66747  22447697.3044   22447701.2874   22447697.571
        50.0004         46.0004
 -24047822.79549 -18695799.46348  20870937.5784   20870941.6834   20870938.008
        55.0004         50.0004
 -25253130.03549 -19618419.28148  20348911.1274   20348911.8374   20348911.363
        56.0004         52.0004
  -9169083.95148  -7095440.81847  23023846.4194   23023850.3944   23023845.986
        48.0004         44.0004
  -1716225.06447  -1331561.85746  24140249.3494   24140250.2564   24140250.047
        42.0004         37.0004
 15  1  1  0  3 41.0000000  0  7G02G29G24G25G12G06G14
 -19846179.78149 -15455243.50748  21240951.8114   21240950.9384   21240952.598
        54.0004         49.0004
 -19104776.09848 -14825426.44947  22006132.4484   22006134.5224   22006131.968
        51.0004         46.0004
 -12132812.02648  -9398580.81947  22448314.2674   22448317.9814   22448314.917
        50.0004         46.0004
 -24049525.15149 -18697125.97648  20870613.6544   20870618.0084   20870614.118
        55.0004         50.0004
 -25252404.78249 -19617854.15048  20349049.0804   20349049.7194   20349049.433
        56.0004         52.0004
  -9166554.15048  -7093469.54647  23024328.1744   23024332.2884   23024327.496
        48.0004         44.0004
  -1714672.72047  -1330352.23746  24140544.1394   24140545.2384   24140545.352
        42.0004         37.0004
 15  1  1  0  3 42.0000000  0  7G02G29G24G25G12G06G14
 -19846143.02249 -15455214.86348  21240958.6944   21240957.6994   21240959.582
        54.0004         49.0004
 -19107290.47048 -14827385.69647  22005654.0664   22005655.7334   22005653.468
        51.0004         46.0004
 -12129567.93448  -9396052.95247  22448931.7744   22448935.0064   22448932.155
        50.0004         46.0004
 -24051227.46149 -18698452.45148  20870289.6414   20870293.8154   20870290.214
        55.0004         50.0004
 -25251679.39949 -19617288.91648  20349187.0734   20349187.8374   20349187.501
        56.0004         52.0004
  -9164024.14748  -7091498.11747  23024809.0204   23024813.6704   23024809.005
        48.0004         44.0004
  -1713120.19347  -1329142.47946  24140840.3984   24140841.5314   24140840.688
        42.0004         37.0004
 15  1  1  0  3 43.0000000  0  7G02G29G24G25G12G06G14
 -19846105.76849 -15455185.83248  21240965.8804   21240964.7504   21240966.657
        54.0004         49.0004
 -19109804.61148 -14829344.76647  22005175.3254   22005177.7414   22005174.995
        51.0004         46.0004
 -12126323.61948  -9393524.91347  22449549.2254   22449552.4934   22449549.520
        50.0004         46.0004
 -24052929.53249 -18699778.73948  20869965.8464   20869970.1054   20869966.311
        55.0004         50.0004
 -25250953.70349 -19616723.43948  20349325.2584   20349325.6584   20349325.616
        56.0004         52.0004
  -9161493.79948  -7089526.41647  23025290.8844   23025294.7854   23025290.539
        48.0004         44.0004
  -1711567.29047  -1327932.42646  24141134.7534   24141137.7194   24141136.005
        42.0004         37.0004
 15  1  1  0  3 44.0000000  0  7G02G29G24G25G12G06G14
 -19846068.15949 -15455156.52648  21240973.0764   21240971.8494   21240973.779
        54.0004         49.0004
 -19112318.67748 -14831303.77647  22004697.0464   22004699.1024   22004696.494
        51.0004         46.0004
 -12123079.20948  -9390996.80147  22450166.7464   22450170.9604   22450166.913
        50.0004         46.0004
 -24054631.50149 -18701104.94748  20869641.9064   20869646.3314   20869642.499
        55.0004         50.0004
 -25250227.82949 -19616157.82448  20349463.4204   20349464.0084   20349463.748
        56.0004         52.0004
  -9158963.21548  -7087554.53147  23025772.4114   23025775.5994   23025772.031
        48.0004         44.0004
  -1710014.16647  -1326722.19846  24141431.4124   24141433.3884   24141431.481
        42.0004         37.0004
 15  1  1  0  3 45.0000000  0  7G02G29G24G25G12G06G14
 -19846030.07449 -15455126.84648  21240980.1504   21240979.3584   21240980.980
        54.0004         49.0004
 -19114832.53448 -14833262.62747  22004218.5704   22004220.5354   22004218.015
        51.0004         46.0004
 -12119834.59148  -9388468.53247  22450783.9834   22450787.5804   22450784.381
        50.0004         46.0004
 -24056333.24149 -18702430.97848  20869318.1914   20869322.3584   20869318.725
        55.0004         50.0004
 -25249501.65349 -19615591.97148  20349601.6474   20349602.1914   20349601.908
        56.0004         52.0004
  -9156432.25848  -7085582.35747  23026253.9404   23026257.6414   23026253.535
        48.0004         44.0004
  -1708460.68347  -1325511.69446  24141727.0294   24141729.2074   24141727.424
        42.0004         37.0004
 15  1  1  0  3 46.0000000  0  7G02G29G24G25G12G06G14
 -19845991.51949 -15455096.80348  21240987.3884   21240986.8114   21240988.328
        54.0004         49.0004
 -19117346.20548 -14835221.33247  22003740.2794   22003742.6654   22003739.635
        51.0004         46.0004
 -12116589.77348  -9385940.10347  22451401.8174   22451404.7724   22451401.904
        50.0004         46.0004
 -24058034.77049 -18703756.84448  20868994.1604   20868998.6724   20868994.987
        55.0004         50.0004
 -25248775.18249 -19615025.88948  20349739.9704   20349740.3154   20349740.141
        56.0004         52.0004
  -9153900.96148  -7083609.91847  23026736.1334   23026739.7734   23026735.142
        48.0004         44.0004
  -1706906.89047  -1324300.94646  24142024.0174   24142025.0244   24142023.716
        42.0004         37.0004
 15  1  1  0  3 47.0000000  0  7G02G29G24G25G12G06G14
 -19845952.48149 -15455066.38448  21240994.9544   21240993.9754   21240995.761
        54.0004         49.0004
 -19119859.65948 -14837179.86847  22003261.9394   22003263.7464   22003261.251
        51.0004         46.0004
 -12113344.73948  -9383411.50447  22452018.5694   22452022.5964   22452019.495
        50.0004         46.0004
 -24059736.07249 -18705082.53648  20868670.5474   20868674.6424   20868671.270
        55.0004         50.0004
 -25248048.40549 -19614459.57148  20349878.2344   20349878.7134   20349878.414
        56.0004         52.0004
  -9151369.31048  -7081637.20547  23027217.4344   23027221.1334   23027216.822
        48.0004         44.0004
  -1705352.70747  -1323089.89546  24142319.2724   24142320.1514   24142319.862
        42.0004         37.0004
 15  1  1  0  3 48.0000000  0  7G02G29G24G25G12G06G14
 -19845912.64249 -15455035.34048  21241002.3954   21241001.5374   21241003.363
        54.0004         49.0004
 -19122372.58648 -14839137.98747  22002784.1624   22002786.3884   22002783.001
        51.0004         46.0004
 -12110099.17348  -9380882.49047  22452636.8004   22452640.2564   22452637.064
        50.0004         46.0004
 -24061436.82149 -18706407.79448  20868347.0004   20868351.1724   20868347.654
        55.0004         50.0004
 -25247321.00549 -19613892.76748  20350016.5084   20350017.0744   20350016.807
        56.0004         52.0004
  -9148836.97248  -7079663.94847  23027699.1844   23027703.3614   23027698.791
        48.0004         44.0004
  -1703797.87847  -1321878.34046  24142615.0534   24142616.4814   24142615.971
        42.0004         37.0004
 15  1  1  0  3 49.0000000  0  7G02G29G24G25G12G06G14
 -19845871.99249 -15455003.66448  21241010.1784   21241009.5004   21241011.044
        54.0004         49.0004
 -19124884.98148 -14841095.69647  22002305.7404   22002308.2344   22002304.830
        51.0004         46.0004
 -12106853.07548  -9378353.06247  22453253.7294   22453257.6694   22453254.748
        50.0004         46.0004
 -24063137.01549 -18707732.61948  20868023.2524   20868027.4714   20868024.106
        55.0004         50.0004
 -25246592.98049 -19613325.47548  20350155.2644   20350155.7694   20350155.304
        56.0004         52.0004
  -9146303.95648  -7077690.16847  23028180.8894   23028186.0874   23028180.927
        48.0004         44.0004
  -1702242.35847  -1320666.24546  24142911.1224   24142911.7774   24142912.418
        42.0004         37.0004
 15  1  1  0  3 50.0000000  0  7G02G29G24G25G12G06G14
 -19845830.58949 -15454971.40248  21241018.1534   21241017.5564   21241018.892
        54.0004         50.0004
 -19127396.89748 -14843053.03247  22001827.9824   22001829.8924   22001826.806
        51.0004         46.0004
 -12103606.49048  -9375823.25647  22453872.4434   22453875.8094   22453872.524
        50.0004         46.0004
 -24064836.70649 -18709057.05448  20867700.2154   20867703.7944   20867700.591
        55.0004         50.0004
 -25245864.37649 -19612757.73248  20350293.9274   20350294.1584   20350293.928
        56.0004         52.0004
  -9143770.30948  -7075715.89347  23028663.6534   23028667.1254   23028662.916
        48.0004         44.0004
  -1700686.19047  -1319453.64746  24143207.6444   24143207.3854   24143208.650
        42.0004         37.0004
 15  1  1  0  3 51.0000000  0  7G02G29G24G25G12G06G14
 -19845788.46149 -15454938.57448  21241026.1284   21241025.1304   21241026.914
        54.0004         49.0004
 -19129908.35448 -14845010.01247  22001350.1084   22001351.8744   22001348.809
        51.0004         47.0004
 -12100359.43448  -9373293.08447  22454490.2364   22454493.5544   22454490.339
        50.0004         46.0004
 -24066535.92249 -18710381.11848  20867376.6004   20867380.8064   20867377.260
        55.0004         50.0004
 -25245135.21849 -19612189.55648  20350432.6564   20350432.9804   20350432.637
        56.0004         52.0004
  -9141236.05048  -7073741.15047  23029145.9024   23029148.7694   23029145.123
        48.0004         44.0004
  -1699129.44447  -1318240.59846  24143502.7814   24143502.6224   24143504.615
        42.0004         37.0004
 15  1  1  0  3 52.0000000  0  7G02G29G24G25G12G06G14
 -19845746.10449 -15454905.56748  21241033.9724   21241033.5724   21241034.905
        54.0004         49.0004
 -19132419.86648 -14846967.03547  22000872.0474   22000874.0384   22000870.900
        51.0004         47.0004
 -12097112.42148  -9370762.94747  22455107.9674   22455111.4294   22455108.245
        50.0004         46.0004
 -24068235.17749 -18711705.21348  20867053.1624   20867057.3384   20867053.851
        55.0004         50.0004
 -25244406.01049 -19611621.34448  20350571.4294   20350571.8674   20350571.350
        56.0004         52.0004
  -9138701.70048  -7071766.33347  23029628.1924   23029631.8684   23029627.484
        48.0004         44.0004
  -1697572.57447  -1317027.45346  24143797.9404   24143798.7234   24143800.532
        42.0004         37.0004
 15  1  1  0  3 53.0000000  0  7G02G29G24G25G12G06G14
 -19845703.19449 -15454872.13348  21241042.3544   21241041.5534   21241042.962
        54.0004         50.0004
 -19134931.09848 -14848923.83547  22000394.2364   22000396.4254   22000393.034
        51.0004         47.0004
 -12093865.12248  -9368232.58347  22455725.8304   22455729.7294   22455726.129
        51.0004         46.0004
 -24069934.12249 -18713029.06548  20866729.8114   20866734.0384   20866730.541
        55.0004         50.0004
 -25243676.42449 -19611052.83548  20350710.2504   20350710.7294   20350710.195
        56.0004         52.0004
  -9136166.90748  -7069791.17147  23030110.7084   23030114.3554   23030109.744
        48.0004         44.0004
  -1696015.29347  -1315813.98546  24144094.1844   24144095.2584   24144096.731
        42.0004         37.0004
 15  1  1  0  3 54.0000000  0  7G02G29G24G25G12G06G14
 -19845659.74849 -15454838.27648  21241050.7664   21241049.7114   21241051.270
        54.0004         50.0004
 -19137442.06148 -14850880.42947  21999916.5884   21999918.2224   21999915.350
        51.0004         46.0004
 -12090617.54548  -9365702.00447  22456344.4234   22456347.3854   22456343.984
        51.0004         46.0004
 -24071632.78949 -18714352.70248  20866406.5474   20866410.7734   20866407.217
        55.0004         50.0004
 -25242946.47349 -19610484.04248  20350849.2504   20350849.3904   20350849.119
        56.0004         52.0004
  -9133631.70948  -7067815.69247  23030593.0514   23030596.5584   23030592.188
        48.0004         44.0004
  -1694457.60747  -1314600.20246  24144389.9944   24144391.5564   24144392.590
        42.0004         37.0004
 15  1  1  0  3 55.0000000  0  7G02G29G24G25G12G06G14
 -19845615.59949 -15454803.87748  21241058.8714   21241058.2964   21241059.644
        54.0004         50.0004
 -19139952.60248 -14852836.69447  21999438.9914   21999440.1964   21999437.698
        51.0004         46.0004
 -12087369.54948  -9363171.09547  22456962.4994   22456965.3214   22456962.095
        51.0004         46.0004
 -24073330.99749 -18715675.98248  20866083.3814   20866087.5364   20866084.007
        55.0004         50.0004
 -25242216.00549 -19609914.84748  20350988.2024   20350988.4594   20350988.105
        56.0004         52.0004
  -9131095.92148  -7065839.75447  23031075.3954   23031078.7614   23031074.823
        48.0004         44.0004
  -1692899.33247  -1313385.96146  24144687.0404   24144687.5304   24144688.767
        42.0004         37.0004
 15  1  1  0  3 56.0000000  0  7G02G29G24G25G12G06G14
 -19845570.63649 -15454768.84048  21241067.6364   21241066.7764   21241068.223
        54.0004         50.0004
 -19142462.61148 -14854792.54547  21998961.1024   21998963.0534   21998960.066
        51.0004         47.0004
 -12084121.00748  -9360639.76147  22457580.1504   22457583.6394   22457580.180
        51.0004         46.0004
 -24075028.66049 -18716998.83548  20865760.4254   20865764.5854   20865760.902
        55.0004         50.0004
 -25241484.90049 -19609345.15448  20351127.2874   20351127.4664   20351127.271
        56.0004         52.0004
  -9128559.45348  -7063863.28547  23031558.0374   23031562.3964   23031557.460
        48.0004         44.0004
  -1691340.38447  -1312171.19746  24144984.3874   24144984.5774   24144985.130
        42.0004         37.0004
 15  1  1  0  3 57.0000000  0  7G02G29G24G25G12G06G14
 -19845525.25449 -15454733.47748  21241076.3324   21241075.6064   21241076.894
        54.0004         50.0004
 -19144972.45948 -14856748.26747  21998483.0874   21998485.0754   21998482.555
        51.0004         47.0004
 -12080872.29548  -9358108.30047  22458197.6624   22458201.4494   22458198.409
        51.0004         46.0004
 -24076726.14149 -18718321.54648  20865437.2784   20865441.3434   20865437.835
        55.0004         50.0004
 -25240753.54549 -19608775.26748  20351266.6464   20351266.7034   20351266.441
        56.0004         52.0004
  -9126022.67848  -7061886.57947  23032041.2754   23032045.1544   23032040.244
        48.0004         44.0004
  -1689781.12147  -1310956.19146  24145282.1204   24145283.1194   24145281.849
        42.0004         37.0004
 15  1  1  0  3 58.0000000  0  7G02G29G24G25G12G06G14
 -19845479.09849 -15454697.51348  21241084.8604   21241083.9914   21241085.697
        54.0004         50.0004
 -19147481.81448 -14858703.61047  21998006.0964   21998006.9224   21998005.212
        51.0004         47.0004
 -12077623.09648  -9355576.45947  22458817.2384   22458820.0344   22458816.642
        51.0004         46.0004
 -24078423.10449 -18719643.85648  20865114.6054   20865118.3674   20865114.826
        55.0004         50.0004
 -25240021.59549 -19608204.91648  20351405.7314   20351406.0854   20351405.758
        56.0004         52.0004
  -9123485.25948  -7059909.36947  23032523.8854   23032528.4924   23032523.139
        48.0004         44.0004
  -1688221.24047  -1309740.69946  24145579.8224   24145580.4944   24145579.135
        42.0004         37.0004
 15  1  1  0  3 59.0000000  0  7G02G29G24G25G12G06G14
 -19845432.44349 -15454661.15748  21241093.8904   21241093.1434   21241094.553
        54.0004         50.0004
 -19149990.94948 -14860658.78147  21997528.6634   21997530.1974   21997527.858
        51.0004         47.0004
 -12074373.66748  -9353044.43247  22459435.1064   22459437.9744   22459434.844
        51.0004         46.0004
 -24080119.82649 -18720965.97848  20864791.3984   20864795.4904   20864791.955
        55.0004         50.0004
 -25239289.32449 -19607634.31748  20351545.2584   20351545.4164   20351545.091
        56.0004         52.0004
  -9120947.46548  -7057931.86547  23033006.3184   23033010.4484   23033006.094
        48.0004         44.0004
  -1686660.99647  -1308524.92646  24145876.1394   24145876.8764   24145876.344
        42.0004         37.0004
 15  1  1  0  4  0.0000000  0  7G02G29G24G25G12G06G14
 -19845385.54949 -15454624.61548  21241102.8074   21241102.2004   21241103.500
        54.0004         50.0004
 -19152500.10748 -14862613.96847  21997051.1484   21997052.8294   21997050.527
        51.0004         47.0004
 -12071124.27848  -9350512.44347  22460053.3754   22460056.5464   22460053.161
        51.0004         46.0004
 -24081816.55149 -18722288.09948  20864468.8944   20864472.9884   20864469.073
        55.0004         50.0004
 -25238556.98649 -19607063.66448  20351684.5764   20351684.7124   20351684.454
        56.0004         52.0004
  -9118409.55348  -7055954.27047  23033489.0304   23033494.3864   23033489.174
        48.0004         44.0004
  -1685100.60447  -1307309.03846  24146173.9004   24146173.8814   24146173.559
        42.0004         37.0004
 15  1  1  0  4  1.0000000  0  7G02G29G24G25G12G06G14
 -19845337.81849 -15454587.42448  21241111.8074   21241111.1574   21241112.643
        54.0004         49.0004
 -19155008.73548 -14864568.73847  21996574.0054   21996575.4284   21996573.310
        51.0004         47.0004
 -12067874.33748  -9347980.01947  22460671.8004   22460675.1444   22460671.522
        51.0004         46.0004
 -24083512.72549 -18723609.79448  20864145.9034   20864149.9554   20864146.291
        55.0004         50.0004
 -25237824.02149 -19606492.52148  20351824.2084   20351824.2554   20351823.942
        56.0004         52.0004
  -9115870.95948  -7053976.14447  23033972.4504   23033976.4754   23033972.157
        48.0004         44.0004
  -1683539.56147  -1306092.64246  24146470.8924   24146470.8264   24146470.835
        42.0004         37.0004
 15  1  1  0  4  2.0000000  0  7G02G29G24G25G12G06G14
 -19845289.63949 -15454549.88248  21241120.9564   21241120.1494   21241121.803
        54.0004         49.0004
 -19157517.20348 -14866523.38647  21996096.1684   21996097.8604   21996096.070
        51.0004         47.0004
 -12064624.23548  -9345447.47047  22461290.4464   22461293.4214   22461289.995
        51.0004         46.0004
 -24085208.70849 -18724931.34248  20863822.9114   20863827.2594   20863823.517
        55.0004         50.0004
 -25237090.79149 -19605921.17448  20351963.5124   20351963.6034   20351963.476
        56.0004         52.0004
  -9113332.03548  -7051997.76347  23034455.5874   23034459.6494   23034455.359
        48.0004         44.0004
  -1681978.18047  -1304875.98546  24146767.9324   24146767.5894   24146768.063
        42.0004         37.0004
 15  1  1  0  4  3.0000000  0  7G02G29G24G25G12G06G14
 -19845240.58349 -15454511.65648  21241130.2344   21241129.7184   21241131.215
        54.0004         49.0004
 -19160025.05248 -14868477.55647  21995619.4704   21995621.0134   21995618.947
        51.0004         47.0004
 -12061373.52648  -9342914.44947  22461908.3714   22461912.3324   22461908.495
        51.0004         46.0004
 -24086904.05549 -18726252.39148  20863500.3974   20863504.4304   20863500.896
        55.0004         50.0004
 -25236356.85749 -19605349.27948  20352103.1334   20352103.7264   20352103.155
        56.0004         52.0004
  -9110792.36348  -7050018.79647  23034938.9304   23034943.3624   23034938.674
        48.0004         44.0004
  -1680416.06147  -1303658.74846  24147065.4484   24147064.9824   24147065.634
        42.0004         37.0004
 15  1  1  0  4  4.0000000  0  7G02G29G24G25G12G06G14
 -19845191.33649 -15454473.28348  21241139.7934   21241139.1724   21241140.618
        54.0004         49.0004
 -19162532.98148 -14870431.78847  21995142.3464   21995143.7494   21995141.891
        51.0004         47.0004
 -12058122.88448  -9340381.48447  22462527.4734   22462530.9244   22462526.996
        51.0004         46.0004
 -24088599.46549 -18727573.49148  20863177.8604   20863182.0114   20863178.236
        55.0004         50.0004
 -25235622.90049 -19604777.36548  20352242.9744   20352243.0604   20352242.886
        56.0004         52.0004
  -9108252.61648  -7048039.77847  23035422.6724   23035426.1584   23035422.117
        48.0004         44.0004
  -1678853.84347  -1302441.43546  24147361.8514   24147362.5184   24147363.057
        42.0004         37.0004
 15  1  1  0  4  5.0000000  0  7G02G29G24G25G12G06G14
 -19845141.78549 -15454434.67148  21241149.2714   21241148.3744   21241150.074
        54.0004         49.0004
 -19165040.87948 -14872385.99147  21994664.8854   21994665.7304   21994664.790
        51.0004         47.0004
 -12054872.21648  -9337848.49447  22463145.8834   22463149.4104   22463145.598
        51.0004         46.0004
 -24090294.81549 -18728894.54048  20862855.3364   20862859.4764   20862855.588
        55.0004         50.0004
 -25234888.81749 -19604205.35248  20352382.7734   20352382.7744   20352382.622
        56.0004         52.0004
  -9105712.68848  -7046060.61447  23035906.1664   23035910.4474   23035905.504
        48.0004         44.0004
  -1677291.47047  -1301224.00346  24147658.7084   24147659.2064   24147660.217
        42.0004         37.0004
 15  1  1  0  4  6.0000000  0  7G02G29G24G25G12G06G14
 -19845091.35749 -15454395.37448  21241158.7584   21241157.9114   21241159.686
        54.0004         49.0004
 -19167548.18248 -14874339.73647  21994187.7424   21994189.2604   21994187.672
        51.0004         47.0004
 -12051620.90548  -9335315.00747  22463764.7734   22463767.5054   22463764.309
        51.0004         46.0004
 -24091989.54449 -18730215.11048  20862533.0424   20862536.4844   20862533.078
        55.0004         50.0004
 -25234154.03349 -19603632.79348  20352522.4584   20352522.6624   20352522.466
        56.0004         52.0004
  -9103171.99848  -7044080.85447  23036389.5214   23036393.1474   23036388.889
        48.0004         44.0004
  -1675728.32547  -1300005.96846  24147955.0974   24147956.4074   24147957.621
        42.0004         37.0004
 15  1  1  0  4  7.0000000  0  7G02G29G24G25G12G06G14
 -19845040.22349 -15454355.52948  21241168.6304   21241167.4254   21241169.437
        54.0004         49.0004
 -19170055.03648 -14876293.12547  21993710.9374   21993712.5684   21993710.740
        51.0004         47.0004
 -12048369.16248  -9332781.17847  22464383.2424   22464386.6274   22464383.114
        51.0004         46.0004
 -24093683.81249 -18731535.31948  20862210.2974   20862214.2674   20862210.706
        55.0004         50.0004
 -25233418.71849 -19603059.82048  20352662.2824   20352662.4084   20352662.415
        56.0004         52.0004
  -9100630.72348  -7042100.63947  23036873.2644   23036876.4454   23036872.541
        48.0004         44.0004
  -1674164.60947  -1298787.48646  24148252.0764   24148254.8514   24148255.292
        42.0004         37.0004
 15  1  1  0  4  8.0000000  0  7G02G29G24G25G12G06G14
 -19844988.22349 -15454315.00948  21241177.9994   21241177.5884   21241179.379
        54.0004         49.0004
 -19172561.30748 -14878246.06447  21993233.6704   21993234.8424   21993233.887
        51.0004         47.0004
 -12045116.82648  -9330246.89147  22465001.9414   22465005.3544   22465002.021
        51.0004         46.0004
 -24095377.46949 -18732855.05248  20861887.9644   20861892.0054   20861888.380
        55.0004         50.0004
 -25232682.71249 -19602486.31248  20352802.5464   20352802.5174   20352802.557
        56.0004         52.0004
  -9098088.71848  -7040119.85947  23037356.9724   23037360.1664   23037356.242
        48.0004         44.0004
  -1672600.14947  -1297568.42446  24148549.9694   24148551.7804   24148552.885
        42.0004         37.0004
 15  1  1  0  4  9.0000000  0  7G02G29G24G25G12G06G14
 -19844935.57049 -15454273.98048  21241188.5544   21241187.5654   21241189.354
        54.0004         49.0004
 -19175067.18748 -14880198.69547  21992757.3584   21992757.9894   21992757.074
        51.0004         47.0004
 -12041864.09848  -9327712.30147  22465620.9584   22465624.4434   22465620.997
        51.0004         46.0004
 -24097070.71549 -18734174.46548  20861566.0934   20861569.8334   20861566.183
        55.0004         50.0004
 -25231946.22249 -19601912.42348  20352942.6924   20352942.6514   20352942.729
        56.0004         52.0004
  -9095546.16948  -7038138.65447  23037840.6934   23037845.3734   23037840.193
        48.0004         44.0004
  -1671035.16747  -1296348.95446  24148847.7544   24148849.6124   24148850.535
        42.0004         37.0004
 15  1  1  0  4 10.0000000  0  7G02G29G24G25G12G06G14
 -19844882.43249 -15454232.57348  21241198.3904   21241197.6764   21241199.451
        54.0004         49.0004
 -19177572.85548 -14882151.16347  21992280.3184   21992281.7644   21992280.373
        51.0004         47.0004
 -12038611.12148  -9325177.51147  22466239.9744   22466243.2744   22466240.053
        51.0004         46.0004
 -24098763.73349 -18735493.70048  20861243.6874   20861247.8244   20861244.026
        55.0004         50.0004
 -25231209.41949 -19601338.29048  20353082.7524   20353082.8584   20353082.936
        56.0004         52.0004
  -9093003.26248  -7036157.17047  23038324.6014   23038328.4414   23038324.115
        48.0004         44.0004
  -1669469.81047  -1295129.19046  24149146.1804   24149147.4234   24149148.461
        42.0004         37.0004
 15  1  1  0  4 11.0000000  0  7G02G29G24G25G12G06G14
 -19844828.90749 -15454190.86548  21241208.4284   21241208.0214   21241209.584
        54.0004         49.0004
 -19180078.42048 -14884103.55147  21991803.3444   21991804.7454   21991803.600
        51.0004         47.0004
 -12035358.03348  -9322642.63347  22466858.8614   22466862.2104   22466859.123
        51.0004         46.0004
 -24100456.60449 -18736812.82148  20860921.6694   20860925.3834   20860921.925
        55.0004         50.0004
 -25230472.40549 -19600763.99648  20353222.9504   20353223.1674   20353223.189
        56.0004         52.0004
  -9090460.07648  -7034175.46547  23038808.4884   23038811.7094   23038808.146
        48.0004         44.0004
  -1667904.19547  -1293909.22946  24149445.0424   24149445.1824   24149446.614
        42.0004         37.0004
 15  1  1  0  4 12.0000000  0  7G02G29G24G25G12G06G14
 -19844774.56949 -15454148.52648  21241218.8944   21241218.0184   21241219.830
        54.0004         49.0004
 -19182583.42548 -14886055.50247  21991326.9344   21991328.4564   21991326.935
        51.0004         47.0004
 -12032104.39648  -9320107.33547  22467478.7704   22467481.6364   22467478.296
        51.0004         46.0004
 -24102148.91449 -18738131.50248  20860599.5294   20860603.6074   20860599.967
        55.0004         50.0004
 -25229734.75449 -19600189.20348  20353363.4974   20353363.5594   20353363.604
        56.0004         52.0004
  -9087916.21848  -7032193.23747  23039291.7894   23039295.9224   23039292.115
        48.0004         44.0004
  -1666337.91147  -1292688.74746  24149743.2334   24149743.2034   24149744.879
        42.0004         37.0004
 15  1  1  0  4 13.0000000  0  7G02G29G24G25G12G06G14
 -19844719.68949 -15454105.76048  21241229.3914   21241228.7114   21241230.165
        54.0004         49.0004
 -19185088.18948 -14888007.26647  21990849.9094   21990850.7684   21990850.347
        51.0004         47.0004
 -12028850.50448  -9317571.83247  22468097.2194   22468100.7114   22468097.509
        51.0004         46.0004
 -24103840.94449 -18739449.96848  20860277.4664   20860281.5394   20860278.058
        55.0004         50.0004
 -25228996.74649 -19599614.13348  20353503.9964   20353503.9894   20353504.010
        56.0004         52.0004
  -9085371.93648  -7030210.67847  23039776.0644   23039780.8064   23039776.326
        48.0004         44.0004
  -1664771.20647  -1291467.93946  24150041.5824   24150041.3984   24150043.457
        42.0004         37.0004
 15  1  1  0  4 14.0000000  0  7G02G29G24G25G12G06G14
 -19844664.51549 -15454062.76848  21241239.9574   21241238.8074   21241240.482
        54.0004         49.0004
 -19187592.92448 -14889959.00547  21990373.1964   21990375.1144   21990373.753
        51.0004         47.0004
 -12025596.59148  -9315036.31547  22468716.5024   22468720.1024   22468716.773
        51.0004         46.0004
 -24105532.92549 -18740768.39448  20859955.5734   20859959.5454   20859956.134
        55.0004         50.0004
 -25228258.60749 -19599038.95848  20353644.2444   20353644.4914   20353644.458
        56.0004         52.0004
  -9082827.47648  -7028227.98347  23040261.3894   23040264.4154   23040260.453
        48.0004         44.0004
  -1663204.33147  -1290246.99746  24150340.0814   24150339.9364   24150341.754
        42.0004         37.0004
 15  1  1  0  4 15.0000000  0  7G02G29G24G25G12G06G14
 -19844608.91449 -15454019.44348  21241250.2954   21241249.5284   21241250.998
        54.0004         49.0004
 -19190097.50948 -14891910.63247  21989897.1394   21989898.3544   21989897.177
        51.0004         47.0004
 -12022342.53748  -9312500.68947  22469336.0574   22469338.9974   22469335.984
        51.0004         46.0004
 -24107224.72849 -18742086.68248  20859633.4734   20859637.7104   20859634.240
        55.0004         50.0004
 -25227520.22549 -19598463.59548  20353784.8924   20353785.0504   20353784.907
        56.0004         52.0004
  -9080282.72548  -7026245.06047  23040745.2774   23040748.5454   23040744.763
        48.0004         44.0004
  -1661637.16047  -1289025.82546  24150637.7124   24150638.7724   24150640.024
        42.0004         37.0004
 15  1  1  0  4 16.0000000  0  7G02G29G24G25G12G06G14
 -19844552.33949 -15453975.36048  21241261.1634   21241260.6274   21241261.702
        54.0004         49.0004
 -19192601.39348 -14893861.70747  21989420.4244   21989422.0254   21989420.788
        51.0004         47.0004
 -12019087.77348  -9309964.50847  22469954.8714   22469958.8464   22469955.406
        51.0004         46.0004
 -24108915.81549 -18743404.41048  20859311.8694   20859315.7984   20859312.460
        55.0004         50.0004
 -25226781.03949 -19597887.60448  20353925.5364   20353925.8264   20353925.497
        56.0004         52.0004
  -9077737.12048  -7024261.46747  23041228.1174   23041233.2874   23041229.173
        48.0004         44.0004
  -1660069.13447  -1287803.98546  24150936.3954   24150937.0004   24150938.060
        42.0004         37.0004
 15  1  1  0  4 17.0000000  0  7G02G29G24G25G12G06G14
 -19844495.16449 -15453930.80748  21241271.7294   21241271.2714   21241272.516
        54.0004         49.0004
 -19195104.95948 -14895812.53747  21988944.4144   21988945.4194   21988944.534
        51.0004         47.0004
 -12015832.68248  -9307428.07447  22470574.8604   22470577.5244   22470574.768
        51.0004         46.0004
 -24110606.54649 -18744721.86448  20858990.2334   20858994.0734   20858990.742
        55.0004         50.0004
 -25226041.42949 -19597311.28648  20354066.1134   20354066.1904   20354066.244
        56.0004         52.0004
  -9075191.03348  -7022277.50847  23041714.4184   23041717.9684   23041713.594
        48.0004         44.0004
  -1658500.63147  -1286581.77046  24151234.0624   24151234.6694   24151236.318
        42.0004         37.0004
 15  1  1  0  4 18.0000000  0  7G02G29G24G25G12G06G14
 -19844437.61449 -15453885.96548  21241282.9534   21241282.0954   21241283.417
        54.0004         49.0004
 -19197608.42948 -14897763.29347  21988468.0764   21988468.7534   21988468.151
        51.0004         47.0004
 -12012577.49848  -9304891.56647  22471194.2094   22471197.5424   22471194.190
        51.0004         46.0004
 -24112297.15549 -18746039.22248  20858668.4664   20858672.5254   20858669.101
        55.0004         50.0004
 -25225301.62149 -19596734.81348  20354206.9874   20354207.1214   20354206.985
        56.0004         52.0004
  -9072644.71148  -7020293.36047  23042198.3854   23042201.9334   23042198.030
        48.0004         44.0004
  -1656931.89147  -1285359.37446  24151532.8274   24151532.4624   24151534.489
        42.0004         37.0004
 15  1  1  0  4 19.0000000  0  7G02G29G24G25G12G06G14
 -19844379.46049 -15453840.65048  21241294.0364   21241293.1894   21241294.447
        54.0004         49.0004
 -19200111.56048 -14899713.78447  21987991.3804   21987992.4234   21987991.862
        51.0004         47.0004
 -12009321.97148  -9302354.79247  22471813.7374   22471816.6454   22471813.713
        51.0004         46.0004
 -24113987.41349 -18747356.30648  20858346.7664   20858350.8784   20858347.497
        55.0004         50.0004
 -25224561.39049 -19596158.01048  20354347.7684   20354348.0544   20354347.794
        56.0004         52.0004
  -9070097.89948  -7018308.83647  23042682.8414   23042687.1024   23042682.690
        48.0004         44.0004
  -1655362.66547  -1284136.60146  24151830.6344   24151831.3954   24151832.560
        42.0004         37.0004
 15  1  1  0  4 20.0000000  0  7G02G29G24G25G12G06G14
 -19844320.85349 -15453794.98348  21241304.9664   21241304.0484   21241305.520
        54.0004         49.0004
 -19202614.51348 -14901664.13947  21987515.0664   21987516.6854   21987515.604
        51.0004         47.0004
 -12006066.27248  -9299817.88347  22472432.6384   22472436.9004   22472433.284
        51.0004         46.0004
 -24115677.46149 -18748673.22748  20858025.1184   20858029.1064   20858025.929
        55.0004         50.0004
 -25223820.88049 -19595580.98948  20354488.7104   20354488.9874   20354488.671
        56.0004         52.0004
  -9067550.75848  -7016324.04747  23043167.2814   23043172.0704   23043167.299
        48.0004         44.0004
  -1653793.13147  -1282913.59046  24152129.8084   24152129.7164   24152130.788
        42.0004         37.0004
 15  1  1  0  4 21.0000000  0  7G02G29G24G25G12G06G14
 -19844261.87649 -15453749.02548  21241316.2594   21241315.6654   21241316.763
        54.0004         49.0004
 -19205117.36948 -14903614.41547  21987039.4754   21987039.8904   21987039.347
        51.0004         47.0004
 -12002810.46348  -9297280.89047  22473053.2324   22473055.6224   22473052.824
        51.0004         46.0004
 -24117367.39449 -18749990.05848  20857703.7354   20857707.9284   20857704.379
        55.0004         50.0004
 -25223080.17949 -19595003.81948  20354629.7484   20354629.8954   20354629.591
        56.0004         52.0004
  -9065003.37748  -7014339.07347  23043652.7164   23043656.3374   23043651.984
        48.0004         44.0004
  -1652223.33447  -1281690.37246  24152428.1784   24152428.5424   24152429.147
        42.0004         37.0004
 15  1  1  0  4 22.0000000  0  7G02G29G24G25G12G06G14
 -19844202.27349 -15453702.58348  21241327.5834   21241326.6564   21241328.147
        54.0004         49.0004
 -19207619.87948 -14905564.42447  21986563.0824   21986563.9454   21986563.223
        51.0004         47.0004
 -11999554.29548  -9294743.61547  22473671.7154   22473675.3554   22473672.439
        51.0004         46.0004
 -24119056.95949 -18751306.60248  20857382.3114   20857386.0524   20857382.850
        55.0004         50.0004
 -25222339.03549 -19594426.30648  20354770.5694   20354771.0524   20354770.681
        56.0004         52.0004
  -9062455.50948  -7012353.72347  23044136.9004   23044141.5664   23044136.745
        48.0004         44.0004
  -1650653.04047  -1280466.76746  24152727.6804   24152727.6284   24152727.574
        42.0004         37.0004
 15  1  1  0  4 23.0000000  0  7G02G29G24G25G12G06G14
 -19844141.81449 -15453655.47148  21241339.3244   21241338.4804   21241339.660
        54.0004         49.0004
 -19210121.80148 -14907513.97047  21986086.6964   21986087.5404   21986087.242
        51.0004         47.0004
 -11996297.53348  -9292205.87847  22474292.3744   22474295.2324   22474292.201
        51.0004         46.0004
 -24120745.90749 -18752622.66448  20857060.7004   20857064.6454   20857061.478
        55.0004         50.0004
 -25221597.20049 -19593848.25048  20354911.9284   20354912.2254   20354911.858
        56.0004         52.0004
  -9059906.88148  -7010367.78247  23044621.7834   23044625.7184   23044621.696
        48.0004         44.0004
  -1649082.03747  -1279242.60746  24153026.1194   24153027.3124   24153026.268
        42.0004         37.0004
 15  1  1  0  4 24.0000000  0  7G02G29G24G25G12G06G14
 -19844080.83749 -15453607.95648  21241350.7124   21241349.9894   21241351.283
        54.0004         49.0004
 -19212623.46948 -14909463.32047  21985610.9514   21985611.5354   21985611.268
        51.0004         47.0004
 -11993040.50448  -9289667.93247  22474911.4854   22474915.2084   22474912.069
        51.0004         46.0004
 -24122434.58449 -18753938.51748  20856739.4544   20856743.3824   20856740.190
        55.0004         50.0004
 -25220855.01549 -19593269.92748  20355053.0894   20355053.1824   20355053.100
        56.0004         52.0004
  -9057357.85748  -7008381.52347  23045108.3424   23045112.0824   23045106.628
        48.0004         44.0004
  -1647510.61947  -1278018.12746  24153326.8854   24153327.1604   24153325.407
        42.0004         37.0004
 15  1  1  0  4 25.0000000  0  7G02G29G24G25G12G06G14
 -19844019.36149 -15453560.05448  21241362.3854   21241361.4754   21241363.038
        54.0004         49.0004
 -19215124.92148 -14911412.50447  21985134.8184   21985136.2184   21985135.373
        51.0004         47.0004
 -11989783.25148  -9287129.81247  22475531.6734   22475534.9544   22475531.814
        51.0004         46.0004
 -24124123.01249 -18755254.17548  20856418.2834   20856422.1194   20856418.869
        55.0004         50.0004
 -25220112.52149 -19592691.36048  20355194.3504   20355194.5534   20355194.407
        56.0004         52.0004
  -9054808.48348  -7006394.99947  23045591.5494   23045596.7294   23045591.596
        48.0004         44.0004
  -1645938.86247  -1276793.37946  24153626.9344   24153626.2854   24153624.672
        42.0004         37.0004
 15  1  1  0  4 26.0000000  0  7G02G29G24G25G12G06G14
 -19843957.43449 -15453511.79748  21241374.2084   21241373.5034   21241374.897
        54.0004         49.0004
 -19217626.19448 -14913361.55047  21984658.9024   21984659.4214   21984659.518
        51.0004         47.0004
 -11986525.81448  -9284591.55147  22476151.0074   22476154.5584   22476151.703
        51.0004         46.0004
 -24125811.25049 -18756569.68648  20856096.9424   20856100.9814   20856097.564
        55.0004         50.0004
 -25219369.74649 -19592112.57448  20355335.7744   20355336.0124   20355335.748
        56.0004         52.0004
  -9052258.75948  -7004408.20047  23046077.4034   23046082.2734   23046076.578
        48.0004         44.0004
  -1644366.74847  -1275568.35346  24153925.6824   24153925.0254   24153923.978
        42.0004         37.0004
 15  1  1  0  4 27.0000000  0  7G02G29G24G25G12G06G14
 -19843894.84549 -15453463.02948  21241386.1294   21241385.2254   21241386.850
        54.0004         49.0004
 -19220127.07048 -14915310.28447  21984182.5934   21984183.8604   21984183.694
        51.0004         47.0004
 -11983267.99048  -9282052.98447  22476771.5764   22476775.3774   22476771.598
        51.0004         46.0004
 -24127499.07649 -18757884.87548  20855775.6544   20855779.7444   20855776.373
        55.0004         50.0004
 -25218626.48749 -19591533.41148  20355477.2084   20355477.3834   20355477.180
        56.0004         52.0004
  -9049708.50748  -7002420.99347  23046562.4184   23046566.6354   23046561.687
        48.0004         43.0004
  -1642794.13047  -1274342.93746  24154224.3784   24154224.4844   24154223.201
        42.0004         37.0004
 15  1  1  0  4 28.0000000  0  7G02G29G24G25G12G06G14
 -19843831.59449 -15453413.74048  21241397.9234   21241397.5054   21241398.877
        54.0004         49.0004
 -19222627.56748 -14917258.71847  21983706.8804   21983707.7864   21983707.831
        51.0004         47.0004
 -11980009.78548  -9279514.12447  22477390.9494   22477394.9804   22477391.604
        51.0004         46.0004
 -24129186.48249 -18759199.73648  20855454.5814   20855458.6494   20855455.218
        55.0004         50.0004
 -25217882.74749 -19590953.87448  20355618.6454   20355618.7694   20355618.765
        56.0004         52.0004
  -9047157.73248  -7000433.37247  23047048.5404   23047053.6934   23047047.132
        48.0004         44.0004
  -1641220.98347  -1273117.11046  24154524.1524   24154524.8184   24154522.731
        42.0004         37.0004
 15  1  1  0  4 29.0000000  0  7G02G29G24G25G12G06G14
 -19843767.29949 -15453363.64048  21241410.4524   21241409.3444   21241411.143
        54.0004         49.0004
 -19225127.29548 -14919206.55947  21983231.4234   21983232.2414   21983232.120
        51.0004         47.0004
 -11976750.82148  -9276974.67247  22478012.2064   22478014.5414   22478011.758
        51.0004         46.0004
 -24130873.10149 -18760513.98448  20855133.6574   20855137.7024   20855134.267
        55.0004         50.0004
 -25217138.14349 -19590373.66448  20355760.4154   20355760.7034   20355760.494
        56.0004         52.0004
  -9044606.02948  -6998445.03647  23047533.2314   23047537.5854   23047532.643
        48.0004         43.0004
  -1639646.91847  -1271890.56446  24154822.2564   24154825.1344   24154822.324
        42.0004         37.0004
 15  1  1  0  4 30.0000000  0  7G02G29G24G25G12G06G14
 -19843702.25649 -15453312.95848  21241422.6714   21241421.7644   21241423.596
        54.0004         49.0004
 -19227626.55548 -14921154.03347  21982755.3884   21982756.6244   21982756.545
        51.0004         47.0004
 -11973491.37348  -9274434.84247  22478631.7214   22478634.5894   22478632.047
        51.0004         46.0004
 -24132559.22649 -18761827.84748  20854812.7794   20854816.8344   20854813.386
        55.0004         50.0004
 -25216392.97549 -19589793.01548  20355902.2964   20355902.3814   20355902.340
        56.0004         52.0004
  -9042053.70048  -6996456.21047  23048021.0744   23048024.3864   23048018.205
        48.0004         43.0004
  -1638072.21147  -1270663.52146  24155121.6084   24155123.4264   24155122.075
        42.0004         37.0004
 15  1  1  0  4 31.0000000  0  7G02G29G24G25G12G06G14
 -19843636.97149 -15453262.08848  21241435.0424   21241434.4414   21241435.998
        54.0004         49.0004
 -19230125.83548 -14923101.52647  21982280.5314   21982280.9874   21982280.908
        51.0004         47.0004
 -11970231.95748  -9271895.04047  22479253.2084   22479255.4814   22479252.293
        51.0004         46.0004
 -24134245.35149 -18763141.71348  20854492.0434   20854496.0264   20854492.491
        55.0004         50.0004
 -25215647.73849 -19589212.31248  20356044.2834   20356044.1504   20356044.172
        56.0004         52.0004
  -9039501.26748  -6994467.30147  23048504.0224   23048510.1344   23048503.879
        48.0004         44.0004
  -1636497.41447  -1269436.40346  24155420.8684   24155422.6044   24155421.616
        42.0004         37.0004
 15  1  1  0  4 32.0000000  0  7G02G29G24G25G12G06G14
 -19843571.45249 -15453211.03248  21241447.5444   21241446.7764   21241448.445
        54.0004         49.0004
 -19232625.16248 -14925049.05347  21981804.5394   21981805.1884   21981805.295
        51.0004         47.0004
 -11966972.57548  -9269355.26147  22479872.3214   22479875.3914   22479872.570
        51.0004         46.0004
 -24135931.49449 -18764455.58948  20854171.1294   20854175.1464   20854171.600
        55.0004         50.0004
 -25214902.43949 -19588631.55948  20356185.9894   20356186.0454   20356186.030
        56.0004         52.0004
  -9036948.70448  -6992478.29047  23048990.0584   23048994.4564   23048989.554
        48.0004         44.0004
  -1634922.49047  -1268209.18946  24155720.7584   24155721.9984   24155721.079
        42.0004         37.0004
 15  1  1  0  4 33.0000000  0  7G02G29G24G25G12G06G14
 -19843505.38049 -15453159.55048  21241460.2784   21241459.1804   21241460.998
        54.0004         49.0004
 -19235124.20648 -14926996.35747  21981328.8384   21981329.9784   21981329.740
        51.0004         47.0004
 -11963712.94048  -9266815.28247  22480493.2674   22480496.3604   22480492.788
        51.0004         46.0004
 -24137617.33549 -18765769.23248  20853850.4624   20853854.3994   20853850.786
        55.0004         50.0004
 -25214156.76849 -19588050.51648  20356327.8914   20356327.7784   20356327.932
        56.0004         52.0004
  -9034395.74148  -6990488.96647  23049475.9454   23049480.3704   23049475.400
        48.0004         44.0004
  -1633347.17447  -1266981.67146  24156020.0264   24156021.0134   24156020.498
        42.0004         37.0004
 15  1  1  0  4 34.0000000  0  7G02G29G24G25G12G06G14
 -19843438.48949 -15453107.42348  21241473.0094   21241472.1314   21241473.687
        54.0004         49.0004
 -19237622.70248 -14928943.23847  21980853.7694   21980854.3324   21980854.230
        51.0004         47.0004
 -11960452.73548  -9264274.85847  22481113.5584   22481116.5094   22481113.117
        51.0004         46.0004
 -24139302.60849 -18767082.43048  20853529.8074   20853533.3874   20853530.089
        55.0004         50.0004
 -25213410.45249 -19587468.97048  20356469.9104   20356470.0614   20356469.933
        56.0004         52.0004
  -9031842.06548  -6988499.08447  23049963.3764   23049967.3674   23049961.386
        48.0004         44.0004
  -1631771.14047  -1265753.59546  24156319.0074   24156320.6994   24156319.942
        42.0004         37.0004
 15  1  1  0  4 35.0000000  0  7G02G29G24G25G12G06G14
 -19843370.78649 -15453054.66848  21241485.6534   21241485.2214   21241486.507
        54.0004         49.0004
 -19240120.66248 -14930889.70347  21980377.7084   21980378.9674   21980378.861
        51.0004         47.0004
 -11957191.99548  -9261734.02147  22481733.7974   22481737.6004   22481733.624
        51.0004         46.0004
 -24140987.32249 -18768395.19548  20853209.0734   20853212.9434   20853209.514
        55.0004         50.0004
 -25212663.49649 -19586886.92548  20356611.9634   20356612.1574   20356612.065
        56.0004         52.0004
  -9029287.70948  -6986508.67647  23050449.5154   23050452.7054   23050447.501
        48.0004         44.0004
  -1630194.41447  -1264524.97946  24156618.2974   24156620.3524   24156619.284
        42.0004         37.0004
 15  1  1  0  4 36.0000000  0  7G02G29G24G25G12G06G14
 -19843302.88549 -15453001.76048  21241498.6974   21241498.1124   21241499.389
        54.0004         49.0004
 -19242618.69048 -14932836.21747  21979903.2974   21979903.4274   21979903.482
        51.0004         47.0004
 -11953931.31848  -9259193.23847  22482354.2794   22482357.7024   22482354.084
        51.0004         46.0004
 -24142672.07649 -18769707.99348  20852888.4174   20852892.4574   20852888.930
        55.0004         50.0004
 -25211916.52249 -19586304.86948  20356754.2864   20356754.2554   20356754.245
        56.0004         52.0004
  -9026733.27648  -6984518.21147  23050935.2194   23050938.4504   23050933.804
        48.0004         44.0004
  -1628617.62347  -1263296.31346  24156919.4654   24156920.6734   24156919.143
        42.0004         37.0004
 15  1  1  0  4 37.0000000  0  7G02G29G24G25G12G06G14
 -19843234.48149 -15452948.45648  21241511.6884   21241510.8384   21241512.302
        54.0004         49.0004
 -19245116.49848 -14934782.56147  21979427.4804   21979428.7544   21979428.063
        51.0004         47.0004
 -11950670.41148  -9256652.26847  22482975.0544   22482978.1624   22482974.614
        51.0004         46.0004
 -24144356.58449 -18771020.59748  20852568.0014   20852571.6564   20852568.387
        55.0004         50.0004
 -25211169.21949 -19585722.55348  20356896.4154   20356896.3994   20356896.465
        56.0004         52.0004
  -9024178.46548  -6982527.44947  23051420.2374   23051425.8974   23051419.877
        48.0004         44.0004
  -1627040.46747  -1262067.36446  24157220.4744   24157220.6964   24157219.409
        42.0004         37.0004
 15  1  1  0  4 38.0000000  0  7G02G29G24G25G12G06G14
 -19843165.42649 -15452894.64948  21241524.8344   21241524.2534   21241525.434
        54.0004         49.0004
 -19247613.91848 -14936728.60647  21978952.3774   21978952.8174   21978952.721
        51.0004         47.0004
 -11947409.11248  -9254110.99747  22483595.4554   22483598.6544   22483595.158
        51.0004         46.0004
 -24146040.68849 -18772332.88548  20852247.5184   20852251.5994   20852247.948
        55.0004         50.0004
 -25210421.43649 -19585139.86748  20357038.7744   20357038.7214   20357038.772
        56.0004         52.0004
  -9021623.13548  -6980536.28447  23051907.3754   23051910.6874   23051906.227
        48.0004         43.0004
  -1625462.77947  -1260837.99946  24157520.8534   24157521.3734   24157519.909
        42.0004         37.0004
 15  1  1  0  4 39.0000000  0  7G02G29G24G25G12G06G14
 -19843095.81849 -15452840.40748  21241538.0484   21241537.1814   21241538.636
        54.0004         49.0004
 -19250111.06648 -14938674.43247  21978477.0454   21978477.9384   21978477.557
        51.0004         47.0004
 -11944147.53348  -9251569.50847  22484215.8784   22484219.2044   22484215.805
        51.0004         46.0004
 -24147724.48349 -18773644.93448  20851926.9864   20851930.7374   20851927.549
        55.0004         50.0004
 -25209673.27749 -19584556.88648  20357181.1434   20357181.2704   20357181.108
        56.0004         52.0004
  -9019067.37448  -6978544.78047  23052393.5514   23052398.3384   23052392.708
        48.0004         43.0004
  -1623884.69347  -1259608.32246  24157822.6694   24157822.4344   24157820.718
        42.0004         37.0004
 15  1  1  0  4 40.0000000  0  7G02G29G24G25G12G06G14
 -19843025.23249 -15452785.40448  21241551.4574   21241550.7574   21241552.041
        54.0004         49.0004
 -19252607.50448 -14940619.70647  21978001.9154   21978003.1594   21978002.370
        51.0004         47.0004
 -11940885.24848  -9249027.46847  22484837.0884   22484839.9944   22484836.554
        51.0004         46.0004
 -24149407.55349 -18774956.41848  20851606.5704   20851610.5544   20851607.310
        55.0004         50.0004
 -25208924.32549 -19583973.28748  20357323.5464   20357323.5464   20357323.655
        56.0004         52.0004
  -9016510.75948  -6976552.61147  23052879.7444   23052883.9944   23052879.231
        48.0004         44.0004
  -1622305.75147  -1258377.97946  24158123.3814   24158123.0764   24158121.744
        42.0004         37.0004
 15  1  1  0  4 41.0000000  0  7G02G29G24G25G12G06G14
 -19842954.42949 -15452730.23548  21241564.8314   21241564.2964   21241565.505
        54.0004         49.0004
 -19255103.99448 -14942565.02347  21977526.8554   21977527.8284   21977527.296
        51.0004         47.0004
 -11937623.00748  -9246485.45847  22485457.5434   22485460.9354   22485457.327
        51.0004         46.0004
 -24151090.65449 -18776267.92748  20851286.6104   20851290.2124   20851287.030
        55.0004         50.0004
 -25208175.33349 -19583389.65748  20357466.2424   20357466.2114   20357466.230
        56.0004         52.0004
  -9013954.05148  -6974560.37147  23053366.9794   23053371.2464   23053365.834
        48.0004         44.0004
  -1620726.73647  -1257147.58046  24158423.7144   24158423.9884   24158422.701
        42.0004         37.0004
 15  1  1  0  4 42.0000000  0  7G02G29G24G25G12G06G14
 -19842883.19449 -15452674.72648  21241578.4904   21241577.7534   21241579.036
        54.0004         49.0004
 -19257600.32648 -14944510.21847  21977051.6634   21977052.9304   21977052.171
        51.0004         47.0004
 -11934360.60148  -9243943.32547  22486077.9884   22486081.7574   22486078.019
        51.0004         46.0004
 -24152773.57249 -18777579.28948  20850966.2864   20850970.2364   20850966.800
        55.0004         50.0004
 -25207426.08449 -19582805.82648  20357608.8264   20357608.5044   20357608.799
        56.0004         52.0004
  -9011397.05448  -6972567.90647  23053853.4144   23053856.8524   23053852.548
        48.0004         44.0004
  -1619147.38847  -1255916.92046  24158724.1744   24158724.3284   24158723.313
        42.0004         37.0004
 15  1  1  0  4 43.0000000  0  7G02G29G24G25G12G06G14
 -19842811.18749 -15452618.61648  21241591.9344   21241591.4014   21241592.694
        54.0004         49.0004
 -19260096.16748 -14946455.02847  21976577.0804   21976578.0624   21976577.238
        51.0004         47.0004
 -11931097.68348  -9241400.79147  22486698.9824   22486702.2074   22486698.961
        51.0004         46.0004
 -24154455.96249 -18778890.24248  20850646.0994   20850649.7754   20850646.653
        55.0004         50.0004
 -25206676.24349 -19582221.53348  20357751.3754   20357751.4894   20357751.465
        56.0004         52.0004
  -9008839.40248  -6970574.92947  23054339.7534   23054344.0584   23054339.377
        48.0004         44.0004
  -1617567.42747  -1254685.78346  24159024.5324   24159025.7304   24159024.113
        42.0004         37.0004
 15  1  1  0  4 44.0000000  0  7G02G29G24G25G12G06G14
 -19842738.32249 -15452561.83948  21241606.0544   21241605.3964   21241606.549
        54.0004         49.0004
 -19262591.41948 -14948399.38147  21976102.4624   21976102.7164   21976102.413
        51.0004         47.0004
 -11927834.19548  -9238857.81447  22487320.5784   22487323.4564   22487319.860
        51.0004         46.0004
 -24156137.74749 -18780200.72548  20850325.9604   20850329.6834   20850326.612
        55.0004         50.0004
 -25205925.71449 -19581636.70548  20357894.2404   20357894.1554   20357894.261
        56.0004         52.0004
  -9006281.01248  -6968581.37847  23054827.8874   23054830.0794   23054826.410
        48.0004         43.0004
  -1615986.72647  -1253454.06946  24159324.6364   24159325.9064   24159325.013
        42.0004         37.0004
 15  1  1  0  4 45.0000000  0  7G02G29G24G25G12G06G14
 -19842664.89549 -15452504.62548  21241619.7654   21241619.4564   21241620.499
        54.0004         49.0004
 -19265086.37448 -14950343.50347  21975627.2834   21975628.5524   21975627.698
        51.0004         47.0004
 -11924570.41648  -9236314.61347  22487941.2284   22487944.6534   22487940.881
        51.0004         46.0004
 -24157819.21849 -18781510.96548  20850006.2454   20850009.6924   20850006.617
        55.0004         50.0004
 -25205174.79649 -19581051.57748  20358037.2674   20358037.1094   20358037.162
        56.0004         52.0004
  -9003722.18448  -6966587.48447  23055313.2334   23055318.3234   23055313.326
        48.0004         43.0004
  -1614405.57847  -1252222.00746  24159625.0904   24159625.5404   24159625.438
        42.0004         37.0004
 15  1  1  0  4 46.0000000  0  7G02G29G24G25G12G06G14
 -19842591.08249 -15452447.10648  21241634.1254   21241633.2284   21241634.551
        54.0004         49.0004
 -19267581.21548 -14952287.53047  21975152.2344   21975153.0804   21975152.978
        51.0004         47.0004
 -11921306.52748  -9233771.32147  22488561.8954   22488565.7304   22488561.964
        51.0004         46.0004
 -24159500.53849 -18782821.08448  20849686.1374   20849689.8504   20849686.640
        55.0004         50.0004
 -25204423.66849 -19580466.28148  20358179.9454   20358180.1504   20358180.077
        56.0004         52.0004
  -9001163.10848  -6964593.40247  23055800.3974   23055804.6524   23055800.362
        48.0004         43.0004
  -1612824.16247  -1250989.73346  24159924.9754   24159926.2244   24159925.906
        42.0004         37.0004
 15  1  1  0  4 47.0000000  0  7G02G29G24G25G12G06G14
 -19842516.92449 -15452389.32048  21241648.1564   21241647.4634   21241648.641
        54.0004         49.0004
 -19270075.99448 -14954231.51547  21974678.1814   21974678.8014   21974678.276
        51.0004         47.0004
 -11918042.57548  -9231227.98147  22489183.6394   22489186.8594   22489183.068
        51.0004         46.0004
 -24161181.78849 -18784131.14848  20849365.9134   20849369.8294   20849366.628
        55.0004         50.0004
 -25203672.37849 -19579880.86048  20358323.1594   20358322.9394   20358323.010
        56.0004         52.0004
  -8998603.81148  -6962599.14047  23056287.5614   23056291.2894   23056287.406
        48.0004         43.0004
  -1611242.57147  -1249757.32546  24160225.2394   24160227.8214   24160226.448
        42.0004         37.0004
 15  1  1  0  4 48.0000000  0  7G02G29G24G25G12G06G14
 -19842442.02249 -15452330.95448  21241662.2844   21241661.8534   21241662.891
        54.0004         49.0004
 -19272570.29948 -14956175.13047  21974203.3944   21974203.8824   21974203.559
        51.0004         47.0004
 -11914778.13548  -9228684.26247  22489804.3864   22489808.3034   22489804.230
        51.0004         46.0004
 -24162862.53949 -18785440.82448  20849046.4394   20849050.1314   20849046.773
        55.0004         50.0004
 -25202920.52049 -19579294.99748  20358466.0064   20358466.0854   20358466.045
        56.0004         52.0004
  -8996043.89348  -6960604.40247  23056774.2274   23056778.9974   23056774.634
        48.0004         43.0004
  -1609660.34247  -1248524.41646  24160526.6214   24160529.3014   24160527.210
        42.0004         37.0004
 15  1  1  0  4 49.0000000  0  7G02G29G24G25G12G06G14
 -19842366.63249 -15452272.21048  21241676.7964   21241676.1664   21241677.206
        54.0004         49.0004
 -19275064.39748 -14958118.58347  21973728.5054   21973729.3764   21973728.896
        51.0004         47.0004
 -11911513.48848  -9226140.37947  22490425.0884   22490429.8414   22490425.455
        51.0004         46.0004
 -24164543.05349 -18786750.31648  20848726.7564   20848730.0494   20848726.937
        55.0004         50.0004
 -25202168.35449 -19578708.89448  20358609.0844   20358609.2994   20358609.189
        56.0004         52.0004
  -8993483.61948  -6958609.38347  23057261.2654   23057264.8754   23057261.819
        48.0004         43.0004
  -1608077.75347  -1247291.23146  24160828.3904   24160830.6494   24160828.372
        42.0004         37.0004
 15  1  1  0  4 50.0000000  0  7G02G29G24G25G12G06G14
 -19842290.80549 -15452213.12348  21241691.0754   21241690.4644   21241691.692
        54.0004         49.0004
 -19277558.32448 -14960061.90247  21973254.3564   21973254.7264   21973254.251
        51.0004         47.0004
 -11908248.67548  -9223596.36747  22491047.2204   22491050.9904   22491046.792
        51.0004         46.0004
 -24166223.37949 -18788059.66048  20848406.8984   20848410.6474   20848407.103
        55.0004         50.0004
 -25201415.92849 -19578122.58848  20358752.1994   20358752.3594   20358752.337
        56.0004         52.0004
  -8990923.04348  -6956614.12547  23057749.1644   23057753.5004   23057749.073
        48.0004         43.0004
  -1606494.88147  -1246057.82846  24161130.3494   24161132.0764   24161130.129
        42.0004         37.0004
 15  1  1  0  4 51.0000000  0  7G02G29G24G25G12G06G14
 -19842214.36049 -15452153.55448  21241705.6484   21241705.1734   21241706.260
        54.0004         49.0004
 -19280051.90648 -14962004.94847  21972779.6664   21972780.0174   21972779.731
        51.0004         47.0004
 -11904983.53848  -9221052.10647  22491667.7494   22491672.1234   22491668.075
        51.0004         46.0004
 -24167903.33449 -18789368.71848  20848087.1424   20848090.9744   20848087.354
        55.0004         50.0004
 -25200663.05249 -19577535.93048  20358895.6814   20358895.5804   20358895.583
        56.0004         52.0004
  -8988361.97148  -6954618.48847  23058235.3364   23058241.0544   23058236.445
        48.0004         43.0004
  -1604911.52147  -1244824.04046  24161432.3064   24161434.5524   24161432.134
        42.0004         37.0004
 15  1  1  0  4 52.0000000  0  7G02G29G24G25G12G06G14
 -19842137.15049 -15452093.39248  21241720.3944   21241719.8534   21241720.913
        54.0004         49.0004
 -19282545.00248 -14963947.62147  21972304.8784   21972305.6114   21972305.261
        51.0004         47.0004
 -11901717.90148  -9218507.45647  22492290.4404   22492293.3684   22492289.494
        51.0004         46.0004
 -24169582.77549 -18790677.37348  20847767.5114   20847771.2474   20847767.774
        55.0004         50.0004
 -25199909.58549 -19576948.81348  20359039.0424   20359039.0484   20359038.982
        56.0004         52.0004
  -8985800.26648  -6952622.35347  23058723.3524   23058727.3354   23058723.845
        48.0004         43.0004
  -1603327.51547  -1243589.75046  24161734.3904   24161736.1674   24161734.107
        42.0004         37.0004
 15  1  1  0  4 53.0000000  0  7G02G29G24G25G12G06G14
 -19842059.08749 -15452032.56248  21241735.6414   21241734.6324   21241735.847
        54.0004         49.0004
 -19285037.51648 -14965889.84147  21971830.6924   21971831.4234   21971830.970
        51.0004         47.0004
 -11898451.69648  -9215962.35747  22492910.5574   22492915.1884   22492910.996
        51.0004         46.0004
 -24171261.62049 -18791985.56348  20847448.0204   20847451.7424   20847448.252
        55.0004         50.0004
 -25199155.44849 -19576361.17448  20359182.5684   20359182.7814   20359182.483
        56.0004         52.0004
  -8983237.83848  -6950625.65547  23059211.3194   23059216.6604   23059211.387
        48.0004         43.0004
  -1601742.79047  -1242354.89846  24162036.1924   24162037.6144   24162036.404
        42.0004         37.0004
 15  1  1  0  4 54.0000000  0  7G02G29G24G25G12G06G14
 -19841980.67249 -15451971.46248  21241750.2584   21241749.7654   21241750.810
        54.0004         49.0004
 -19287529.94248 -14967831.99147  21971356.7914   21971357.6164   21971356.770
        51.0004         47.0004
 -11895185.41448  -9213417.20647  22493533.5784   22493536.6374   22493532.531
        51.0004         46.0004
 -24172940.35049 -18793293.66648  20847128.8204   20847132.1424   20847128.787
        55.0004         50.0004
 -25198401.12549 -19575773.39248  20359325.9074   20359326.0974   20359326.051
        56.0004         52.0004
  -8980675.18248  -6948628.78347  23059699.3284   23059702.3014   23059698.922
        48.0004         43.0004
  -1600157.84147  -1241119.87346  24162337.1694   24162339.2044   24162338.429
        42.0004         37.0004
 15  1  1  0  4 55.0000000  0  7G02G29G24G25G12G06G14
 -19841901.74449 -15451909.95748  21241765.3874   21241764.8124   21241765.866
        54.0004         49.0004
 -19290022.14148 -14969773.96347  21970881.6184   21970882.8744   21970882.548
        51.0004         47.0004
 -11891918.88348  -9210871.85347  22494153.7504   22494157.8574   22494154.137
        51.0004         46.0004
 -24174618.82149 -18794601.56648  20846809.0614   20846813.2014   20846809.386
        55.0004         50.0004
 -25197646.46649 -19575185.34548  20359469.7934   20359469.7944   20359469.645
        56.0004         52.0004
  -8978112.14048  -6946631.60547  23060187.2494   23060191.4714   23060186.641
        48.0004         43.0004
  -1598572.52447  -1239884.55846  24162638.1024   24162639.7904   24162640.267
        42.0004         37.0004
 15  1  1  0  4 56.0000000  0  7G02G29G24G25G12G06G14
 -19841822.20849 -15451847.98448  21241780.6344   21241779.7594   21241781.088
        54.0004         49.0004
 -19292513.99848 -14971715.67147  21970407.9514   21970408.7074   21970408.310
        51.0004         47.0004
 -11888652.02148  -9208326.24647  22494775.9864   22494780.1204   22494775.786
        50.0004         46.0004
 -24176296.92949 -18795909.18348  20846490.0934   20846493.6674   20846490.062
        55.0004         50.0004
 -25196891.37849 -19574596.96748  20359613.3014   20359613.4984   20359613.406
        56.0004         52.0004
  -8975548.60848  -6944634.04847  23060674.6364   23060679.1744   23060674.367
        48.0004         43.0004
  -1596986.72047  -1238648.86946  24162939.5374   24162941.4384   24162942.066
        42.0004         37.0004
 15  1  1  0  4 57.0000000  0  7G02G29G24G25G12G06G14
 -19841741.83449 -15451785.35548  21241795.9294   21241795.4064   21241796.469
        54.0004         49.0004
 -19295005.28448 -14973656.93447  21969934.4654   21969934.2464   21969934.097
        51.0004         47.0004
 -11885384.59448  -9205780.20147  22495397.3394   22495401.7504   22495397.588
        50.0004         46.0004
 -24177974.44349 -18797216.33848  20846170.6524   20846174.4814   20846170.859
        55.0004         50.0004
 -25196135.62549 -19574008.06848  20359757.1944   20359757.3244   20359757.244
        56.0004         52.0004
  -8972984.37948  -6942635.95047  23061162.6104   23061166.7844   23061162.309
        48.0004         43.0004
  -1595400.20147  -1237412.61946  24163241.3654   24163243.0814   24163243.823
        42.0004         37.0004
 15  1  1  0  4 58.0000000  0  7G02G29G24G25G12G06G14
 -19841660.98249 -15451722.35248  21241811.2044   21241810.4534   21241811.872
        54.0004         49.0004
 -19297496.37348 -14975598.03947  21969460.0514   21969460.4584   21969460.014
        51.0004         47.0004
 -11882116.97348  -9203234.00447  22496019.5824   22496023.2994   22496019.233
        50.0004         46.0004
 -24179651.73149 -18798523.31448  20845851.5914   20845855.2724   20845851.754
        55.0004         50.0004
 -25195379.57949 -19573418.94248  20359901.0534   20359901.2074   20359901.140
        56.0004         52.0004
  -8970419.79948  -6940637.57247  23061650.6344   23061654.7944   23061650.376
        48.0004         43.0004
  -1593813.33547  -1236176.10146  24163543.1894   24163544.1244   24163545.403
        42.0004         37.0004
 15  1  1  0  4 59.0000000  0  7G02G29G24G25G12G06G14
 -19841579.26649 -15451658.67748  21241826.8984   21241826.2144   21241827.478
        54.0004         49.0004
 -19299986.87048 -14977538.68647  21968985.2284   21968986.5754   21968986.099
        51.0004         47.0004
 -11878848.76948  -9200687.34947  22496641.3884   22496645.4714   22496641.115
        50.0004         46.0004
 -24181328.41149 -18799829.81948  20845532.5674   20845536.3494   20845532.775
        55.0004         50.0004
 -25194622.84049 -19572829.27648  20360045.2184   20360045.3354   20360045.128
        56.0004         52.0004
  -8967854.47048  -6938638.61847  23062139.0864   23062143.0394   23062138.486
        48.0004         43.0004
  -1592225.74647  -1234939.02046  24163843.7724   24163846.7544   24163847.116
        42.0004         37.0004
 15  1  1  0  5  0.0000000  0  7G02G29G24G25G12G06G14
 -19841497.06049 -15451594.62148  21241842.5924   21241841.5804   21241843.201
        54.0004         49.0004
 -19302477.14448 -14979479.15747  21968511.6014   21968512.2554   21968512.193
        51.0004         47.0004
 -11875580.34248  -9198140.52847  22497263.2574   22497267.4674   22497262.960
        50.0004         46.0004
 -24183004.84449 -18801136.13148  20845213.2094   20845217.0994   20845213.833
        55.0004         50.0004
 -25193865.79449 -19572239.37348  20360189.0974   20360189.1354   20360189.218
        56.0004         52.0004
  -8965288.79248  -6936639.39147  23062627.3574   23062631.3174   23062626.641
        48.0004         43.0004
  -1590637.80047  -1233701.65946  24164147.1534   24164148.1894   24164148.687
        42.0004         37.0004
 15  1  1  0  5  1.0000000  0  7G02G29G24G25G12G06G14
 -19841414.49949 -15451530.28748  21241858.4394   21241857.4334   21241858.907
        54.0004         49.0004
 -19304967.34448 -14981419.57447  21968037.9264   21968038.3954   21968038.312
        51.0004         47.0004
 -11872311.85048  -9195593.65247  22497884.5584   22497889.5684   22497885.017
        50.0004         46.0004
 -24184681.17849 -18802442.36848  20844894.6414   20844898.3294   20844894.909
        55.0004         50.0004
 -25193108.57249 -19571649.33048  20360333.2514   20360333.4894   20360333.315
        56.0004         52.0004
  -8962722.89748  -6934639.99547  23063114.4674   23063119.8374   23063114.888
        48.0004         43.0004
  -1589049.61547  -1232464.11446  24164450.4434   24164451.5204   24164451.026
        42.0004         37.0004
 15  1  1  0  5  2.0000000  0  7G02G29G24G25G12G06G14
 -19841331.52549 -15451465.63248  21241874.0544   21241872.9704   21241874.684
        54.0004         49.0004
 -19307457.40748 -14983359.88247  21967564.2664   21967565.0764   21967564.429
        51.0004         46.0004
 -11869043.20448  -9193046.65647  22498507.5784   22498511.1384   22498507.001
        50.0004         46.0004
 -24186357.34149 -18803748.46848  20844575.5384   20844579.3364   20844576.018
        55.0004         50.0004
 -25192351.11549 -19571059.10548  20360477.2924   20360477.5174   20360477.421
        56.0004         52.0004
  -8960156.70848  -6932640.36447  23063604.2684   23063608.1634   23063603.138
        48.0004         43.0004
  -1587461.16547  -1231226.36246  24164753.7474   24164753.7334   24164753.855
        42.0004         37.0004
 15  1  1  0  5  3.0000000  0  7G02G29G24G25G12G06G14
 -19841248.07249 -15451400.60448  21241890.0554   21241889.2784   21241890.587
        54.0004         49.0004
 -19309947.25548 -14985300.02447  21967090.1554   21967090.5854   21967090.650
        51.0004         46.0004
 -11865774.36448  -9190499.50847  22499129.4464   22499133.5254   22499129.076
        50.0004         46.0004
 -24188033.27449 -18805054.39048  20844256.8304   20844260.1134   20844257.118
        55.0004         50.0004
 -25191593.34849 -19570468.63648  20360621.6724   20360621.6994   20360621.667
        56.0004         52.0004
  -8957590.17548  -6930640.46547  23064091.7554   23064096.5764   23064091.465
        48.0004         43.0004
  -1585872.39447  -1229988.35946  24165057.0624   24165055.7864   24165056.986
        42.0004         37.0004
 15  1  1  0  5  4.0000000  0  7G02G29G24G25G12G06G14
 -19841164.03949 -15451335.12248  21241906.0454   21241905.0284   21241906.595
        54.0004         49.0004
 -19312436.80448 -14987239.92747  21966616.6234   21966617.7734   21966616.848
        51.0004         47.0004
 -11862505.21348  -9187952.11447  22499751.0494   22499755.5404   22499751.068
        50.0004         46.0004
 -24189708.87149 -18806360.04948  20843937.6224   20843941.2494   20843938.314
        55.0004         50.0004
 -25190835.17549 -19569877.85348  20360765.9594   20360765.9764   20360765.999
        56.0004         52.0004
  -8955023.18148  -6928640.21347  23064580.3804   23064585.2794   23064579.889
        48.0004         43.0004
  -1584283.15447  -1228749.99246  24165359.6894   24165358.8174   24165359.834
        42.0004         37.0004
 15  1  1  0  5  5.0000000  0  7G02G29G24G25G12G06G14
 -19841079.36349 -15451269.14148  21241921.9034   21241921.3434   21241922.731
        54.0004         49.0004
 -19314925.99248 -14989179.55647  21966143.5544   21966143.8854   21966143.170
        51.0004         47.0004
 -11859235.69148  -9185404.43447  22500373.9604   22500377.7484   22500373.224
        50.0004         46.0004
 -24191384.08949 -18807665.41448  20843618.8054   20843622.7744   20843619.625
        55.0004         50.0004
 -25190076.54449 -19569286.71148  20360910.2944   20360910.2534   20360910.340
        56.0004         52.0004
  -8952455.67948  -6926639.55747  23065068.2804   23065073.6074   23065068.365
        48.0004         43.0004
  -1582693.40047  -1227511.22146  24165662.3454   24165662.5704   24165662.960
        42.0004         37.0004
 15  1  1  0  5  6.0000000  0  7G02G29G24G25G12G06G14
 -19840994.05649 -15451202.66748  21241938.7434   21241937.6354   21241938.931
        54.0004         49.0004
 -19317414.80948 -14991118.88947  21965669.4774   21965670.0524   21965669.642
        51.0004         46.0004
 -11855965.79648  -9182856.46547  22500995.3624   22500999.4294   22500995.412
        50.0004         46.0004
 -24193058.92549 -18808970.47948  20843300.0984   20843304.1634   20843300.956
        55.0004         50.0004
 -25189317.45149 -19568695.21248  20361054.6984   20361054.7194   20361054.796
        56.0004         52.0004
  -8949887.67348  -6924638.51247  23065556.8274   23065561.4734   23065557.042
        48.0004         43.0004
  -1581103.15147  -1226272.06446  24165965.6934   24165964.8694   24165965.935
        42.0004         37.0004
 15  1  1  0  5  7.0000000  0  7G02G29G24G25G12G06G14
 -19840907.88649 -15451135.52048  21241954.6574   21241953.4854   21241955.323
        54.0004         49.0004
 -19319903.04248 -14993057.77247  21965195.4454   21965196.7804   21965196.193
        51.0004         46.0004
 -11852695.32548  -9180308.04847  22501618.2424   22501622.2344   22501617.785
        50.0004         46.0004
 -24194733.13049 -18810275.05448  20842981.6614   20842985.7234   20842982.381
        55.0004         50.0004
 -25188557.67249 -19568103.17648  20361199.2044   20361199.5724   20361199.379
        56.0004         52.0004
  -8947318.94048  -6922636.90247  23066046.1164   23066050.9444   23066045.742
        48.0004         43.0004
  -1579512.17147  -1225032.34246  24166267.1354   24166266.0354   24166268.674
        42.0004         37.0004
 15  1  1  0  5  8.0000000  0  7G02G29G24G25G12G06G14
 -19840821.20449 -15451067.97848  21241971.2414   21241970.4124   21241971.710
        54.0004         49.0004
 -19322391.04248 -14994996.47547  21964722.8704   21964723.2114   21964722.769
        51.0004         47.0004
 -11849424.60748  -9177759.43747  22502241.1364   22502244.0744   22502240.209
        50.0004         46.0004
 -24196407.08749 -18811579.43848  20842663.1944   20842667.0614   20842663.857
        55.0004         50.0004
 -25187797.55849 -19567510.88148  20361343.8514   20361343.9644   20361344.047
        56.0004         52.0004
  -8944749.81248  -6920634.98347  23066535.2544   23066539.8334   23066534.547
        48.0004         43.0004
  -1577920.79547  -1223792.30946  24166569.2024   24166568.9524   24166570.960
        42.0004         37.0004
 15  1  1  0  5  9.0000000  0  7G02G29G24G25G12G06G14
 -19840733.80849 -15450999.87748  21241988.0244   21241986.9014   21241988.322
        54.0004         49.0004
 -19324878.59148 -14996934.82547  21964248.8444   21964250.4414   21964249.441
        51.0004         47.0004
 -11846153.42648  -9175210.46647  22502863.5034   22502868.0004   22502862.729
        50.0004         46.0004
 -24198080.56649 -18812883.44648  20842344.5264   20842348.5914   20842345.399
        55.0004         50.0004
 -25187036.89749 -19566918.15648  20361488.6314   20361488.8534   20361488.771
        56.0004         52.0004
  -8942180.09248  -6918632.60147  23067023.4174   23067029.5564   23067023.331
        48.0004         43.0004
  -1576328.82947  -1222551.81846  24166870.3054   24166872.7904   24166873.426
        42.0004         37.0004
 15  1  1  0  5 10.0000000  0  7G02G29G24G25G12G06G14
 -19840645.73649 -15450931.25048  21242004.7324   21242003.8064   21242005.133
        54.0004         49.0004
 -19327365.74048 -14998872.86147  21963775.5154   21963776.2424   21963776.239
        51.0004         47.0004
 -11842881.86748  -9172661.20247  22503485.5794   22503489.5704   22503485.222
        50.0004         46.0004
 -24199753.61949 -18814187.12448  20842026.4604   20842030.0804   20842027.063
        55.0004         50.0004
 -25186275.73849 -19566325.04648  20361633.4054   20361633.8304   20361633.560
        56.0004         52.0004
  -8939609.83648  -6916629.80347  23067512.4444   23067517.8014   23067512.276
        48.0004         43.0004
  -1574736.34247  -1221310.92346  24167173.4284   24167174.9814   24167175.674
        42.0004         37.0004
 15  1  1  0  5 11.0000000  0  7G02G29G24G25G12G06G14
 -19840557.57249 -15450862.54848  21242021.3804   21242020.4844   21242021.915
        54.0004         49.0004
 -19329853.06048 -15000811.03347  21963302.6074   21963303.0524   21963302.994
        51.0004         47.0004
 -11839610.49348  -9170112.07947  22504108.6574   22504112.2054   22504107.841
        50.0004         46.0004
 -24201426.82649 -18815490.92148  20841707.7894   20841711.6924   20841708.640
        55.0004         50.0004
 -25185514.66349 -19565732.00048  20361778.4014   20361778.5214   20361778.351
        56.0004         52.0004
  -8937039.61448  -6914627.03747  23068002.6194   23068006.1294   23068001.384
        48.0004         43.0004
  -1573143.88547  -1220070.05046  24167476.8064   24167479.2944   24167478.484
        42.0004         37.0004
 15  1  1  0  5 12.0000000  0  7G02G29G24G25G12G06G14
 -19840468.81949 -15450793.39248  21242038.3874   21242037.3944   21242038.782
        54.0004         49.0004
 -19332340.06448 -15002748.95447  21962829.1854   21962830.3394   21962829.704
        51.0004         47.0004
 -11836338.79948  -9167562.70947  22504730.8634   22504734.4964   22504730.380
        50.0004         46.0004
 -24203099.67949 -18816794.44348  20841389.5974   20841393.5634   20841390.334
        55.0004         50.0004
 -25184753.16749 -19565138.62648  20361923.2914   20361923.4454   20361923.238
        56.0004         52.0004
  -8934468.91148  -6912623.89847  23068490.8034   23068496.3344   23068490.472
        48.0004         43.0004
  -1571550.96547  -1218828.81446  24167779.9384   24167782.2764   24167781.294
        42.0004         37.0004
 15  1  1  0  5 13.0000000  0  7G02G29G24G25G12G06G14
 -19840379.53249 -15450723.81448  21242055.3104   21242054.4444   21242055.698
        54.0004         49.0004
 -19334826.80848 -15004686.67247  21962355.5684   21962356.6374   21962356.549
        51.0004         47.0004
 -11833066.84348  -9165013.13047  22505353.9984   22505357.0044   22505353.080
        50.0004         46.0004
 -24204772.26549 -18818097.75748  20841071.3284   20841075.1304   20841072.019
        55.0004         50.0004
 -25183991.33049 -19564544.98548  20362068.1484   20362068.5274   20362068.228
        56.0004         52.0004
  -8931897.84248  -6910620.46647  23068980.6684   23068985.7364   23068979.585
        48.0004         43.0004
  -1569957.64047  -1217587.26446  24168081.4214   24168085.9824   24168083.973
        42.0004         37.0004
 15  1  1  0  5 14.0000000  0  7G02G29G24G25G12G06G14
 -19840289.54749 -15450653.69748  21242072.4664   21242071.6914   21242072.850
        54.0004         49.0004
 -19337313.12648 -15006624.06847  21961882.6184   21961883.8854   21961883.396
        51.0004         47.0004
 -11829794.47848  -9162463.23747  22505975.8634   22505979.7854   22505975.840
        50.0004         46.0004
 -24206444.39549 -18819400.71348  20840753.0374   20840757.5274   20840753.812
        55.0004         50.0004
 -25183228.96049 -19563950.93148  20362213.1324   20362213.3734   20362213.255
        56.0004         52.0004
  -8929326.17848  -6908616.56947  23069469.5174   23069474.6654   23069468.796
        48.0004         43.0004
  -1568363.75847  -1216345.28046  24168385.5494   24168389.1164   24168387.174
        42.0004         37.0004
 15  1  1  0  5 15.0000000  0  7G02G29G24G25G12G06G14
 -19840199.04449 -15450583.17448  21242089.6374   21242088.7384   21242090.130
        54.0004         49.0004
 -19339799.18648 -15008561.25947  21961409.7154   21961411.2224   21961410.308
        51.0004         47.0004
 -11826521.85148  -9159913.13747  22506598.9214   22506603.3344   22506598.642
        50.0004         46.0004
 -24208116.23949 -18820703.44948  20840435.1874   20840438.9054   20840435.628
        55.0004         50.0004
 -25182466.23649 -19563356.60148  20362358.3244   20362358.5284   20362358.370
        56.0004         52.0004
  -8926754.12248  -6906612.37247  23069958.1714   23069963.7114   23069958.213
        48.0004         43.0004
  -1566769.51247  -1215103.01346  24168688.9414   24168692.4144   24168690.467
        42.0004         37.0004
 15  1  1  0  5 16.0000000  0  7G02G29G24G25G12G06G14
 -19840108.18349 -15450512.37448  21242106.7204   21242106.0184   21242107.492
        54.0004         49.0004
 -19342285.16648 -15010498.38447  21960936.4354   21960938.0154   21960937.160
        51.0004         47.0004
 -11823249.14148  -9157362.97647  22507221.9484   22507226.0104   22507221.410
        50.0004         46.0004
 -24209787.98549 -18822006.10948  20840116.8544   20840120.7634   20840117.457
        55.0004         50.0004
 -25181703.34249 -19562762.13848  20362503.5574   20362503.9674   20362503.543
        56.0004         52.0004
  -8924181.85348  -6904608.01047  23070448.5104   23070452.9764   23070447.649
        48.0004         43.0004
  -1565175.02047  -1213860.55346  24168994.1354   24168996.4484   24168994.238
        42.0004         37.0004
 15  1  1  0  5 17.0000000  0  7G02G29G24G25G12G06G14
 -19840016.71449 -15450441.09648  21242124.2704   21242123.2784   21242124.995
        54.0004         49.0004
 -19344770.81448 -15012435.25047  21960463.2564   21960465.2904   21960464.080
        51.0004         47.0004
 -11819976.10148  -9154812.55447  22507845.0734   22507848.8034   22507844.258
        50.0004         46.0004
 -24211459.37649 -18823308.49248  20839798.8134   20839802.6974   20839799.343
        55.0004         50.0004
 -25180940.01549 -19562167.33648  20362648.6634   20362649.2404   20362648.763
        56.0004         52.0004
  -8921609.09148  -6902603.26047  23070938.2664   23070943.7304   23070937.208
        48.0004         43.0004
  -1563580.06247  -1212617.72946  24169298.4774   24169300.0484   24169297.736
        42.0004         37.0004
 15  1  1  0  5 18.0000000  0  7G02G29G24G25G12G06G14
 -19839924.54149 -15450369.27448  21242141.9354   21242141.1894   21242142.546
        54.0004         49.0004
 -19347256.01848 -15014371.77547  21959990.8414   21959992.3924   21959991.090
        51.0004         47.0004
 -11816702.62648  -9152261.79747  22508467.6704   22508471.6544   22508467.158
        50.0004         46.0004
 -24213130.29349 -18824610.50548  20839480.8624   20839484.6044   20839481.341
        55.0004         50.0004
 -25180176.15149 -19561572.11948  20362794.1104   20362794.3354   20362794.069
        56.0004         52.0004
  -8919035.76148  -6900598.06647  23071428.1514   23071431.9574   23071426.890
        48.0004         43.0004
  -1561984.52447  -1211374.45546  24169602.4584   24169603.4684   24169601.385
        42.0004         37.0004
 15  1  1  0  5 19.0000000  0  7G02G29G24G25G12G06G14
 -19839831.76449 -15450296.97948  21242159.3664   21242158.5134   21242160.228
        54.0004         49.0004
 -19349740.90148 -15016308.04947  21959518.1654   21959519.3314   21959518.249
        51.0004         47.0004
 -11813428.84748  -9149710.80047  22509090.1374   22509094.3964   22509090.122
        50.0004         46.0004
 -24214800.86049 -18825912.24848  20839162.6314   20839166.8174   20839163.360
        55.0004         50.0004
 -25179411.87249 -19560976.57648  20362939.7154   20362939.9054   20362939.467
        56.0004         52.0004
  -8916461.95448  -6898592.49847  23071917.3014   23071923.2464   23071916.672
        48.0004         43.0004
  -1560388.52347  -1210130.81746  24169906.8204   24169906.7984   24169905.064
        42.0004         37.0004
 15  1  1  0  5 20.0000000  0  7G02G29G24G25G12G06G14
 -19839738.20349 -15450224.07448  21242176.9424   21242176.7344   21242177.978
        54.0004         49.0004
 -19352225.27648 -15018243.92247  21959044.4424   21959046.3064   21959045.435
        51.0004         47.0004
 -11810154.56748  -9147159.40947  22509713.7364   22509717.6404   22509713.198
        50.0004         46.0004
 -24216470.90349 -18827213.57948  20838845.2264   20838849.1954   20838845.518
        55.0004         50.0004
 -25178646.98149 -19560380.55648  20363084.8114   20363085.4184   20363084.996
        56.0004         52.0004
  -8913887.51148  -6896586.43947  23072407.1964   23072412.6444   23072406.648
        48.0004         43.0004
  -1558791.87447  -1208886.67446  24170210.2644   24170210.2194   24170208.959
        42.0004         37.0004
 15  1  1  0  5 21.0000000  0  7G02G29G24G25G12G06G14
 -19839643.65749 -15450150.40248  21242195.1934   21242194.5704   21242195.982
        54.0004         49.0004
 -19354708.93048 -15020179.24047  21958572.8694   21958573.7454   21958572.677
        51.0004         47.0004
 -11806879.55648  -9144607.45747  22510336.7054   22510339.6194   22510336.450
        50.0004         46.0004
 -24218140.19749 -18828514.32948  20838527.2684   20838531.2924   20838527.837
        55.0004         50.0004
 -25177881.28049 -19559783.90748  20363231.0234   20363231.1334   20363230.681
        56.0004         52.0004
  -8911312.19148  -6894579.70347  23072897.7474   23072903.0594   23072896.659
        48.0004         43.0004
  -1557194.34547  -1207641.84746  24170513.1774   24170514.4864   24170512.534
        42.0004         37.0004
 15  1  1  0  5 22.0000000  0  7G02G29G24G25G12G06G14
 -19839548.78849 -15450076.47648  21242213.0004   21242212.5474   21242214.021
        54.0004         49.0004
 -19357192.52648 -15022114.50847  21958099.7914   21958101.6784   21958099.969
        51.0004         47.0004
 -11803604.49248  -9142055.45947  22510959.8334   22510963.6994   22510959.660
        50.0004         46.0004
 -24219809.41849 -18829815.01948  20838210.0554   20838213.8644   20838210.116
        55.0004         50.0004
 -25177115.43349 -19559187.14348  20363376.5324   20363376.9864   20363376.388
        56.0004         52.0004
  -8908736.68248  -6892572.80947  23073387.7714   23073392.1564   23073386.759
        48.0004         43.0004
  -1555596.63447  -1206396.87746  24170816.3614   24170818.1434   24170816.219
        42.0004         37.0004
 15  1  1  0  5 23.0000000  0  7G02G29G24G25G12G06G14
 -19839453.61649 -15450002.31648  21242231.3134   21242230.9574   21242232.037
        54.0004         49.0004
 -19359676.09848 -15024049.76147  21957627.3794   21957628.8854   21957627.413
        51.0004         47.0004
 -11800329.42148  -9139503.46047  22511583.4344   22511587.5084   22511582.956
        50.0004         46.0004
 -24221478.58149 -18831115.66748  20837891.9524   20837896.0914   20837892.427
        55.0004         50.0004
 -25176349.45949 -19558590.28148  20363522.3304   20363522.7294   20363522.111
        56.0004         52.0004
  -8906160.99748  -6890565.78447  23073876.7194   23073882.8024   23073877.077
        48.0004         43.0004
  -1553998.78147  -1205151.79946  24171119.3664   24171121.7454   24171119.928
        42.0004         37.0004
 15  1  1  0  5 24.0000000  0  7G02G29G24G25G12G06G14
 -19839357.86649 -15449927.70648  21242249.6144   21242249.1394   21242250.161
        54.0004         49.0004
 -19362159.36648 -15025984.77447  21957154.7714   21957156.0584   21957154.895
        51.0004         47.0004
 -11797054.05748  -9136951.22847  22512206.0854   22512210.2024   22512206.294
        50.0004         46.0004
 -24223147.41649 -18832416.05748  20837574.7894   20837578.4864   20837574.831
        55.0004         50.0004
 -25175583.08849 -19557993.10948  20363668.1514   20363668.7184   20363667.873
        56.0004         52.0004
  -8903584.87048  -6888558.41747  23074367.9624   23074372.7004   23074367.301
        48.0004         43.0004
  -1552400.46347  -1203906.35646  24171423.2354   24171426.4104   24171423.708
        42.0004         37.0004
 15  1  1  0  5 25.0000000  0  7G02G29G24G25G12G06G14
 -19839261.45149 -15449852.57648  21242267.7174   21242267.4304   21242268.354
        54.0004         49.0004
 -19364642.24448 -15027919.48347  21956682.3714   21956682.9724   21956682.413
        51.0004         47.0004
 -11793778.27148  -9134398.66647  22512830.2234   22512834.5684   22512829.682
        50.0004         46.0004
 -24224815.82849 -18833716.11748  20837257.0144   20837261.1614   20837257.366
        55.0004         50.0004
 -25174816.22649 -19557395.55348  20363814.1404   20363814.4854   20363813.802
        56.0004         52.0004
  -8901008.20448  -6886550.62047  23074858.2834   23074863.2544   23074857.594
        48.0004         43.0004
  -1550801.60447  -1202660.49146  24171728.4274   24171731.2494   24171728.003
        42.0004         37.0004
 15  1  1  0  5 26.0000000  0  7G02G29G24G25G12G06G14
 -19839164.28449 -15449776.86348  21242286.4114   21242285.7434   21242286.821
        54.0004         49.0004
 -19367124.64248 -15029853.81947  21956210.2724   21956211.0424   21956210.015
        51.0004         47.0004
 -11790502.03348  -9131845.75647  22513453.4384   22513457.2234   22513453.119
        50.0004         46.0004
 -24226483.73449 -18835015.78648  20836939.7514   20836943.6124   20836939.949
        55.0004         50.0004
 -25174048.78549 -19556797.54948  20363960.0894   20363960.7464   20363959.845
        56.0004         52.0004
  -8898430.91548  -6884542.33947  23075348.8364   23075353.6184   23075348.096
        48.0004         43.0004
  -1549202.14347  -1201414.15846  24172032.0354   24172035.2094   24172032.400
        42.0004         37.0004
 15  1  1  0  5 27.0000000  0  7G02G29G24G25G12G06G14
 -19839066.69949 -15449700.82048  21242304.9814   21242304.2464   21242305.337
        54.0004         49.0004
 -19369606.89048 -15031788.03447  21955737.2374   21955739.3334   21955737.771
        51.0004         47.0004
 -11787225.64848  -9129292.72847  22514076.8804   22514080.9764   22514076.573
        50.0004         46.0004
 -24228151.47049 -18836315.32248  20836622.3864   20836626.3924   20836622.562
        55.0004         50.0004
 -25173281.09849 -19556199.35148  20364106.2964   20364106.4234   20364105.966
        56.0004         52.0004
  -8895853.34048  -6882533.84247  23075839.3464   23075843.8034   23075838.549
        48.0004         43.0004
  -1547602.37347  -1200167.58546  24172337.5274   24172339.8234   24172337.111
        42.0004         37.0004
 15  1  1  0  5 28.0000000  0  7G02G29G24G25G12G06G14
 -19838968.52449 -15449624.32448  21242323.4534   21242323.3184   21242323.987
        54.0004         49.0004
 -19372088.81748 -15033722.00647  21955265.7664   21955266.7964   21955265.486
        51.0004         47.0004
 -11783948.94248  -9126739.44747  22514700.3574   22514703.9864   22514700.111
        50.0004         46.0004
 -24229818.85349 -18837614.58248  20836304.9874   20836308.9514   20836305.337
        55.0004         50.0004
 -25172512.99349 -19555600.82748  20364252.2164   20364252.9904   20364252.115
        56.0004         52.0004
  -8893275.30148  -6880524.98147  23076330.3214   23076334.8664   23076329.228
        48.0004         43.0004
  -1546002.17647  -1198920.67946  24172642.4114   24172643.6244   24172641.705
        42.0004         37.0004
 15  1  1  0  5 29.0000000  0  7G02G29G24G25G12G06G14
 -19838869.93249 -15449547.49948  21242342.6014   21242341.6334   21242342.765
        54.0004         49.0004
 -19374570.59348 -15035655.85347  21954793.2764   21954794.4364   21954793.250
        51.0004         47.0004
 -11780672.08348  -9124186.05347  22515324.0244   22515327.7884   22515323.710
        50.0004         46.0004
 -24231486.07249 -18838913.71248  20835987.7304   20835991.5684   20835988.073
        55.0004         50.0004
 -25171744.64449 -19555002.11348  20364398.5414   20364399.0704   20364398.368
        56.0004         52.0004
  -8890696.97248  -6878515.89347  23076819.9104   23076825.8804   23076819.733
        48.0004         43.0004
  -1544401.67547  -1197673.53646  24172946.8824   24172948.3894   24172946.320
        42.0004         37.0004
 15  1  1  0  5 30.0000000  0  7G02G29G24G25G12G06G14
 -19838770.65149 -15449470.13648  21242361.6044   21242360.9754   21242361.657
        54.0004         49.0004
 -19377051.95848 -15037589.38347  21954321.2224   21954322.5074   21954321.085
        51.0004         47.0004
 -11777394.78548  -9121632.31447  22515947.7634   22515951.4454   22515947.301
        50.0004         46.0004
 -24233152.83349 -18840212.48848  20835670.7224   20835674.6504   20835670.937
        55.0004         50.0004
 -25170975.77649 -19554402.99548  20364544.9374   20364545.2984   20364544.729
        56.0004         52.0004
  -8888118.08848  -6876506.37447  23077311.2914   23077316.7014   23077310.621
        48.0004         43.0004
  -1542800.60747  -1196425.95046  24173250.5814   24173252.6214   24173250.819
        42.0004         37.0004
 15  1  1  0  5 31.0000000  0  7G02G29G24G25G12G06G14
 -19838670.69049 -15449392.24248  21242380.5604   21242379.6254   21242380.725
        54.0004         49.0004
 -19379532.91948 -15039522.59747  21953849.1384   21953850.0144   21953849.025
        51.0004         47.0004
 -11774117.10448  -9119078.27347  22516571.4074   22516575.1614   22516571.024
        50.0004         46.0004
 -24234819.17649 -18841510.93648  20835353.4344   20835357.4844   20835353.827
        55.0004         50.0004
 -25170206.41549 -19553803.49448  20364691.3824   20364691.5904   20364691.204
        56.0004         52.0004
  -8885538.65148  -6874496.42347  23077802.7344   23077807.3864   23077801.742
        48.0004         43.0004
  -1541199.02847  -1195177.96646  24173554.9674   24173557.4114   24173555.515
        42.0004         37.0004
 15  1  1  0  5 32.0000000  0  7G02G29G24G25G12G06G14
 -19838570.10849 -15449313.86848  21242399.4294   21242398.9864   21242399.933
        54.0004         49.0004
 -19382013.53448 -15041455.54647  21953376.8254   21953377.9344   21953376.984
        51.0004         47.0004
 -11770839.08248  -9116523.97347  22517195.3214   22517199.3994   22517194.817
        50.0004         46.0004
 -24236485.14549 -18842809.09748  20835036.5244   20835040.0384   20835036.845
        55.0004         50.0004
 -25169436.60849 -19553203.64448  20364837.8584   20364838.1824   20364837.735
        56.0004         52.0004
  -8882958.73048  -6872486.10047  23078292.4894   23078297.6374   23078292.859
        48.0004         43.0004
  -1539596.94147  -1193929.58546  24173858.6414   24173863.2404   24173860.237
        42.0004         37.0004
 15  1  1  0  5 33.0000000  0  7G02G29G24G25G12G06G14
 -19838469.15349 -15449235.20248  21242419.0924   21242418.0114   21242419.212
        54.0004         49.0004
 -19384494.03548 -15043388.40347  21952904.9944   21952905.8074   21952905.013
        51.0004         47.0004
 -11767560.96248  -9113969.59647  22517819.5854   22517822.5524   22517818.525
        50.0004         46.0004
 -24238150.97049 -18844107.14248  20834719.1394   20834723.5194   20834719.832
        55.0004         50.0004
 -25168666.59349 -19552603.63348  20364984.3704   20364984.7504   20364984.348
        56.0004         52.0004
  -8880378.55248  -6870475.56947  23078784.3034   23078789.3374   23078784.004
        48.0004         43.0004
  -1537994.62047  -1192681.02346  24174163.9114   24174168.9544   24174164.970
        42.0004         37.0004
 15  1  1  0  5 34.0000000  0  7G02G29G24G25G12G06G14
 -19838367.75349 -15449156.18848  21242438.1244   21242437.3234   21242438.614
        54.0004         49.0004
 -19386974.37248 -15045321.13247  21952433.1254   21952433.9194   21952433.089
        51.0004         47.0004
 -11764282.67648  -9111415.08647  22518442.3544   22518446.0824   22518442.362
        50.0004         46.0004
 -24239816.61849 -18845405.04848  20834402.4164   20834406.3374   20834402.852
        55.0004         50.0004
 -25167896.32249 -19552003.42148  20365130.9234   20365131.1524   20365130.986
        56.0004         52.0004
  -8877797.98048  -6868464.73747  23079275.1354   23079280.4004   23079275.201
        48.0004         43.0004
  -1536391.99847  -1191432.22646  24174468.9834   24174472.0934   24174469.716
        42.0004         37.0004
 15  1  1  0  5 35.0000000  0  7G02G29G24G25G12G06G14
 -19838265.60249 -15449076.59248  21242457.5714   21242457.0674   21242458.268
        54.0004         49.0004
 -19389454.24248 -15047253.49747  21951960.5934   21951961.8164   21951961.208
        51.0004         47.0004
 -11761003.92248  -9108860.21247  22519067.1084   22519070.6714   22519066.319
        50.0004         46.0004
 -24241481.75949 -18846702.56048  20834085.5494   20834089.5594   20834085.942
        55.0004         50.0004
 -25167125.48449 -19551402.76948  20365277.5014   20365277.8314   20365277.748
        56.0004         52.0004
  -8875216.88748  -6866453.49647  23079766.0524   23079770.7684   23079766.460
        48.0004         43.0004
  -1534788.75447  -1190182.94446  24174774.1624   24174777.8504   24174774.467
        42.0004         37.0004
 15  1  1  0  5 36.0000000  0  7G02G29G24G25G12G06G14
 -19838163.06249 -15448996.68948  21242477.1294   21242476.2964   21242477.930
        54.0004         49.0004
 -19391933.98548 -15049185.76447  21951489.0854   21951490.0044   21951489.315
        51.0004         47.0004
 -11757725.06548  -9106305.25747  22519690.6134   22519694.3554   22519690.249
        50.0004         46.0004
 -24243146.76049 -18847999.96448  20833768.5914   20833772.8814   20833769.027
        55.0004         50.0004
 -25166354.42649 -19550801.94548  20365424.2154   20365424.6124   20365424.516
        56.0004         52.0004
  -8872635.54148  -6864442.06147  23080257.3904   23080263.4334   23080257.804
        48.0004         43.0004
  -1533185.24847  -1188933.45746  24175079.9134   24175083.6244   24175079.531
        42.0004         37.0004
 15  1  1  0  5 37.0000000  0  7G02G29G24G25G12G06G14
 -19838059.91849 -15448916.31548  21242496.4004   21242495.9914   21242497.619
        54.0004         49.0004
 -19394413.39448 -15051117.77047  21951016.7784   21951018.5084   21951017.518
        51.0004         47.0004
 -11754445.87948  -9103750.04547  22520314.3264   22520317.7754   22520314.268
        50.0004         46.0004
 -24244811.39149 -18849297.08248  20833451.7894   20833456.2294   20833452.251
        55.0004         50.0004
 -25165582.94349 -19550200.78748  20365571.1824   20365571.3314   20365571.355
        56.0004         52.0004
  -8870053.70648  -6862430.23847  23080748.4084   23080754.3734   23080749.169
        48.0004         43.0004
  -1531581.29747  -1187683.62846  24175384.3114   24175388.0454   24175384.794
        42.0004         37.0004
 15  1  1  0  5 38.0000000  0  7G02G29G24G25G12G06G14
 -19837955.95149 -15448835.30048  21242516.2834   21242515.8674   21242517.458
        54.0004         49.0004
 -19396892.25648 -15053049.35147  21950545.3994   21950546.5924   21950545.824
        51.0004         47.0004
 -11751166.14348  -9101194.40547  22520938.8934   22520942.9874   22520938.453
        50.0004         46.0004
 -24246475.46149 -18850593.75748  20833135.1504   20833139.3054   20833135.519
        55.0004         50.0004
 -25164810.82049 -19549599.13348  20365718.1484   20365718.3564   20365718.352
        56.0004         52.0004
  -8867471.19548  -6860417.88747  23081240.9714   23081245.6414   23081240.713
        48.0004         43.0004
  -1529976.64647  -1186433.25246  24175689.8884   24175693.3934   24175690.158
        42.0004         37.0004
 15  1  1  0  5 39.0000000  0  7G02G29G24G25G12G06G14
 -19837851.49149 -15448753.90548  21242536.0494   21242535.6214   21242537.359
        54.0004         49.0004
 -19399370.89948 -15054980.75947  21950073.5064   21950074.6234   21950074.250
        51.0004         47.0004
 -11747886.17948  -9098638.59647  22521563.4774   22521566.1504   22521562.527
        50.0004         46.0004
 -24248139.28149 -18851890.24248  20832818.6044   20832822.7984   20832818.832
        55.0004         50.0004
 -25164038.37449 -19548997.22948  20365865.0174   20365865.4084   20365865.344
        56.0004         52.0004
  -8864888.32148  -6858405.26247  23081732.5434   23081737.4214   23081732.213
        48.0004         43.0004
  -1528371.65047  -1185182.60546  24175996.1154   24175998.9644   24175995.784
        42.0004         37.0004
 15  1  1  0  5 40.0000000  0  7G02G29G24G25G12G06G14
 -19837746.42449 -15448672.03248  21242556.3104   21242555.6364   21242557.441
        54.0004         49.0004
 -19401849.20348 -15056911.90647  21949601.7134   21949603.7514   21949602.607
        51.0004         47.0004
 -11744605.86648  -9096082.50747  22522186.9984   22522191.2254   22522186.818
        50.0004         46.0004
 -24249802.74849 -18853186.45148  20832501.9234   20832505.9984   20832502.224
        55.0004         50.0004
 -25163265.49949 -19548394.98948  20366012.2664   20366012.4944   20366012.420
        56.0004         52.0004
  -8862304.97748  -6856392.26447  23082224.1584   23082228.8384   23082223.857
        48.0004         43.0004
  -1526766.14947  -1183931.56346  24176301.1574   24176305.1564   24176300.861
        42.0004         37.0004
 15  1  1  0  5 41.0000000  0  7G02G29G24G25G12G06G14
 -19837640.62849 -15448589.59348  21242576.6644   21242575.7744   21242577.595
        54.0004         49.0004
 -19404327.04848 -15058842.69547  21949130.8914   21949131.5414   21949131.040
        51.0004         47.0004
 -11741325.08848  -9093526.05447  22522811.6184   22522815.7604   22522811.147
        50.0004         46.0004
 -24251465.72749 -18854482.27748  20832185.3384   20832189.7644   20832185.689
        55.0004         50.0004
 -25162492.06549 -19547792.31348  20366159.2644   20366159.6724   20366159.540
        56.0004         52.0004
  -8859721.02148  -6854378.79147  23082715.7134   23082720.6844   23082715.659
        48.0004         43.0004
  -1525160.08847  -1182680.08746  24176606.2044   24176610.6584   24176606.133
        42.0004         37.0004
 15  1  1  0  5 42.0000000  0  7G02G29G24G25G12G06G14
 -19837534.03749 -15448506.53548  21242596.8524   21242596.2114   21242597.853
        54.0004         49.0004
 -19406804.37648 -15060773.07947  21948659.3934   21948660.0954   21948659.661
        51.0004         47.0004
 -11738043.82148  -9090969.22247  22523435.6474   22523439.2474   22523435.477
        50.0004         46.0004
 -24253128.16249 -18855777.68048  20831869.1294   20831873.7004   20831869.259
        55.0004         50.0004
 -25161718.01949 -19547189.16048  20366306.7974   20366307.0584   20366306.818
        56.0004         52.0004
  -8857136.42248  -6852364.82247  23083206.9194   23083212.0854   23083207.488
        48.0004         43.0004
  -1523553.34447  -1181428.07746  24176911.7124   24176915.3274   24176911.593
        42.0004         37.0004
 15  1  1  0  5 43.0000000  0  7G02G29G24G25G12G06G14
 -19837426.91249 -15448423.05848  21242616.8074   21242616.4834   21242618.197
        54.0004         49.0004
 -19409281.43348 -15062703.25147  21948187.7844   21948188.5254   21948188.227
        51.0004         47.0004
 -11734762.28148  -9088412.17847  22524060.3374   22524064.3084   22524060.055
        50.0004         46.0004
 -24254790.29949 -18857072.85448  20831552.7024   20831557.2224   20831552.937
        55.0004         50.0004
 -25160943.60949 -19546585.72448  20366453.9904   20366454.2464   20366454.140
        56.0004         52.0004
  -8854551.40848  -6850350.52647  23083699.8994   23083704.0554   23083699.363
        48.0004         43.0004
  -1521946.21247  -1180175.76846  24177217.2964   24177220.5974   24177217.087
        42.0004         37.0004
 15  1  1  0  5 44.0000000  0  7G02G29G24G25G12G06G14
 -19837319.39249 -15448339.27648  21242637.6044   21242636.8714   21242638.570
        54.0004         49.0004
 -19411758.37348 -15064633.33647  21947716.2994   21947717.9444   21947716.841
        51.0004         47.0004
 -11731480.64248  -9085855.05747  22524684.4364   22524688.4004   22524684.527
        50.0004         46.0004
 -24256452.29449 -18858367.91448  20831236.5254   20831240.7434   20831236.675
        55.0004         50.0004
 -25160168.98149 -19545982.11848  20366601.2564   20366601.8304   20366601.507
        56.0004         52.0004
  -8851966.13848  -6848336.03047  23084190.8924   23084196.2254   23084191.216
        48.0004         43.0004
  -1520338.81147  -1178923.24646  24177523.3024   24177525.9994   24177522.784
        42.0004         37.0004
 15  1  1  0  5 45.0000000  0  7G02G29G24G25G12G06G14
 -19837211.49149 -15448255.19848  21242658.2454   21242657.2894   21242659.030
        54.0004         49.0004
 -19414235.20548 -15066563.33747  21947245.6804   21947246.0604   21947245.607
        51.0004         47.0004
 -11728198.88748  -9083297.84247  22525309.2534   22525313.1524   22525308.972
        50.0004         46.0004
 -24258114.15449 -18859662.86948  20830920.3634   20830924.4614   20830920.391
        55.0004         50.0004
 -25159394.15649 -19545378.36048  20366748.7014   20366749.1544   20366748.884
        56.0004         52.0004
  -8849380.60948  -6846321.33347  23084682.6984   23084687.4604   23084683.164
        48.0004         43.0004
  -1518731.16847  -1177670.53946  24177829.0214   24177831.9474   24177828.621
        42.0004         37.0004
 15  1  1  0  5 46.0000000  0  7G02G29G24G25G12G06G14
 -19837103.03849 -15448170.69048  21242678.9474   21242678.0384   21242679.561
        54.0004         49.0004
 -19416711.74648 -15068493.10647  21946774.0694   21946774.8914   21946774.456
        51.0004         47.0004
 -11724916.87448  -9080740.43247  22525934.4234   22525937.8384   22525933.518
        50.0004         46.0004
 -24259775.69349 -18860957.57548  20830603.8284   20830608.0714   20830604.181
        55.0004         50.0004
 -25158618.93749 -19544774.29148  20366896.3484   20366896.5914   20366896.361
        56.0004         52.0004
  -8846794.66248  -6844306.31247  23085175.1854   23085179.9784   23085175.247
        48.0004         43.0004
  -1517123.10847  -1176417.50546  24178135.1624   24178138.9634   24178134.842
        42.0004         37.0004
 15  1  1  0  5 47.0000000  0  7G02G29G24G25G12G06G14
 -19836994.06149 -15448085.77148  21242699.5174   21242698.9934   21242700.298
        54.0004         49.0004
 -19419188.04648 -15070422.68947  21946302.2764   21946303.5274   21946303.302
        51.0004         47.0004
 -11721634.62348  -9078182.83647  22526558.2454   22526562.3034   22526558.093
        50.0004         46.0004
 -24261436.97249 -18862252.07948  20830287.9634   20830292.2744   20830288.004
        55.0004         50.0004
 -25157843.38649 -19544169.96648  20367043.8654   20367044.3854   20367043.904
        56.0004         52.0004
  -8844208.33148  -6842290.99147  23085668.3874   23085672.1684   23085667.301
        48.0004         43.0004
  -1515514.65347  -1175164.16246  24178439.9964   24178444.9754   24178440.669
        42.0004         37.0004
 15  1  1  0  5 48.0000000  0  7G02G29G24G25G12G06G14
 -19836884.39149 -15448000.31348  21242720.4124   21242719.8824   21242721.165
        54.0004         49.0004
 -19421663.91348 -15072351.93547  21945831.6224   21945832.2274   21945832.168
        51.0004         47.0004
 -11718351.97548  -9075624.93047  22527182.8374   22527186.8464   22527182.853
        50.0004         46.0004
 -24263097.79949 -18863546.23048  20829971.9674   20829976.2424   20829971.891
        55.0004         50.0004
 -25157067.30249 -19543565.22548  20367191.5794   20367191.9154   20367191.541
        56.0004         52.0004
  -8841621.42748  -6840275.22147  23086159.8984   23086164.8934   23086159.492
        48.0004         43.0004
  -1513905.64047  -1173910.38346  24178746.7564   24178751.2664   24178747.018
        42.0004         37.0004
 15  1  1  0  5 49.0000000  0  7G02G29G24G25G12G06G14
 -19836773.99549 -15447914.29248  21242741.2444   21242740.7914   21242742.055
        54.0004         50.0004
 -19424139.33548 -15074280.83347  21945359.9504   21945361.0784   21945361.126
        51.0004         47.0004
 -11715068.85548  -9073066.65047  22527807.2914   22527811.6994   22527807.614
        50.0004         46.0004
 -24264758.13949 -18864840.00148  20829655.8184   20829660.0714   20829655.903
        55.0004         50.0004
 -25156290.67349 -19542960.05948  20367339.3844   20367339.8124   20367339.310
        56.0004         52.0004
  -8839033.93948  -6838258.99347  23086652.1954   23086656.8024   23086651.875
        48.0004         43.0004
  -1512296.04847  -1172656.15646  24179053.1314   24179057.6764   24179053.370
        42.0004         37.0004
 15  1  1  0  5 50.0000000  0  7G02G29G24G25G12G06G14
 -19836662.91049 -15447827.73148  21242762.7934   21242762.0324   21242763.201
        54.0004         50.0004
 -19426614.33148 -15076209.39747  21944888.7614   21944890.3354   21944890.120
        51.0004         47.0004
 -11711785.33448  -9070508.06347  22528433.2104   22528436.8184   22528432.503
        50.0004         46.0004
 -24266418.02949 -18866133.42248  20829340.1464   20829344.4954   20829340.050
        55.0004         50.0004
 -25155513.52749 -19542354.49148  20367487.3414   20367487.6624   20367487.127
        56.0004         52.0004
  -8836445.89448  -6836242.33247  23087144.6644   23087148.8434   23087144.214
        48.0004         43.0004
  -1510685.89547  -1171401.48946  24179359.1314   24179363.1314   24179359.932
        42.0004         37.0004
 15  1  1  0  5 51.0000000  0  7G02G29G24G25G12G06G14
 -19836551.33349 -15447740.78848  21242783.7614   21242783.2024   21242784.360
        54.0004         49.0004
 -19429089.10948 -15078137.79547  21944418.2884   21944419.0784   21944419.109
        51.0004         47.0004
 -11708501.60048  -9067949.31247  22529058.1894   22529061.6014   22529057.394
        50.0004         46.0004
 -24268077.67949 -18867426.65748  20829024.2964   20829028.4034   20829024.187
        55.0004         50.0004
 -25154736.06849 -19541748.67848  20367635.2464   20367635.7274   20367635.049
        56.0004         52.0004
  -8833857.48448  -6834225.38647  23087637.3954   23087643.0504   23087636.833
        48.0004         43.0004
  -1509075.38247  -1170146.54646  24179665.2154   24179669.1374   24179666.373
        42.0004         37.0004
 15  1  1  0  5 52.0000000  0  7G02G29G24G25G12G06G14
 -19836439.28449 -15447653.47748  21242805.0914   21242804.4064   21242805.707
        54.0004         49.0004
 -19431563.68748 -15080066.03647  21943947.2774   21943949.0134   21943948.221
        51.0004         47.0004
 -11705217.68248  -9065390.41247  22529682.7094   22529686.0824   22529682.351
        50.0004         46.0004
 -24269737.10149 -18868719.71348  20828708.1724   20828712.8494   20828708.425
        55.0004         50.0004
 -25153958.30849 -19541142.63248  20367783.2114   20367783.6574   20367783.040
        56.0004         52.0004
  -8831268.74248  -6832208.18847  23088130.1154   23088134.7964   23088129.546
        48.0004         43.0004
  -1507464.53647  -1168891.33846  24179972.7954   24179975.9334   24179973.245
        42.0004         37.0004
 15  1  1  0  5 53.0000000  0  7G02G29G24G25G12G06G14
 -19836326.90649 -15447565.91148  21242826.8064   21242825.8074   21242827.130
        54.0004         49.0004
 -19434038.20948 -15081994.23447  21943476.4364   21943477.9344   21943477.203
        51.0004         47.0004
 -11701933.70848  -9062831.47247  22530306.8464   22530311.0854   22530307.365
        50.0004         45.0004
 -24271396.43049 -18870012.69748  20828392.9244   20828396.9614   20828392.675
        55.0004         50.0004
 -25153180.39449 -19540536.46448  20367931.0774   20367931.8404   20367931.081
        56.0004         52.0004
  -8828679.79948  -6830190.83147  23088622.2214   23088627.7494   23088622.315
        48.0004         43.0004
  -1505853.47347  -1167635.96446  24180279.1304   24180283.7094   24180279.994
        42.0004         36.0004
 15  1  1  0  5 54.0000000  0  7G02G29G24G25G12G06G14
 -19836213.72949 -15447477.71848  21242848.2254   21242847.0054   21242848.693
        54.0004         49.0004
 -19436512.20048 -15083922.02247  21943005.1704   21943006.8994   21943006.361
        51.0004         47.0004
 -11698649.22748  -9060272.13547  22530932.1714   22530935.9664   22530932.402
        50.0004         45.0004
 -24273055.22249 -18871305.25948  20828076.7194   20828081.1704   20828077.094
        55.0004         50.0004
 -25152401.85549 -19539929.81148  20368079.1754   20368079.8454   20368079.292
        56.0004         52.0004
  -8826090.19048  -6828172.95347  23089115.7194   23089120.2504   23089115.177
        48.0004         43.0004
  -1504241.75647  -1166380.08546  24180585.4304   24180590.5504   24180586.723
        42.0004         37.0004
 15  1  1  0  5 55.0000000  0  7G02G29G24G25G12G06G14
 -19836099.78949 -15447388.93448  21242869.9004   21242868.8144   21242870.350
        54.0004         49.0004
 -19438985.70348 -15085849.43047  21942535.3134   21942536.3964   21942535.593
        51.0004         47.0004
 -11695364.24348  -9057712.40847  22531557.8264   22531560.9124   22531557.456
        50.0004         46.0004
 -24274713.48149 -18872597.41148  20827761.5094   20827765.6794   20827761.533
        55.0004         50.0004
 -25151622.73349 -19539322.70348  20368227.6994   20368228.3364   20368227.602
        56.0004         52.0004
  -8823499.94348  -6826154.58047  23089608.4944   23089613.0274   23089608.094
        48.0004         43.0004
  -1502629.44047  -1165123.73646  24180891.9124   24180895.9954   24180893.540
        42.0004         37.0004
 15  1  1  0  5 56.0000000  0  7G02G29G24G25G12G06G14
 -19835985.60249 -15447299.95848  21242891.3314   21242890.8244   21242892.061
        54.0004         50.0004
 -19441459.22448 -15087776.84347  21942064.4344   21942065.8614   21942064.826
        51.0004         47.0004
 -11692079.27948  -9055152.69647  22532182.8054   22532186.3174   22532182.564
        50.0004         45.0004
 -24276371.74349 -18873889.56348  20827445.8134   20827450.3794   20827445.972
        55.0004         50.0004
 -25150843.52649 -19538715.53048  20368375.8984   20368376.3574   20368375.913
        56.0004         52.0004
  -8820909.58148  -6824136.11447  23090101.3174   23090106.8884   23090100.937
        48.0004         43.0004
  -1501016.99447  -1163867.28546  24181199.5374   24181202.5874   24181200.856
        42.0004         37.0004
 15  1  1  0  5 57.0000000  0  7G02G29G24G25G12G06G14
 -19835870.77449 -15447210.48348  21242913.3884   21242912.7484   21242913.909
        54.0004         49.0004
 -19443932.36448 -15089703.96747  21941593.4964   21941594.3574   21941594.078
        51.0004         47.0004
 -11688793.94548  -9052592.69547  22532807.7454   22532811.0574   22532807.803
        50.0004         45.0004
 -24278029.60249 -18875181.40248  20827130.3044   20827134.8904   20827130.539
        55.0004         50.0004
 -25150063.85049 -19538107.99048  20368524.2734   20368524.7964   20368524.313
        56.0004         52.0004
  -8818318.70848  -6822117.25547  23090594.2204   23090598.6714   23090594.039
        48.0004         43.0004
  -1499404.04746  -1162610.44346  24181508.8424   24181510.3474   24181508.256
        41.0004         37.0004
