     2.11           OBSERVATION DATA    M (MIXED)           RINEX VERSION / TYPE
TEQC  2014OCT13                         20150101 00:18:22UTCPGM / RUN BY / DATE
LINUX 2.4.20-8|PENTIUM IV|GCC -STATIC|LINUX|486/DX+         COMMENT
TEQC  2014OCT13                         20150101 00:16:36UTCCOMMENT
BIT 2 OF LLI FLAGS DATA COLLECTED UNDER A/S CONDITION       COMMENT
ZWE2                                                        MARKER NAME
12330M003                                                   MARKER NUMBER
GFZ                 GFZ                                     OBSERVER / AGENCY
1348                SEPT POLARX2        2.6.0               REC # / TYPE / VERS
217-0340            TPSCR3_GGD      NONE                    ANT # / TYPE
  2886359.0000  2155972.0000  5245886.0000                  APPROX POSITION XYZ
        0.1300        0.0000        0.0000                  ANTENNA: DELTA H/E/N
     1     1                                                WAVELENGTH FACT L1/2
 SNR IS MAPPED TO RINEX SNR FLAG VALUE [0-9]                COMMENT
  L1 & L2: MIN(MAX(INT(SNR_DBHZ/6), 0), 9)                  COMMENT
    16                                                      LEAP SECONDS
     7    L1    L2    C1    P1    P2    S1    S2            # / TYPES OF OBSERV
  2015     1     1     0     0    0.0000000     GPS         TIME OF FIRST OBS
  2015     1     1     0    14   59.0000000     GPS         TIME OF LAST OBS
     1.000                                                  INTERVAL
                                                            END OF HEADER
 15 01 01 00 00  0.0000000  0 14G12G14G25G02G29G31G03G10G24G06G20S36
                                S20S26
 -45940923.88548 -35317423.11147  20582510.545 0  20582509.744 0  20582508.611 0
        52.000 0        44.000 0
 -22059539.77346 -14094985.55542  24426923.737 0  24426922.047 0  24426922.223 0
        39.000 0        16.000 0
 -36640641.36648 -28346004.41947  21011053.803 0  21011052.484 0  21011055.034 0
        50.000 0        42.000 0
 -32686666.23348 -23037652.53046  21646695.624 0  21646694.579 0  21646692.156 0
        49.000 0        40.000 0
 -16070721.43747 -12375103.55645  23022045.151 0  23022043.549 0  23022043.305 0
        46.000 0        30.000 0
 -11436689.23947  -8711006.35844  24031778.610 0  24031778.112 0  24031777.135 0
        42.000 0        26.000 0
 -12772450.73145      6572.97841  25783093.698 0  25783092.047 0  25783093.932 0
        35.000 0        10.000 0
  -6742087.80546  -5007651.36242  24580019.032 0  24580016.522 0  24580017.694 0
        39.000 0        12.000 0
 -35141000.11047 -27084165.32844  23684832.921 0  23684832.481 0  23684834.884 0
        43.000 0        28.000 0
 -30065795.75447 -23369744.82845  22448387.311 0  22448387.955 0  22448390.036 0
        45.000 0        34.000 0
 -12767263.62745  -1567880.15741  25030835.355 0  25030833.137 0  25030835.072 0
        35.000 0         6.000 0
-319009239.361 6          .000 0  21865060.008 0          .000 0          .000 0
        40.000 0          .000 0
  -6254342.589 5          .000 0  22785757.686 0          .000 0          .000 0
        35.000 0          .000 0
-180207889.904 6          .000 0  21173395.299 0          .000 0          .000 0
        40.000 0          .000 0
 15 01 01 00 00  1.0000000  0 14G12G14G25G02G29G31G03G10G24G06G20S36
                                S20S26
 -45941317.34748 -35317729.70547  20582435.583 0  20582434.870 0  20582433.717 0
        52.000 0        44.000 0
 -22058846.48646 -14094445.33342  24427055.513 0  24427053.999 0  24427054.087 0
        39.000 0        16.000 0
 -36643755.91748 -28348431.34247  21010461.056 0  21010459.796 0  21010462.355 0
        50.000 0        42.000 0
 -32689121.08348 -23039565.40146  21646228.587 0  21646227.424 0  21646225.051 0
        49.000 0        40.000 0
 -16075397.70647 -12378747.40145  23021155.239 0  23021153.725 0  23021153.432 0
        46.000 0        30.000 0
 -11441037.90047  -8714394.92544  24030951.246 0  24030950.620 0  24030949.614 0
        43.000 0        26.000 0
 -12771890.98246      7009.15341  25783199.655 0  25783198.513 0  25783200.359 0
        36.000 0        10.000 0
  -6746245.49246  -5010891.11942  24579227.488 0  24579225.251 0  24579226.560 0
        39.000 0        12.000 0
 -35138871.65447 -27082506.79144  23685238.017 0  23685237.528 0  23685239.970 0
        43.000 0        28.000 0
 -30065476.27947 -23369495.88645  22448447.973 0  22448448.734 0  22448450.805 0
        45.000 0        34.000 0
 -12767388.97845  -1567977.83441  25030811.989 0  25030809.263 0  25030811.256 0
        35.000 0         6.000 0
-319010719.865 6          .000 0  21864777.926 0          .000 0          .000 0
        40.000 0          .000 0
  -6255851.741 6          .000 0  22785471.345 0          .000 0          .000 0
        36.000 0          .000 0
-180209322.047 6          .000 0  21173122.751 0          .000 0          .000 0
        40.000 0          .000 0
 15 01 01 00 00  2.0000000  0 14G12G14G25G02G29G31G03G10G24G06G20S36
                                S20S26
 -45941710.24348 -35318035.85847  20582360.854 0  20582360.112 0  20582358.950 0
        52.000 0        44.000 0
 -22058152.72846 -14093904.74442  24427187.308 0  24427186.029 0  24427186.029 0
        39.000 0        16.000 0
 -36646869.95048 -28350857.86247  21009868.436 0  21009867.215 0  21009869.764 0
        50.000 0        42.000 0
 -32691575.30948 -23041477.78446  21645761.715 0  21645760.377 0  21645758.042 0
        49.000 0        40.000 0
 -16080073.67147 -12382391.00945  23020265.308 0  23020263.960 0  23020263.618 0
        45.000 0        30.000 0
 -11445386.11747  -8717783.14544  24030123.959 0  24030123.148 0  24030122.162 0
        43.000 0        26.000 0
 -12771330.62245      7445.80241  25783305.955 0  25783305.008 0  25783306.981 0
        35.000 0        10.000 0
  -6750402.72146  -5014130.52042  24578436.179 0  24578434.118 0  24578435.505 0
        39.000 0        12.000 0
 -35136742.92547 -27080848.04244  23685643.191 0  23685642.605 0  23685645.105 0
        43.000 0        28.000 0
 -30065156.15047 -23369246.43645  22448508.732 0  22448509.621 0  22448511.731 0
        45.000 0        34.000 0
 -12767513.73345  -1568075.04641  25030788.242 0  25030785.516 0  25030787.529 0
        35.000 0         8.000 0
-319012200.450 6          .000 0  21864494.984 0          .000 0          .000 0
        40.000 0          .000 0
  -6257360.941 5          .000 0  22785186.986 0          .000 0          .000 0
        35.000 0          .000 0
-180210754.192 6          .000 0  21172848.063 0          .000 0          .000 0
        40.000 0          .000 0
 15 01 01 00 00  3.0000000  0 14G12G14G25G02G29G31G03G10G24G06G20S36
                                S20S26
 -45942102.59148 -35318341.58347  20582286.214 0  20582285.442 0  20582284.280 0
        52.000 0        44.000 0
 -22057458.46846 -14093363.76442  24427319.143 0  24427318.107 0  24427318.098 0
        39.000 0        16.000 0
 -36649983.48748 -28353283.99447  21009275.962 0  21009274.731 0  21009277.271 0
        50.000 0        42.000 0
 -32694028.91848 -23043389.68746  21645294.893 0  21645293.437 0  21645291.161 0
        49.000 0        40.000 0
 -16084749.34447 -12386034.39045  23019375.445 0  23019374.283 0  23019373.892 0
        46.000 0        30.000 0
 -11449733.92047  -8721171.04344  24029296.682 0  24029295.764 0  24029294.768 0
        43.000 0        26.000 0
 -12770769.71945      7882.87541  25783412.109 0  25783411.601 0  25783413.759 0
        34.000 0        10.000 0
  -6754559.50246  -5017369.57042  24577645.016 0  24577643.082 0  24577644.527 0
        39.000 0        12.000 0
 -35134613.93247 -27079189.08544  23686048.423 0  23686047.730 0  23686050.279 0
        43.000 0        28.000 0
 -30064835.39647 -23368996.49845  22448569.619 0  22448570.634 0  22448572.783 0
        45.000 0        34.000 0
 -12767637.86745  -1568171.77541  25030764.739 0  25030761.896 0  25030763.919 0
        35.000 0         8.000 0
-319013681.014 6          .000 0  21864213.556 0          .000 0          .000 0
        40.000 0          .000 0
  -6258870.099 5          .000 0  22784899.160 0          .000 0          .000 0
        35.000 0          .000 0
-180212186.370 6          .000 0  21172575.554 0          .000 0          .000 0
        40.000 0          .000 0
 15 01 01 00 00  4.0000000  0 14G12G14G25G02G29G31G03G10G24G06G20S36
                                S20S26
 -45942494.53048 -35318646.99147  20582211.613 0  20582210.851 0  20582209.698 0
        52.000 0        44.000 0
 -22056763.86446 -14092822.51642  24427451.222 0  24427450.264 0  24427450.235 0
        39.000 0        16.000 0
 -36653096.64548 -28355709.83247  21008683.508 0  21008682.326 0  21008684.866 0
        50.000 0        42.000 0
 -32696482.05348 -23045301.22046  21644828.119 0  21644826.595 0  21644824.358 0
        49.000 0        40.000 0
 -16089424.87047 -12389677.65645  23018485.680 0  23018484.625 0  23018484.185 0
        46.000 0        30.000 0
 -11454081.42147  -8724558.70444  24028469.279 0  24028468.458 0  24028467.442 0
        43.000 0        26.000 0
 -12770208.46745      8320.21541  25783518.320 0  25783518.213 0  25783520.899 0
        34.000 0        10.000 0
  -6758715.99646  -5020608.39242  24576853.921 0  24576852.163 0  24576853.570 0
        39.000 0        12.000 0
 -35132484.81847 -27077530.03644  23686453.705 0  23686452.875 0  23686455.483 0
        43.000 0        28.000 0
 -30064514.16747 -23368746.18945  22448630.632 0  22448631.765 0  22448633.914 0
        45.000 0        34.000 0
 -12767761.47045  -1568268.09141  25030741.236 0  25030738.364 0  25030740.396 0
        35.000 0         8.000 0
-319015161.592 6          .000 0  21863932.548 0          .000 0          .000 0
        39.000 0          .000 0
  -6260379.376 5          .000 0  22784612.340 0          .000 0          .000 0
        35.000 0          .000 0
-180213618.671 6          .000 0  21172304.275 0          .000 0          .000 0
        40.000 0          .000 0
 15 01 01 00 00  5.0000000  0 14G12G14G25G02G29G31G03G10G24G06G20S36
                                S20S26
 -45942885.90348 -35318951.95647  20582137.099 0  20582136.376 0  20582135.224 0
        52.000 0        44.000 0
 -22056068.81846 -14092280.92342  24427583.232 0  24427582.558 0  24427582.528 0
        38.000 0        16.000 0
 -36656209.29148 -28358135.27147  21008091.250 0  21008089.999 0  21008092.539 0
        50.000 0        42.000 0
 -32698934.55348 -23047212.25946  21644361.463 0  21644359.871 0  21644357.653 0
        49.000 0        40.000 0
 -16094100.07747 -12393320.67345  23017596.071 0  23017594.996 0  23017594.567 0
        46.000 0        30.000 0
 -11458428.51447  -8727946.04944  24027642.178 0  24027641.230 0  24027640.185 0
        43.000 0        26.000 0
 -12769646.61845      8758.02641  25783625.109 0  25783624.992 0  25783628.137 0
        33.000 0        10.000 0
  -6762872.02846  -5023846.85842  24576062.553 0  24576061.313 0  24576062.690 0
        39.000 0        12.000 0
 -35130355.43947 -27075870.78144  23686858.967 0  23686858.078 0  23686860.745 0
        43.000 0        28.000 0
 -30064192.27747 -23368495.36745  22448691.899 0  22448693.033 0  22448695.182 0
        45.000 0        34.000 0
 -12767884.41345  -1568363.89141  25030717.704 0  25030714.950 0  25030717.011 0
        34.000 0         8.000 0
-319016642.084 6          .000 0  21863650.759 0          .000 0          .000 0
        40.000 0          .000 0
  -6261888.538 5          .000 0  22784325.608 0          .000 0          .000 0
        35.000 0          .000 0
-180215050.822 6          .000 0  21172031.698 0          .000 0          .000 0
        40.000 0          .000 0
 15 01 01 00 00  6.0000000  0 14G12G14G25G02G29G31G03G10G24G06G20S36
                                S20S26
 -45943276.84448 -35319256.58547  20582062.693 0  20582061.980 0  20582060.837 0
        52.000 0        44.000 0
 -22055373.39146 -14091739.03442  24427715.330 0  24427714.920 0  24427714.910 0
        39.000 0        16.000 0
 -36659321.55648 -28360560.41247  21007499.059 0  21007497.760 0  21007500.310 0
        50.000 0        42.000 0
 -32701386.56448 -23049122.91846  21643894.836 0  21643893.263 0  21643891.065 0
        49.000 0        40.000 0
 -16098775.11947 -12396963.56245  23016706.452 0  23016705.407 0  23016704.977 0
        46.000 0        30.000 0
 -11462775.29947  -8731333.15444  24026815.135 0  24026814.071 0  24026812.986 0
        43.000 0        26.000 0
 -12769084.36745      9196.15141  25783731.770 0  25783732.024 0  25783735.384 0
        33.000 0        10.000 0
  -6767027.73946  -5027085.07642  24575271.664 0  24575270.452 0  24575271.849 0
        39.000 0        12.000 0
 -35128225.91247 -27074211.40944  23687263.975 0  23687263.320 0  23687266.026 0
        43.000 0        28.000 0
 -30063869.90447 -23368244.16845  22448753.313 0  22448754.398 0  22448756.527 0
        45.000 0        34.000 0
 -12768006.90045  -1568459.33641  25030694.133 0  25030691.652 0  25030693.703 0
        35.000 0         8.000 0
-319018122.727 6          .000 0  21863367.456 0          .000 0          .000 0
        40.000 0          .000 0
  -6263397.798 5          .000 0  22784038.251 0          .000 0          .000 0
        35.000 0          .000 0
-180216483.227 6          .000 0  21171758.319 0          .000 0          .000 0
        40.000 0          .000 0
 15 01 01 00 00  7.0000000  0 14G12G14G25G02G29G31G03G10G24G06G20S36
                                S20S26
 -45943667.23548 -35319560.78647  20581988.385 0  20581987.691 0  20581986.568 0
        52.000 0        44.000 0
 -22054677.49046 -14091196.77442  24427847.926 0  24427847.350 0  24427847.331 0
        39.000 0        16.000 0
 -36662433.30148 -28362985.14847  21006906.937 0  21006905.609 0  21006908.168 0
        50.000 0        42.000 0
 -32703837.95048 -23051033.08846  21643428.326 0  21643426.782 0  21643424.614 0
        49.000 0        40.000 0
 -16103449.86147 -12400606.21745  23015816.863 0  23015815.857 0  23015815.456 0
        45.000 0        30.000 0
 -11467121.65647  -8734719.92444  24025988.093 0  24025986.999 0  24025985.866 0
        43.000 0        26.000 0
 -12768521.59645      9634.67741  25783838.588 0  25783839.135 0  25783842.700 0
        33.000 0        10.000 0
  -6771183.00846  -5030322.94742  24574480.608 0  24574479.680 0  24574481.087 0
        39.000 0        12.000 0
 -35126096.15447 -27072551.85744  23687669.198 0  23687668.592 0  23687671.337 0
        43.000 0        28.000 0
 -30063546.88947 -23367992.46945  22448815.040 0  22448815.880 0  22448818.010 0
        45.000 0        34.000 0
 -12768128.71545  -1568554.25841  25030670.220 0  25030668.501 0  25030670.533 0
        34.000 0         8.000 0
-319019603.324 6          .000 0  21863085.354 0          .000 0          .000 0
        40.000 0          .000 0
  -6264906.871 5          .000 0  22783748.940 0          .000 0          .000 0
        35.000 0          .000 0
-180217915.626 6          .000 0  21171487.236 0          .000 0          .000 0
        40.000 0          .000 0
 15 01 01 00 00  8.0000000  0 14G12G14G25G02G29G31G03G10G24G06G20S36
                                S20S26
 -45944057.15748 -35319864.62147  20581914.204 0  20581913.491 0  20581912.387 0
        52.000 0        44.000 0
 -22053981.19046 -14090654.20342  24427980.591 0  24427979.859 0  24427979.839 0
        39.000 0        16.000 0
 -36665544.62548 -28365409.55747  21006314.825 0  21006313.546 0  21006316.105 0
        50.000 0        42.000 0
 -32706288.79448 -23052942.83646  21642961.982 0  21642960.409 0  21642958.241 0
        49.000 0        40.000 0
 -16108124.40247 -12404248.71545  23014927.264 0  23014926.345 0  23014925.974 0
        45.000 0        30.000 0
 -11471467.67847  -8738106.43644  24025160.992 0  24025159.986 0  24025158.833 0
        43.000 0        26.000 0
 -12767958.34645     10073.57441  25783945.747 0  25783946.177 0  25783949.840 0
        33.000 0        10.000 0
  -6775337.93146  -5033560.54742  24573689.631 0  24573689.045 0  24573690.500 0
        39.000 0        12.000 0
 -35123966.18447 -27070892.14044  23688074.450 0  23688073.903 0  23688076.667 0
        43.000 0        28.000 0
 -30063223.29347 -23367740.31745  22448876.845 0  22448877.460 0  22448879.609 0
        45.000 0        34.000 0
 -12768249.92445  -1568648.71041  25030646.678 0  25030645.447 0  25030647.528 0
        34.000 0         8.000 0
-319021084.002 6          .000 0  21862804.278 0          .000 0          .000 0
        40.000 0          .000 0
  -6266415.965 5          .000 0  22783463.624 0          .000 0          .000 0
        35.000 0          .000 0
-180219347.818 6          .000 0  21171214.854 0          .000 0          .000 0
        40.000 0          .000 0
 15 01 01 00 00  9.0000000  0 14G12G14G25G02G29G31G03G10G24G06G20S36
                                S20S26
 -45944446.53148 -35320168.03047  20581840.022 0  20581839.397 0  20581838.293 0
        52.000 0        44.000 0
 -22053284.41646 -14090111.26242  24428113.119 0  24428112.445 0  24428112.445 0
        39.000 0        16.000 0
 -36668655.45948 -28367833.58347  21005722.772 0  21005721.570 0  21005724.130 0
        50.000 0        42.000 0
 -32708739.03848 -23054852.11746  21642495.697 0  21642494.144 0  21642491.965 0
        49.000 0        40.000 0
 -16112798.63647 -12407890.97645  23014037.674 0  23014036.893 0  23014036.551 0
        45.000 0        30.000 0
 -11475813.28247  -8741492.62044  24024333.969 0  24024333.032 0  24024331.879 0
        43.000 0        26.000 0
 -12767394.61345     10512.84441  25784052.672 0  25784053.317 0  25784057.097 0
        33.000 0        10.000 0
  -6779492.39946  -5036797.79542  24572898.927 0  24572898.478 0  24572899.982 0
        38.000 0        12.000 0
 -35121835.97047 -27069232.23444  23688479.780 0  23688479.253 0  23688482.027 0
        43.000 0        28.000 0
 -30062899.11347 -23367487.71145  22448938.640 0  22448939.167 0  22448941.326 0
        45.000 0        34.000 0
 -12768370.58945  -1568742.73641  25030623.478 0  25030622.492 0  25030624.670 0
        34.000 0         8.000 0
-319022564.691 6          .000 0  21862522.733 0          .000 0          .000 0
        40.000 0          .000 0
  -6267925.177 5          .000 0  22783174.968 0          .000 0          .000 0
        35.000 0          .000 0
-180220780.051 6          .000 0  21170942.677 0          .000 0          .000 0
        40.000 0          .000 0
 15 01 01 00 00 10.0000000  0 14G12G14G25G02G29G31G03G10G24G06G20S36
                                S20S26
 -45944835.44548 -35320471.08047  20581765.997 0  20581765.392 0  20581764.298 0
        52.000 0        44.000 0
 -22052587.25146 -14089568.01742  24428246.175 0  24428245.100 0  24428245.129 0
        39.000 0        16.000 0
 -36671765.86548 -28370257.27647  21005130.777 0  21005129.693 0  21005132.242 0
        50.000 0        42.000 0
 -32711188.74748 -23056760.98146  21642029.617 0  21642027.985 0  21642025.797 0
        49.000 0        40.000 0
 -16117472.68247 -12411533.08945  23013148.134 0  23013147.440 0  23013147.157 0
        45.000 0        30.000 0
 -11480158.56647  -8744878.55444  24023507.015 0  24023506.126 0  24023504.993 0
        43.000 0        26.000 0
 -12766830.38945     10952.49841  25784159.861 0  25784160.564 0  25784164.510 0
        34.000 0        10.000 0
  -6783646.51146  -5040034.76542  24572108.282 0  24572107.950 0  24572109.444 0
        38.000 0        12.000 0
 -35119705.56247 -27067572.17744  23688885.199 0  23688884.632 0  23688887.396 0
        43.000 0        28.000 0
 -30062574.37247 -23367234.66745  22449000.513 0  22449000.982 0  22449003.111 0
        45.000 0        34.000 0
 -12768490.66345  -1568836.30141  25030600.249 0  25030599.624 0  25030601.870 0
        34.000 0         8.000 0
-319024045.450 6          .000 0  21862240.533 0          .000 0          .000 0
        40.000 0          .000 0
  -6269434.514 5          .000 0  22782887.728 0          .000 0          .000 0
        35.000 0          .000 0
-180222212.372 6          .000 0  21170669.317 0          .000 0          .000 0
        40.000 0          .000 0
 15 01 01 00 00 11.0000000  0 14G12G14G25G02G29G31G03G10G24G06G20S36
                                S20S26
 -45945223.90448 -35320773.77647  20581692.129 0  20581691.474 0  20581690.370 0
        52.000 0        44.000 0
 -22051889.73546 -14089024.49942  24428379.299 0  24428377.863 0  24428377.863 0
        39.000 0        16.000 0
 -36674875.86648 -28372680.65347  21004538.890 0  21004537.883 0  21004540.423 0
        50.000 0        42.000 0
 -32713637.94048 -23058669.44246  21641563.576 0  21641561.925 0  21641559.737 0
        49.000 0        40.000 0
 -16122146.52747 -12415175.04645  23012258.642 0  23012258.007 0  23012257.772 0
        45.000 0        30.000 0
 -11484503.52447  -8748264.23544  24022680.217 0  24022679.269 0  24022678.156 0
        43.000 0        26.000 0
 -12766265.77245     11392.45941  25784268.017 0  25784267.860 0  25784271.914 0
        33.000 0        10.000 0
  -6787800.30046  -5043271.48542  24571318.252 0  24571317.480 0  24571318.965 0
        38.000 0        12.000 0
 -35117574.99047 -27065911.99144  23689290.763 0  23689290.050 0  23689292.795 0
        43.000 0        28.000 0
 -30062249.09847 -23366981.20845  22449062.581 0  22449062.894 0  22449065.023 0
        45.000 0        34.000 0
 -12768610.18745  -1568929.43741  25030577.655 0  25030576.854 0  25030579.120 0
        34.000 0         8.000 0
-319025526.289 6          .000 0  21861958.988 0          .000 0          .000 0
        40.000 0          .000 0
  -6270943.869 6          .000 0  22782601.464 0          .000 0          .000 0
        36.000 0          .000 0
-180223644.765 6          .000 0  21170397.306 0          .000 0          .000 0
        40.000 0          .000 0
 15 01 01 00 00 12.0000000  0 14G12G14G25G02G29G31G03G10G24G06G20S36
                                S20S26
 -45945611.89148 -35321076.10447  20581618.260 0  20581617.645 0  20581616.541 0
        52.000 0        44.000 0
 -22051191.80346 -14088480.65642  24428512.461 0  24428510.693 0  24428510.664 0
        39.000 0        16.000 0
 -36677985.44248 -28375103.70047  21003947.110 0  21003946.133 0  21003948.682 0
        50.000 0        42.000 0
 -32716086.59948 -23060577.48946  21641097.662 0  21641095.982 0  21641093.774 0
        50.000 0        40.000 0
 -16126820.14647 -12418816.82745  23011369.287 0  23011368.623 0  23011368.427 0
        45.000 0        30.000 0
 -11488848.13247  -8751649.64444  24021853.468 0  24021852.530 0  24021851.377 0
        43.000 0        26.000 0
 -12765700.67745     11832.79141  25784375.791 0  25784375.196 0  25784379.054 0
        34.000 0        10.000 0
  -6791953.71446  -5046507.91042  24570528.164 0  24570527.060 0  24570528.486 0
        38.000 0        12.000 0
 -35115444.23447 -27064251.66344  23689696.152 0  23689695.517 0  23689698.233 0
        43.000 0        28.000 0
 -30061923.27847 -23366727.32445  22449124.659 0  22449124.874 0  22449127.063 0
        46.000 0        34.000 0
 -12768729.17445  -1569022.15441  25030554.503 0  25030554.181 0  25030556.496 0
        34.000 0         8.000 0
-319027007.102 6          .000 0  21861676.994 0          .000 0          .000 0
        40.000 0          .000 0
  -6272453.179 6          .000 0  22782313.433 0          .000 0          .000 0
        36.000 0          .000 0
-180225077.029 6          .000 0  21170124.836 0          .000 0          .000 0
        40.000 0          .000 0
 15 01 01 00 00 13.0000000  0 14G12G14G25G02G29G31G03G10G24G06G20S36
                                S20S26
 -45945999.34648 -35321378.01747  20581544.548 0  20581543.922 0  20581542.809 0
        52.000 0        44.000 0
 -22050493.43646 -14087936.47442  24428645.458 0  24428643.661 0  24428643.495 0
        39.000 0        16.000 0
 -36681094.52948 -28377526.36447  21003355.427 0  21003354.480 0  21003357.039 0
        50.000 0        42.000 0
 -32718534.66448 -23062485.07146  21640631.826 0  21640630.165 0  21640627.899 0
        50.000 0        40.000 0
 -16131493.50747 -12422458.40745  23010480.039 0  23010479.316 0  23010479.072 0
        45.000 0        30.000 0
 -11493192.34847  -8755034.74744  24021026.718 0  24021025.868 0  24021024.677 0
        43.000 0        26.000 0
 -12765135.10145     12273.50241  25784483.791 0  25784482.677 0  25784486.389 0
        34.000 0        10.000 0
  -6796106.69146  -5049743.99442  24569738.124 0  24569736.747 0  24569738.095 0
        39.000 0        12.000 0
 -35113313.25247 -27062591.15844  23690101.727 0  23690101.024 0  23690103.710 0
        43.000 0        28.000 0
 -30061596.85447 -23366472.96845  22449186.865 0  22449186.972 0  22449189.209 0
        45.000 0        34.000 0
 -12768847.59145  -1569114.42641  25030532.515 0  25030531.626 0  25030534.000 0
        33.000 0         8.000 0
-319028487.906 6          .000 0  21861395.790 0          .000 0          .000 0
        40.000 0          .000 0
  -6273962.292 6          .000 0  22782026.564 0          .000 0          .000 0
        36.000 0          .000 0
-180226509.342 6          .000 0  21169852.170 0          .000 0          .000 0
        40.000 0          .000 0
 15 01 01 00 00 14.0000000  0 14G12G14G25G02G29G31G03G10G24G06G20S36
                                S20S26
 -45946386.30848 -35321679.54547  20581470.943 0  20581470.288 0  20581469.165 0
        52.000 0        44.000 0
 -22049794.64446 -14087391.96142  24428778.348 0  24428776.707 0  24428776.404 0
        39.000 0        16.000 0
 -36684203.16748 -28379948.68047  21002763.901 0  21002762.934 0  21002765.474 0
        50.000 0        42.000 0
 -32720982.17948 -23064392.22646  21640166.234 0  21640164.456 0  21640162.132 0
        50.000 0        40.000 0
 -16136166.63047 -12426099.80145  23009590.899 0  23009590.049 0  23009589.766 0
        45.000 0        30.000 0
 -11497536.21447  -8758419.57744  24020200.233 0  24020199.275 0  24020198.074 0
        43.000 0        26.000 0
 -12764569.08145     12714.55941  25784591.595 0  25784590.394 0  25784594.340 0
        34.000 0        10.000 0
  -6800259.32046  -5052979.81042  24568948.006 0  24568946.639 0  24568947.860 0
        39.000 0        12.000 0
 -35111182.07347 -27060930.49944  23690507.213 0  23690506.559 0  23690509.255 0
        43.000 0        28.000 0
 -30061269.86647 -23366218.17345  22449249.109 0  22449249.177 0  22449251.453 0
        46.000 0        34.000 0
 -12768965.38445  -1569206.21141  25030510.145 0  25030509.217 0  25030511.601 0
        34.000 0         8.000 0
-319029968.686 6          .000 0  21861114.577 0          .000 0          .000 0
        39.000 0          .000 0
  -6275471.568 5          .000 0  22781740.506 0          .000 0          .000 0
        35.000 0          .000 0
-180227941.777 6          .000 0  21169580.023 0          .000 0          .000 0
        40.000 0          .000 0
 15 01 01 00 00 15.0000000  0 14G12G14G25G02G29G31G03G10G24G06G20S36
                                S20S26
 -45946772.81248 -35321980.71747  20581397.416 0  20581396.742 0  20581395.628 0
        52.000 0        44.000 0
 -22049095.47146 -14086847.15142  24428911.530 0  24428909.733 0  24428909.450 0
        39.000 0        16.000 0
 -36687311.40148 -28382370.68047  21002172.532 0  21002171.467 0  21002173.987 0
        50.000 0        42.000 0
 -32723429.17648 -23066298.97746  21639700.604 0  21639698.835 0  21639696.462 0
        50.000 0        40.000 0
 -16140839.55647 -12429741.04145  23008701.622 0  23008700.841 0  23008700.558 0
        45.000 0        30.000 0
 -11501879.75747  -8761804.15444  24019373.669 0  24019372.741 0  24019371.530 0
        43.000 0        26.000 0
 -12764002.59345     13155.97741  25784699.399 0  25784698.207 0  25784702.310 0
        34.000 0         8.000 0
  -6804411.58846  -5056215.34142  24568157.908 0  24568156.580 0  24568157.683 0
        39.000 0        12.000 0
 -35109050.74747 -27059269.72744  23690912.769 0  23690912.134 0  23690914.820 0
        43.000 0        28.000 0
 -30060942.33947 -23365962.95845  22449311.578 0  22449311.471 0  22449313.786 0
        46.000 0        34.000 0
 -12769082.66645  -1569297.60241  25030488.088 0  25030486.916 0  25030489.270 0
        34.000 0         6.000 0
-319031449.443 6          .000 0  21860833.032 0          .000 0          .000 0
        40.000 0          .000 0
  -6276980.899 6          .000 0  22781451.703 0          .000 0          .000 0
        36.000 0          .000 0
-180229374.216 6          .000 0  21169307.797 0          .000 0          .000 0
        40.000 0          .000 0
 15 01 01 00 00 16.0000000  0 14G12G14G25G02G29G31G03G10G24G06G20S36
                                S20S26
 -45947158.85448 -35322281.52947  20581323.996 0  20581323.283 0  20581322.170 0
        52.000 0        44.000 0
 -22048395.92146 -14086302.04942  24429044.781 0  24429042.847 0  24429042.564 0
        39.000 0        16.000 0
 -36690419.20648 -28384792.34647  21001581.221 0  21001580.088 0  21001582.598 0
        50.000 0        42.000 0
 -32725875.63848 -23068205.31146  21639235.110 0  21639233.293 0  21639230.890 0
        50.000 0        40.000 0
 -16145512.27147 -12433382.11845  23007812.560 0  23007811.672 0  23007811.398 0
        46.000 0        30.000 0
 -11506222.96347  -8765188.47044  24018547.193 0  24018546.256 0  24018545.064 0
        43.000 0        26.000 0
 -12763435.65545     13597.75041  25784807.750 0  25784806.139 0  25784810.075 0
        34.000 0        10.000 0
  -6808563.52846  -5059450.62042  24567367.947 0  24567366.501 0  24567367.556 0
        39.000 0        12.000 0
 -35106919.25047 -27057608.82144  23691318.275 0  23691317.737 0  23691320.404 0
        43.000 0        28.000 0
 -30060614.27347 -23365707.32445  22449374.115 0  22449373.852 0  22449376.206 0
        46.000 0        34.000 0
 -12769199.41045  -1569388.57241  25030466.090 0  25030464.702 0  25030467.076 0
        34.000 0         6.000 0
-319032930.234 6          .000 0  21860551.536 0          .000 0          .000 0
        40.000 0          .000 0
  -6278490.328 6          .000 0  22781164.766 0          .000 0          .000 0
        36.000 0          .000 0
-180230806.735 6          .000 0  21169034.994 0          .000 0          .000 0
        40.000 0          .000 0
 15 01 01 00 00 17.0000000  0 14G12G14G25G02G29G31G03G10G24G06G20S36
                                S20S26
 -45947544.34148 -35322581.90847  20581250.675 0  20581249.923 0  20581248.829 0
        52.000 0        44.000 0
 -22047695.87646 -14085756.55942  24429177.905 0  24429176.078 0  24429175.756 0
        39.000 0        16.000 0
 -36693526.50748 -28387213.62047  21000989.988 0  21000988.806 0  21000991.297 0
        50.000 0        42.000 0
 -32728321.48148 -23070111.16246  21638769.723 0  21638767.887 0  21638765.444 0
        50.000 0        40.000 0
 -16150184.67647 -12437022.95245  23006923.528 0  23006922.512 0  23006922.268 0
        46.000 0        30.000 0
 -11510565.73947  -8768572.45044  24017720.727 0  24017719.848 0  24017718.676 0
        43.000 0        26.000 0
 -12762868.21445     14039.91541  25784915.056 0  25784914.158 0  25784917.967 0
        33.000 0        10.000 0
  -6812714.98446  -5062685.52142  24566577.946 0  24566576.500 0  24566577.516 0
        39.000 0        12.000 0
 -35104787.49047 -27055947.71144  23691723.742 0  23691723.390 0  23691726.037 0
        43.000 0        28.000 0
 -30060285.59247 -23365451.21045  22449436.692 0  22449436.350 0  22449438.743 0
        46.000 0        34.000 0
 -12769315.49145  -1569479.02541  25030444.199 0  25030442.597 0  25030445.009 0
        34.000 0         8.000 0
-319034410.992 6          .000 0  21860269.747 0          .000 0          .000 0
        40.000 0          .000 0
  -6279999.675 5          .000 0  22780876.256 0          .000 0          .000 0
        35.000 0          .000 0
-180232239.188 6          .000 0  21168762.075 0          .000 0          .000 0
        40.000 0          .000 0
 15 01 01 00 00 18.0000000  0 14G12G14G25G02G29G31G03G10G24G06G20S36
                                S20S26
 -45947929.23748 -35322881.82747  20581177.412 0  20581176.689 0  20581175.585 0
        52.000 0        44.000 0
 -22046995.32846 -14085210.67642  24429311.341 0  24429309.407 0  24429309.046 0
        39.000 0        16.000 0
 -36696633.25648 -28389634.46347  21000398.901 0  21000397.612 0  21000400.093 0
        50.000 0        42.000 0
 -32730766.67248 -23072016.50646  21638304.483 0  21638302.598 0  21638300.136 0
        50.000 0        40.000 0
 -16154856.76347 -12440663.54045  23006034.505 0  23006033.440 0  23006033.206 0
        46.000 0        30.000 0
 -11514908.04847  -8771956.06644  24016894.525 0  24016893.558 0  24016892.376 0
        43.000 0        26.000 0
 -12762300.18145     14482.53941  25785022.587 0  25785022.226 0  25785026.094 0
        32.000 0         8.000 0
  -6816865.97146  -5065920.05541  24565788.307 0  24565786.607 0  24565787.584 0
        39.000 0        10.000 0
 -35102655.40147 -27054286.34344  23692129.482 0  23692129.111 0  23692131.758 0
        42.000 0        28.000 0
 -30059956.20147 -23365194.54345  22449499.249 0  22449498.995 0  22449501.407 0
        46.000 0        34.000 0
 -12769430.92045  -1569568.97041  25030422.571 0  25030420.588 0  25030423.069 0
        34.000 0         8.000 0
-319035891.641 6          .000 0  21859987.684 0          .000 0          .000 0
        40.000 0          .000 0
  -6281508.907 5          .000 0  22780588.166 0          .000 0          .000 0
        35.000 0          .000 0
-180233671.517 6          .000 0  21168489.009 0          .000 0          .000 0
        40.000 0          .000 0
 15 01 01 00 00 19.0000000  0 14G12G14G25G02G29G31G03G10G24G06G20S36
                                S20S26
 -45948313.64448 -35323181.36547  20581104.276 0  20581103.533 0  20581102.439 0
        52.000 0        44.000 0
 -22046294.36546 -14084664.47142  24429444.543 0  24429442.824 0  24429442.424 0
        40.000 0        16.000 0
 -36699739.54848 -28392054.95047  20999807.717 0  20999806.496 0  20999808.987 0
        50.000 0        42.000 0
 -32733211.30348 -23073921.41346  21637839.282 0  21637837.426 0  21637834.935 0
        50.000 0        40.000 0
 -16159528.60947 -12444303.93945  23005145.580 0  23005144.466 0  23005144.154 0
        46.000 0        30.000 0
 -11519250.00947  -8775339.41244  24016068.303 0  24016067.336 0  24016066.125 0
        43.000 0        26.000 0
 -12761731.59845     14925.59141  25785130.733 0  25785130.401 0  25785134.328 0
        32.000 0         8.000 0
  -6821016.56346  -5069154.28242  24564998.111 0  24564996.773 0  24564997.730 0
        39.000 0        12.000 0
 -35100523.12647 -27052624.83144  23692535.252 0  23692534.871 0  23692537.519 0
        43.000 0        28.000 0
 -30059626.25547 -23364937.44245  22449561.962 0  22449561.766 0  22449564.199 0
        46.000 0        34.000 0
 -12769545.76545  -1569658.46041  25030400.866 0  25030398.678 0  25030401.237 0
        34.000 0         6.000 0
-319037372.281 6          .000 0  21859706.852 0          .000 0          .000 0
        40.000 0          .000 0
  -6283018.200 6          .000 0  22780301.141 0          .000 0          .000 0
        36.000 0          .000 0
-180235103.723 6          .000 0  21168216.167 0          .000 0          .000 0
        40.000 0          .000 0
 15 01 01 00 00 20.0000000  0 14G12G14G25G02G29G31G03G10G24G06G20S36
                                S20S26
 -45948697.57648 -35323480.53347  20581031.218 0  20581030.475 0  20581029.391 0
        52.000 0        44.000 0
 -22045593.00946 -14084117.96042  24429577.892 0  24429576.319 0  24429575.860 0
        40.000 0        16.000 0
 -36702845.42448 -28394475.11347  20999216.748 0  20999215.478 0  20999217.959 0
        50.000 0        42.000 0
 -32735655.38948 -23075825.89646  21637374.120 0  21637372.362 0  21637369.851 0
        50.000 0        40.000 0
 -16164200.23947 -12447944.17045  23004256.537 0  23004255.521 0  23004255.140 0
        45.000 0        30.000 0
 -11523591.61747  -8778722.48244  24015242.228 0  24015241.173 0  24015239.962 0
        43.000 0        26.000 0
 -12761162.57445     15368.98441  25785239.299 0  25785238.654 0  25785242.659 0
        33.000 0         8.000 0
  -6825166.81246  -5072388.24642  24564208.248 0  24564206.978 0  24564208.013 0
        39.000 0        12.000 0
 -35098390.65847 -27050963.16944  23692941.032 0  23692940.661 0  23692943.328 0
        43.000 0        28.000 0
 -30059295.75947 -23364679.91545  22449624.909 0  22449624.685 0  22449627.117 0
        46.000 0        34.000 0
 -12769659.98645  -1569747.46441  25030378.897 0  25030376.953 0  25030379.483 0
        34.000 0         8.000 0
-319038853.014 6          .000 0  21859424.526 0          .000 0          .000 0
        40.000 0          .000 0
  -6284527.605 5          .000 0  22780014.448 0          .000 0          .000 0
        35.000 0          .000 0
-180236535.997 6          .000 0  21167943.599 0          .000 0          .000 0
        40.000 0          .000 0
 15 01 01 00 00 21.0000000  0 14G12G14G25G02G29G31G03G10G24G06G20S36
                                S20S26
 -45949080.98048 -35323779.28947  20580958.267 0  20580957.515 0  20580956.441 0
        52.000 0        44.000 0
 -22044891.19846 -14083571.09442  24429711.358 0  24429709.922 0  24429709.375 0
        39.000 0        16.000 0
 -36705950.81548 -28396894.89847  20998625.740 0  20998624.538 0  20998627.019 0
        50.000 0        42.000 0
 -32738098.89748 -23077729.92746  21636909.007 0  21636907.386 0  21636904.875 0
        50.000 0        40.000 0
 -16168871.58747 -12451584.18145  23003367.593 0  23003366.616 0  23003366.196 0
        46.000 0        30.000 0
 -11527932.83347  -8782105.24944  24014416.319 0  24014415.078 0  24014413.877 0
        43.000 0        26.000 0
 -12760593.15245     15812.68841  25785347.680 0  25785346.957 0  25785351.050 0
        32.000 0         8.000 0
  -6829316.60946  -5075621.85342  24563418.491 0  24563417.280 0  24563418.374 0
        39.000 0        12.000 0
 -35096257.97047 -27049301.33644  23693346.861 0  23693346.499 0  23693349.176 0
        43.000 0        28.000 0
 -30058964.67347 -23364421.92645  22449688.023 0  22449687.730 0  22449690.143 0
        46.000 0        34.000 0
 -12769773.72345  -1569836.08941  25030356.801 0  25030355.345 0  25030357.758 0
        34.000 0         8.000 0
-319040333.765 6          .000 0  21859142.590 0          .000 0          .000 0
        40.000 0          .000 0
  -6286036.963 5          .000 0  22779726.495 0          .000 0          .000 0
        35.000 0          .000 0
-180237968.263 6          .000 0  21167671.461 0          .000 0          .000 0
        40.000 0          .000 0
 15 01 01 00 00 22.0000000  0 14G12G14G25G02G29G31G03G10G24G06G20S36
                                S20S26
 -45949463.83048 -35324077.61447  20580885.414 0  20580884.643 0  20580883.588 0
        52.000 0        44.000 0
 -22044188.92146 -14083023.86742  24429844.902 0  24429843.602 0  24429842.968 0
        39.000 0        16.000 0
 -36709055.69848 -28399314.28747  20998034.839 0  20998033.686 0  20998036.168 0
        50.000 0        42.000 0
 -32740541.77848 -23079633.47146  21636444.051 0  21636442.546 0  21636440.026 0
        50.000 0        40.000 0
 -16173542.65947 -12455223.97745  23002478.687 0  23002477.749 0  23002477.310 0
        46.000 0        30.000 0
 -11532273.61647  -8785487.67644  24013590.400 0  24013589.052 0  24013587.831 0
        43.000 0        26.000 0
 -12760023.07645     16256.89941  25785456.031 0  25785455.288 0  25785459.479 0
        32.000 0         8.000 0
  -6833465.99146  -5078855.13842  24562629.038 0  24562627.729 0  24562628.862 0
        38.000 0        12.000 0
 -35094124.99047 -27047639.27544  23693752.914 0  23693752.396 0  23693755.073 0
        43.000 0        28.000 0
 -30058632.93447 -23364163.43045  22449751.137 0  22449750.902 0  22449753.276 0
        46.000 0        34.000 0
 -12769886.73045  -1569924.14341  25030335.183 0  25030333.864 0  25030336.209 0
        34.000 0         8.000 0
-319041814.450 6          .000 0  21858860.312 0          .000 0          .000 0
        40.000 0          .000 0
  -6287546.160 6          .000 0  22779440.632 0          .000 0          .000 0
        36.000 0          .000 0
-180239400.501 6          .000 0  21167399.157 0          .000 0          .000 0
        40.000 0          .000 0
 15 01 01 00 00 23.0000000  0 14G12G14G25G02G29G31G03G10G24G06G20S36
                                S20S26
 -45949846.10248 -35324375.48847  20580812.610 0  20580811.897 0  20580810.852 0
        52.000 0        44.000 0
 -22043486.13846 -14082476.24542  24429978.739 0  24429977.410 0  24429976.707 0
        39.000 0        16.000 0
 -36712160.03848 -28401733.25447  20997444.075 0  20997442.952 0  20997445.423 0
        50.000 0        42.000 0
 -32742984.01148 -23081536.51046  21635979.279 0  21635977.824 0  21635975.274 0
        50.000 0        40.000 0
 -16178213.38847 -12458863.50745  23001589.801 0  23001588.932 0  23001588.492 0
        46.000 0        30.000 0
 -11536613.95547  -8788869.75944  24012764.374 0  24012763.114 0  24012761.873 0
        43.000 0        26.000 0
 -12759452.49145     16701.50741  25785564.011 0  25785563.776 0  25785567.987 0
        32.000 0         8.000 0
  -6837614.89246  -5082088.05342  24561839.526 0  24561838.236 0  24561839.408 0
        39.000 0        12.000 0
 -35091991.73447 -27045976.99944  23694158.889 0  23694158.352 0  23694161.028 0
        43.000 0        28.000 0
 -30058300.55547 -23363904.43545  22449814.436 0  22449814.182 0  22449816.546 0
        46.000 0        34.000 0
 -12769999.15545  -1570011.74441  25030313.292 0  25030312.472 0  25030314.767 0
        34.000 0         8.000 0
-319043295.122 6          .000 0  21858578.406 0          .000 0          .000 0
        40.000 0          .000 0
  -6289055.223 6          .000 0  22779152.347 0          .000 0          .000 0
        36.000 0          .000 0
-180240832.605 6          .000 0  21167127.527 0          .000 0          .000 0
        40.000 0          .000 0
 15 01 01 00 00 24.0000000  0 13G12G14G25G02G29G31G10G24G06G20S36S20
                                S26
 -45950227.82548 -35324672.93547  20580739.953 0  20580739.259 0  20580738.224 0
        52.000 0        44.000 0
 -22042782.88446 -14081928.25542  24430112.673 0  24430111.325 0  24430110.554 0
        39.000 0        16.000 0
 -36715263.88548 -28404151.83647  20996853.399 0  20996852.305 0  20996854.796 0
        50.000 0        42.000 0
 -32745425.63848 -23083439.07746  21635514.694 0  21635513.219 0  21635510.650 0
        49.000 0        40.000 0
 -16182883.83247 -12462502.81345  23000701.052 0  23000700.153 0  23000699.733 0
        46.000 0        30.000 0
 -11540953.88747  -8792251.52444  24011938.445 0  24011937.273 0  24011936.013 0
        43.000 0        26.000 0
  -6841763.34546  -5085320.61742  24561050.072 0  24561048.753 0  24561049.935 0
        39.000 0        12.000 0
 -35089858.25047 -27044314.54644  23694564.874 0  23694564.336 0  23694567.032 0
        43.000 0        28.000 0
 -30057967.54847 -23363644.94945  22449877.823 0  22449877.540 0  22449879.914 0
        46.000 0        34.000 0
 -12770110.84045  -1570098.76841  25030292.231 0  25030291.225 0  25030293.511 0
        34.000 0         8.000 0
-319044775.735 6          .000 0  21858297.359 0          .000 0          .000 0
        40.000 0          .000 0
  -6290564.332 5          .000 0  22778865.351 0          .000 0          .000 0
        35.000 0          .000 0
-180242264.632 6          .000 0  21166855.184 0          .000 0          .000 0
        40.000 0          .000 0
 15 01 01 00 00 25.0000000  0 14G12G14G25G02G29G31G03G10G24G06G20S36
                                S20S26
 -45950609.02848 -35324969.97647  20580667.393 0  20580666.719 0  20580665.694 0
        52.000 0        44.000 0
 -22042079.19746 -14081379.92842  24430246.374 0  24430245.279 0  24430244.478 0
        39.000 0        16.000 0
 -36718367.26348 -28406570.05247  20996262.820 0  20996261.765 0  20996264.256 0
        50.000 0        42.000 0
 -32747866.67648 -23085341.18446  21635050.099 0  21635048.702 0  21635046.123 0
        49.000 0        40.000 0
 -16187554.01947 -12466141.92045  22999812.244 0  22999811.404 0  22999811.052 0
        45.000 0        30.000 0
 -11545293.42147  -8795632.98044  24011112.516 0  24011111.491 0  24011110.211 0
        43.000 0        26.000 0
 -12758309.74745     17591.94341  25785781.172 0  25785781.436 0  25785785.099 0
        32.000 0         8.000 0
  -6845911.41546  -5088552.88242  24560261.058 0  24560259.368 0  24560260.541 0
        39.000 0        12.000 0
 -35087724.51147 -27042651.89244  23694970.819 0  23694970.390 0  23694973.086 0
        43.000 0        28.000 0
 -30057633.94347 -23363384.99845  22449941.465 0  22449941.025 0  22449943.379 0
        46.000 0        34.000 0
 -12770222.06745  -1570185.43541  25030270.741 0  25030270.067 0  25030272.362 0
        34.000 0         8.000 0
-319046256.383 6          .000 0  21858015.970 0          .000 0          .000 0
        40.000 0          .000 0
  -6292073.414 5          .000 0  22778578.902 0          .000 0          .000 0
        35.000 0          .000 0
-180243696.707 6          .000 0  21166581.326 0          .000 0          .000 0
        40.000 0          .000 0
 15 01 01 00 00 26.0000000  0 14G12G14G25G02G29G31G03G10G24G06G20S36
                                S20S26
 -45950989.71348 -35325266.61347  20580595.009 0  20580594.277 0  20580593.271 0
        52.000 0        44.000 0
 -22041375.08046 -14080831.26542  24430380.416 0  24430379.312 0  24430378.491 0
        39.000 0        16.000 0
 -36721470.16048 -28408987.89447  20995672.340 0  20995671.324 0  20995673.795 0
        50.000 0        42.000 0
 -32750307.14048 -23087242.84546  21634585.699 0  21634584.302 0  21634581.723 0
        49.000 0        40.000 0
 -16192223.94947 -12469780.82645  22998923.445 0  22998922.693 0  22998922.420 0
        45.000 0        32.000 0
 -11549632.58647  -8799014.14744  24010286.783 0  24010285.796 0  24010284.487 0
        43.000 0        26.000 0
 -12757737.65545     18037.72041  25785890.178 0  25785890.325 0  25785893.900 0
        32.000 0         8.000 0
  -6850059.06246  -5091784.81542  24559471.927 0  24559470.100 0  24559471.234 0
        39.000 0        12.000 0
 -35085590.56547 -27040989.07844  23695376.853 0  23695376.482 0  23695379.139 0
        43.000 0        28.000 0
 -30057299.74347 -23363124.58345  22450005.067 0  22450004.647 0  22450006.962 0
        46.000 0        34.000 0
 -12770332.57545  -1570271.54041  25030249.583 0  25030249.075 0  25030251.331 0
        34.000 0         8.000 0
-319047737.062 6          .000 0  21857733.692 0          .000 0          .000 0
        40.000 0          .000 0
  -6293582.521 6          .000 0  22778290.138 0          .000 0          .000 0
        36.000 0          .000 0
-180245128.930 6          .000 0  21166307.332 0          .000 0          .000 0
        40.000 0          .000 0
 15 01 01 00 00 27.0000000  0 14G12G14G25G02G29G31G03G10G24G06G20S36
                                S20S26
 -45951369.99748 -35325562.93947  20580522.645 0  20580521.922 0  20580520.926 0
        52.000 0        44.000 0
 -22040670.61746 -14080282.33242  24430514.487 0  24430513.422 0  24430512.572 0
        39.000 0        16.000 0
 -36724572.69948 -28411405.45747  20995081.966 0  20995080.960 0  20995083.393 0
        50.000 0        42.000 0
 -32752747.12848 -23089144.13446  21634121.348 0  21634119.970 0  21634117.431 0
        49.000 0        40.000 0
 -16196893.72047 -12473419.60945  22998034.706 0  22998034.012 0  22998033.817 0
        45.000 0        32.000 0
 -11553971.46147  -8802395.08944  24009460.903 0  24009460.141 0  24009458.813 0
        43.000 0        26.000 0
 -12757165.18445     18483.79041  25785999.379 0  25785999.272 0  25786002.808 0
        33.000 0         8.000 0
  -6854206.41846  -5095016.52442  24558682.737 0  24558680.891 0  24558681.985 0
        39.000 0        12.000 0
 -35083456.50047 -27039326.17244  23695782.926 0  23695782.574 0  23695785.231 0
        43.000 0        28.000 0
 -30056965.07847 -23362863.80645  22450068.845 0  22450068.346 0  22450070.661 0
        46.000 0        34.000 0
 -12770442.69245  -1570357.34441  25030229.206 0  25030228.170 0  25030230.339 0
        34.000 0         6.000 0
-319049217.917 6          .000 0  21857451.444 0          .000 0          .000 0
        40.000 0          .000 0
  -6295091.731 6          .000 0  22778003.660 0          .000 0          .000 0
        36.000 0          .000 0
-180246561.137 6          .000 0  21166034.354 0          .000 0          .000 0
        40.000 0          .000 0
 15 01 01 00 00 28.0000000  0 14G12G14G25G02G29G31G03G10G24G06G20S36
                                S20S26
 -45951749.75748 -35325858.85547  20580450.427 0  20580449.646 0  20580448.669 0
        52.000 0        44.000 0
 -22039965.73146 -14079733.07142  24430648.597 0  24430647.611 0  24430646.722 0
        39.000 0        16.000 0
 -36727674.76448 -28413822.65047  20994491.681 0  20994490.675 0  20994493.088 0
        50.000 0        42.000 0
 -32755186.54448 -23091044.97846  21633657.153 0  21633655.746 0  21633653.236 0
        49.000 0        40.000 0
 -16201563.25747 -12477058.20845  22997146.044 0  22997145.380 0  22997145.253 0
        45.000 0        32.000 0
 -11558309.95247  -8805775.73144  24008635.121 0  24008634.574 0  24008633.226 0
        42.000 0        26.000 0
 -12756592.24345     18930.23441  25786109.137 0  25786108.316 0  25786111.999 0
        33.000 0         8.000 0
  -6858353.35746  -5098247.90642  24557893.675 0  24557891.799 0  24557892.893 0
        39.000 0        12.000 0
 -35081322.23847 -27037663.11244  23696189.243 0  23696188.676 0  23696191.363 0
        43.000 0        28.000 0
 -30056629.80147 -23362602.55245  22450132.749 0  22450132.154 0  22450134.518 0
        46.000 0        34.000 0
 -12770552.15145  -1570442.63641  25030207.998 0  25030207.334 0  25030209.444 0
        34.000 0         6.000 0
-319050698.719 6          .000 0  21857170.963 0          .000 0          .000 0
        40.000 0          .000 0
  -6296600.988 6          .000 0  22777715.463 0          .000 0          .000 0
        36.000 0          .000 0
-180247993.148 6          .000 0  21165762.900 0          .000 0          .000 0
        40.000 0          .000 0
 15 01 01 00 00 29.0000000  0 14G12G14G25G02G29G31G03G10G24G06G20S36
                                S20S26
 -45952128.99448 -35326154.36547  20580378.268 0  20580377.477 0  20580376.519 0
        52.000 0        44.000 0
 -22039260.39246 -14079183.45642  24430782.854 0  24430781.839 0  24430780.959 0
        40.000 0        16.000 0
 -36730776.35748 -28416239.47647  20993901.464 0  20993900.468 0  20993902.851 0
        50.000 0        42.000 0
 -32757625.36848 -23092945.36046  21633193.046 0  21633191.649 0  21633189.148 0
        49.000 0        40.000 0
 -16206232.50247 -12480696.58145  22996257.383 0  22996256.836 0  22996256.748 0
        45.000 0        30.000 0
 -11562648.04447  -8809156.06344  24007809.241 0  24007809.065 0  24007807.707 0
        42.000 0        26.000 0
 -12756018.73245     19377.11941  25786219.178 0  25786217.469 0  25786221.268 0
        34.000 0         8.000 0
  -6862499.88046  -5101478.96642  24557104.553 0  24557102.776 0  24557103.870 0
        39.000 0        12.000 0
 -35079187.74247 -27035999.87044  23696595.306 0  23696594.808 0  23696597.523 0
        43.000 0        28.000 0
 -30056293.92847 -23362340.83345  22450196.684 0  22450196.078 0  22450198.471 0
        46.000 0        34.000 0
 -12770661.03645  -1570527.48541  25030187.817 0  25030186.576 0  25030188.637 0
        34.000 0         6.000 0
-319052179.584 6          .000 0  21856889.682 0          .000 0          .000 0
        40.000 0          .000 0
  -6298110.258 5          .000 0  22777428.828 0          .000 0          .000 0
        35.000 0          .000 0
-180249425.247 6          .000 0  21165491.738 0          .000 0          .000 0
        40.000 0          .000 0
 15 01 01 00 00 30.0000000  0 14G12G14G25G02G29G31G03G10G24G06G20S36
                                S20S26
 -45952507.73248 -35326449.48547  20580306.265 0  20580305.396 0  20580304.458 0
        52.000 0        44.000 0
 -22038554.63146 -14078633.51442  24430917.502 0  24430916.144 0  24430915.265 0
        39.000 0        16.000 0
 -36733877.48348 -28418655.93747  20993311.452 0  20993310.358 0  20993312.732 0
        50.000 0        42.000 0
 -32760063.62548 -23094845.30146  21632729.056 0  21632727.650 0  21632725.169 0
        49.000 0        40.000 0
 -16210901.51447 -12484334.77245  22995368.780 0  22995368.331 0  22995368.302 0
        45.000 0        30.000 0
 -11566985.77947  -8812536.11744  24006983.625 0  24006983.596 0  24006982.248 0
        42.000 0        26.000 0
 -12755444.75845     19824.36841  25786328.447 0  25786326.699 0  25786330.460 0
        33.000 0         8.000 0
  -6866646.02146  -5104709.72742  24556315.510 0  24556313.801 0  24556314.836 0
        39.000 0        12.000 0
 -35077053.03847 -27034336.46644  23697001.564 0  23697000.978 0  23697003.723 0
        43.000 0        28.000 0
 -30055957.47847 -23362078.66545  22450260.735 0  22450260.139 0  22450262.523 0
        46.000 0        34.000 0
 -12770769.37445  -1570611.90641  25030167.362 0  25030165.945 0  25030167.938 0
        34.000 0         6.000 0
-319053660.497 6          .000 0  21856607.141 0          .000 0          .000 0
        40.000 0          .000 0
  -6299619.387 5          .000 0  22777142.848 0          .000 0          .000 0
        35.000 0          .000 0
-180250857.655 6          .000 0  21165219.600 0          .000 0          .000 0
        40.000 0          .000 0
 15 01 01 00 00 31.0000000  0 14G12G14G25G02G29G31G03G10G24G06G20S36
                                S20S26
 -45952885.91748 -35326744.17547  20580234.321 0  20580233.432 0  20580232.504 0
        52.000 0        44.000 0
 -22037848.38546 -14078083.19442  24431051.798 0  24431050.558 0  24431049.649 0
        39.000 0        16.000 0
 -36736978.10448 -28421072.00647  20992721.372 0  20992720.346 0  20992722.710 0
        50.000 0        42.000 0
 -32762501.26548 -23096744.76046  21632265.077 0  21632263.748 0  21632261.296 0
        49.000 0        40.000 0
 -16215570.22947 -12487972.73045  22994480.343 0  22994479.845 0  22994479.923 0
        45.000 0        30.000 0
 -11571323.06647  -8815915.82244  24006158.204 0  24006158.224 0  24006156.876 0
        42.000 0        26.000 0
 -12754870.29545     20271.99841  25786437.990 0  25786436.027 0  25786439.700 0
        34.000 0         8.000 0
  -6870791.69846  -5107940.12542  24555526.496 0  24555524.924 0  24555525.910 0
        39.000 0        12.000 0
 -35074918.05047 -27032672.84044  23697407.803 0  23697407.227 0  23697409.962 0
        43.000 0        28.000 0
 -30055620.39447 -23361816.00345  22450324.923 0  22450324.308 0  22450326.682 0
        46.000 0        34.000 0
 -12770876.97245  -1570695.75041  25030147.171 0  25030145.471 0  25030147.376 0
        34.000 0         6.000 0
-319055141.356 6          .000 0  21856325.566 0          .000 0          .000 0
        40.000 0          .000 0
  -6301128.410 6          .000 0  22776854.671 0          .000 0          .000 0
        36.000 0          .000 0
-180252289.928 6          .000 0  21164946.788 0          .000 0          .000 0
        40.000 0          .000 0
 15 01 01 00 00 32.0000000  0 14G12G14G25G02G29G31G03G10G24G06G20S36
                                S20S26
 -45953263.60148 -35327038.47447  20580162.415 0  20580161.556 0  20580160.638 0
        52.000 0        44.000 0
 -22037141.72046 -14077532.54842  24431186.300 0  24431185.039 0  24431184.102 0
        39.000 0        16.000 0
 -36740078.26148 -28423487.71347  20992131.409 0  20992130.393 0  20992132.767 0
        50.000 0        42.000 0
 -32764938.33648 -23098643.77746  21631801.204 0  21631799.964 0  21631797.551 0
        49.000 0        40.000 0
 -16220238.68247 -12491610.48545  22993592.190 0  22993591.428 0  22993591.614 0
        45.000 0        30.000 0
 -11575659.99047  -8819295.24344  24005332.656 0  24005332.940 0  24005331.592 0
        42.000 0        26.000 0
 -12754295.29345     20720.04441  25786547.856 0  25786545.462 0  25786548.793 0
        33.000 0         6.000 0
  -6874936.98446  -5111170.21742  24554737.688 0  24554736.115 0  24554737.131 0
        38.000 0        12.000 0
 -35072782.85747 -27031009.05544  23697814.296 0  23697813.563 0  23697816.259 0
        43.000 0        28.000 0
 -30055282.72847 -23361552.88745  22450389.239 0  22450388.545 0  22450390.938 0
        46.000 0        34.000 0
 -12770984.07045  -1570779.20341  25030126.676 0  25030125.065 0  25030126.940 0
        34.000 0         6.000 0
-319056622.274 6          .000 0  21856043.308 0          .000 0          .000 0
        40.000 0          .000 0
  -6302637.563 5          .000 0  22776566.317 0          .000 0          .000 0
        35.000 0          .000 0
-180253721.859 6          .000 0  21164673.849 0          .000 0          .000 0
        40.000 0          .000 0
 15 01 01 00 00 33.0000000  0 14G12G14G25G02G29G31G03G10G24G06G20S36
                                S20S26
 -45953640.78648 -35327332.38547  20580090.598 0  20580089.768 0  20580088.850 0
        52.000 0        44.000 0
 -22036434.62746 -14076981.56542  24431320.635 0  24431319.619 0  24431318.642 0
        39.000 0        16.000 0
 -36743177.97048 -28425903.07047  20991541.592 0  20991540.547 0  20991542.921 0
        50.000 0        42.000 0
 -32767374.85248 -23100542.36146  21631337.439 0  21631336.257 0  21631333.893 0
        49.000 0        40.000 0
 -16224906.90647 -12495248.06245  22992703.978 0  22992703.128 0  22992703.382 0
        45.000 0        32.000 0
 -11579996.55747  -8822674.38644  24004507.304 0  24004507.724 0  24004506.386 0
        42.000 0        26.000 0
 -12753719.82745     21168.45841  25786657.447 0  25786654.956 0  25786658.034 0
        33.000 0         8.000 0
  -6879081.87346  -5114399.99842  24553948.449 0  24553947.365 0  24553948.410 0
        38.000 0        12.000 0
 -35070647.47147 -27029345.12044  23698220.603 0  23698219.929 0  23698222.586 0
        43.000 0        28.000 0
 -30054944.49847 -23361289.33345  22450453.681 0  22450452.909 0  22450455.312 0
        46.000 0        34.000 0
 -12771090.61145  -1570862.22441  25030106.544 0  25030104.766 0  25030106.641 0
        34.000 0         6.000 0
-319058103.219 6          .000 0  21855761.949 0          .000 0          .000 0
        40.000 0          .000 0
  -6304146.851 6          .000 0  22776279.751 0          .000 0          .000 0
        36.000 0          .000 0
-180255153.766 6          .000 0  21164401.291 0          .000 0          .000 0
        40.000 0          .000 0
 15 01 01 00 00 34.0000000  0 14G12G14G25G02G29G31G03G10G24G06G20S36
                                S20S26
 -45954017.44348 -35327625.88447  20580018.908 0  20580018.077 0  20580017.169 0
        52.000 0        44.000 0
 -22035727.08746 -14076430.23542  24431454.989 0  24431454.267 0  24431453.270 0
        38.000 0        16.000 0
 -36746277.18548 -28428318.04447  20990951.981 0  20990950.770 0  20990953.153 0
        50.000 0        42.000 0
 -32769810.75748 -23102440.46946  21630873.821 0  21630872.668 0  21630870.363 0
        49.000 0        40.000 0
 -16229574.83447 -12498885.40845  22991815.795 0  22991814.887 0  22991815.199 0
        46.000 0        32.000 0
 -11584332.71647  -8826053.21244  24003682.040 0  24003682.596 0  24003681.258 0
        42.000 0        26.000 0
 -12753143.90245     21617.23641  25786767.039 0  25786764.411 0  25786767.645 0
        33.000 0         8.000 0
  -6883226.35946  -5117629.47042  24553159.503 0  24553158.683 0  24553159.757 0
        38.000 0        12.000 0
 -35068511.83647 -27027680.98944  23698626.969 0  23698626.343 0  23698628.942 0
        43.000 0        28.000 0
 -30054605.66547 -23361025.30745  22450518.152 0  22450517.381 0  22450519.803 0
        46.000 0        34.000 0
 -12771196.44045  -1570944.69341  25030086.528 0  25030084.653 0  25030086.499 0
        34.000 0         6.000 0
-319059584.154 6          .000 0  21855479.241 0          .000 0          .000 0
        40.000 0          .000 0
  -6305656.093 6          .000 0  22775993.859 0          .000 0          .000 0
        36.000 0          .000 0
-180256585.854 6          .000 0  21164129.934 0          .000 0          .000 0
        40.000 0          .000 0
 15 01 01 00 00 35.0000000  0 14G12G14G25G02G29G31G03G10G24G06G20S36
                                S20S26
 -45954393.62648 -35327919.01447  20579947.344 0  20579946.485 0  20579945.596 0
        52.000 0        44.000 0
 -22035019.14946 -14075878.59642  24431589.061 0  24431588.992 0  24431587.967 0
        38.000 0        16.000 0
 -36749375.96948 -28430732.68047  20990362.379 0  20990361.070 0  20990363.464 0
        50.000 0        42.000 0
 -32772246.13848 -23104338.16846  21630410.466 0  21630409.196 0  21630406.940 0
        49.000 0        40.000 0
 -16234242.58047 -12502522.61245  22990927.690 0  22990926.694 0  22990926.977 0
        45.000 0        32.000 0
 -11588668.52547  -8829431.76444  24002856.951 0  24002857.527 0  24002856.189 0
        42.000 0        26.000 0
 -12752567.48245     22066.40241  25786876.611 0  25786873.984 0  25786877.305 0
        33.000 0         6.000 0
  -6887370.47246  -5120858.65042  24552371.007 0  24552370.060 0  24552371.183 0
        39.000 0        12.000 0
 -35066376.04547 -27026016.73844  23699033.559 0  23699032.768 0  23699035.347 0
        43.000 0        28.000 0
 -30054266.27047 -23360760.84445  22450582.761 0  22450581.950 0  22450584.372 0
        46.000 0        34.000 0
 -12771301.81945  -1571026.80841  25030066.132 0  25030064.657 0  25030066.483 0
        34.000 0         6.000 0
-319061065.172 6          .000 0  21855197.530 0          .000 0          .000 0
        40.000 0          .000 0
  -6307165.299 5          .000 0  22775707.137 0          .000 0          .000 0
        35.000 0          .000 0
-180258018.099 6          .000 0  21163857.503 0          .000 0          .000 0
        40.000 0          .000 0
 15 01 01 00 00 36.0000000  0 14G12G14G25G02G29G31G03G10G24G06G20S36
                                S20S26
 -45954769.36948 -35328211.80147  20579875.781 0  20579874.970 0  20579874.091 0
        52.000 0        44.000 0
 -22034310.84746 -14075326.67442  24431723.269 0  24431723.787 0  24431722.741 0
        38.000 0        16.000 0
 -36752474.36448 -28433147.01547  20989772.817 0  20989771.449 0  20989773.872 0
        50.000 0        42.000 0
 -32774680.99948 -23106235.46346  21629947.082 0  21629945.822 0  21629943.595 0
        49.000 0        40.000 0
 -16238910.12147 -12506159.65545  22990039.557 0  22990038.531 0  22990038.795 0
        45.000 0        32.000 0
 -11593004.03047  -8832810.08144  24002032.038 0  24002032.507 0  24002031.139 0
        42.000 0        26.000 0
 -12751990.65245     22515.88441  25786985.969 0  25786983.810 0  25786986.916 0
        32.000 0         6.000 0
  -6891514.26346  -5124087.57742  24551582.677 0  24551581.466 0  24551582.677 0
        39.000 0        12.000 0
 -35064240.10447 -27024352.37044  23699440.111 0  23699439.222 0  23699441.810 0
        43.000 0        28.000 0
 -30053926.36847 -23360495.98645  22450647.379 0  22450646.597 0  22450649.000 0
        46.000 0        34.000 0
 -12771406.57045  -1571108.43341  25030046.458 0  25030044.778 0  25030046.536 0
        35.000 0         6.000 0
-319062546.338 6          .000 0  21854915.897 0          .000 0          .000 0
        40.000 0          .000 0
  -6308674.524 5          .000 0  22775421.372 0          .000 0          .000 0
        35.000 0          .000 0
-180259450.162 6          .000 0  21163584.730 0          .000 0          .000 0
        40.000 0          .000 0
 15 01 01 00 00 37.0000000  0 14G12G14G25G02G29G31G03G10G24G06G20S36
                                S20S26
 -45955144.60348 -35328504.19147  20579804.315 0  20579803.563 0  20579802.694 0
        52.000 0        44.000 0
 -22033602.11546 -14074774.41542  24431857.633 0  24431858.659 0  24431857.653 0
        38.000 0        16.000 0
 -36755572.27548 -28435560.97147  20989183.284 0  20989181.906 0  20989184.368 0
        50.000 0        42.000 0
 -32777115.27748 -23108132.30246  21629483.805 0  21629482.594 0  21629480.367 0
        49.000 0        40.000 0
 -16243577.41247 -12509796.50545  22989151.413 0  22989150.387 0  22989150.690 0
        45.000 0        32.000 0
 -11597339.15247  -8836188.10044  24001207.203 0  24001207.565 0  24001206.168 0
        42.000 0        26.000 0
 -12751413.33645     22965.73041  25787095.326 0  25787093.724 0  25787096.664 0
        32.000 0         6.000 0
  -6895657.62346  -5127316.16642  24550794.269 0  24550792.950 0  24550794.259 0
        39.000 0        12.000 0
 -35062103.94747 -27022687.83444  23699846.691 0  23699845.714 0  23699848.323 0
        43.000 0        28.000 0
 -30053585.87447 -23360230.66645  22450712.241 0  22450711.391 0  22450713.755 0
        46.000 0        34.000 0
 -12771510.76945  -1571189.62741  25030026.794 0  25030025.007 0  25030026.658 0
        35.000 0         6.000 0
-319064027.561 6          .000 0  21854633.580 0          .000 0          .000 0
        40.000 0          .000 0
  -6310183.767 6          .000 0  22775135.489 0          .000 0          .000 0
        36.000 0          .000 0
-180260882.274 6          .000 0  21163310.805 0          .000 0          .000 0
        40.000 0          .000 0
 15 01 01 00 00 38.0000000  0 14G12G14G25G02G29G31G03G10G24G06G20S36
                                S20S26
 -45955519.38348 -35328796.22847  20579732.986 0  20579732.244 0  20579731.384 0
        52.000 0        44.000 0
 -22032893.01646 -14074221.87042  24431991.910 0  24431993.590 0  24431992.633 0
        37.000 0        16.000 0
 -36758669.80248 -28437974.62847  20988593.809 0  20988592.461 0  20988594.932 0
        50.000 0        42.000 0
 -32779549.04948 -23110028.74846  21629020.666 0  21629019.464 0  21629017.227 0
        49.000 0        40.000 0
 -16248244.50447 -12513433.19945  22988263.367 0  22988262.282 0  22988262.605 0
        45.000 0        32.000 0
 -11601673.95247  -8839565.86744  24000382.222 0  24000382.672 0  24000381.314 0
        42.000 0        26.000 0
 -12750835.51745     23415.98441  25787204.732 0  25787203.677 0  25787206.745 0
        32.000 0         6.000 0
  -6899800.67146  -5130544.51342  24550006.212 0  24550004.503 0  24550005.841 0
        39.000 0        12.000 0
 -35059967.63247 -27021023.17444  23700253.360 0  23700252.246 0  23700254.864 0
        43.000 0        28.000 0
 -30053244.85247 -23359964.93545  22450777.074 0  22450776.322 0  22450778.627 0
        46.000 0        34.000 0
 -12771614.44645  -1571270.41641  25030007.219 0  25030005.343 0  25030006.896 0
        35.000 0         8.000 0
-319065508.769 6          .000 0  21854351.947 0          .000 0          .000 0
        40.000 0          .000 0
  -6311692.961 5          .000 0  22774846.755 0          .000 0          .000 0
        35.000 0          .000 0
-180262314.555 6          .000 0  21163038.793 0          .000 0          .000 0
        40.000 0          .000 0
 15 01 01 00 00 39.0000000  0 13G12G14G25G02G29G31G10G24G06G20S36S20
                                S26
 -45955893.70948 -35329087.91147  20579661.784 0  20579661.003 0  20579660.143 0
        52.000 0        44.000 0
 -22032183.53346 -14073669.02942  24432126.489 0  24432128.580 0  24432127.632 0
        38.000 0        16.000 0
 -36761766.89348 -28440387.94647  20988004.334 0  20988003.094 0  20988005.594 0
        50.000 0        42.000 0
 -32781982.29248 -23111924.78146  21628557.604 0  21628556.442 0  21628554.175 0
        49.000 0        40.000 0
 -16252911.39647 -12517069.73745  22987375.174 0  22987374.207 0  22987374.569 0
        45.000 0        32.000 0
 -11606008.42147  -8842943.37644  23999557.495 0  23999557.857 0  23999556.528 0
        42.000 0        26.000 0
  -6903943.33446  -5133772.55942  24549218.332 0  24549216.143 0  24549217.521 0
        39.000 0        12.000 0
 -35057831.16647 -27019358.39744  23700659.901 0  23700658.807 0  23700661.455 0
        43.000 0        28.000 0
 -30052903.28747 -23359698.78045  22450842.043 0  22450841.350 0  22450843.606 0
        46.000 0        34.000 0
 -12771717.55845  -1571350.76541  25029987.428 0  25029985.787 0  25029987.242 0
        35.000 0         6.000 0
-319066990.030 6          .000 0  21854070.324 0          .000 0          .000 0
        40.000 0          .000 0
  -6313202.166 6          .000 0  22774559.691 0          .000 0          .000 0
        36.000 0          .000 0
-180263746.858 6          .000 0  21162766.128 0          .000 0          .000 0
        40.000 0          .000 0
 15 01 01 00 00 40.0000000  0 13G12G14G25G02G29G31G10G24G06G20S36S20
                                S26
 -45956267.65548 -35329379.29847  20579590.612 0  20579589.850 0  20579588.990 0
        52.000 0        44.000 0
 -22031473.74646 -14073115.94942  24432261.528 0  24432263.638 0  24432262.690 0
        38.000 0        16.000 0
 -36764863.66548 -28442801.01547  20987415.075 0  20987413.795 0  20987416.296 0
        50.000 0        42.000 0
 -32784415.09148 -23113820.46946  21628094.728 0  21628093.478 0  21628091.231 0
        49.000 0        40.000 0
 -16257578.17347 -12520706.18645  22986487.021 0  22986486.142 0  22986486.542 0
        45.000 0        32.000 0
 -11610342.65447  -8846320.70244  23998732.768 0  23998733.061 0  23998731.732 0
        42.000 0        26.000 0
  -6908085.74446  -5137000.41142  24548430.451 0  24548427.843 0  24548429.337 0
        39.000 0        12.000 0
 -35055694.59847 -27017693.53944  23701066.443 0  23701065.378 0  23701068.055 0
        43.000 0        28.000 0
 -30052561.28347 -23359432.28445  22450907.179 0  22450906.437 0  22450908.683 0
        46.000 0        34.000 0
 -12771820.26145  -1571430.79341  25029967.989 0  25029966.260 0  25029967.696 0
        35.000 0         6.000 0
-319068471.396 6          .000 0  21853789.004 0          .000 0          .000 0
        40.000 0          .000 0
  -6314711.636 6          .000 0  22774272.333 0          .000 0          .000 0
        36.000 0          .000 0
-180265179.260 6          .000 0  21162494.078 0          .000 0          .000 0
        40.000 0          .000 0
 15 01 01 00 00 41.0000000  0 13G12G14G25G02G29G31G10G24G06G20S36S20
                                S26
 -45956641.16648 -35329670.34647  20579519.478 0  20579518.775 0  20579517.925 0
        52.000 0        44.000 0
 -22030763.61146 -14072562.60042  24432396.898 0  24432398.735 0  24432397.817 0
        38.000 0        16.000 0
 -36767960.03448 -28445213.77047  20986825.854 0  20986824.574 0  20986827.085 0
        50.000 0        42.000 0
 -32786847.39348 -23115715.76846  21627631.969 0  21627630.602 0  21627628.394 0
        49.000 0        40.000 0
 -16262244.77447 -12524342.49745  22985598.848 0  22985598.105 0  22985598.506 0
        45.000 0        32.000 0
 -11614676.56947  -8849697.77944  23997908.168 0  23997908.334 0  23997907.015 0
        42.000 0        26.000 0
  -6912227.83846  -5140228.01542  24547642.687 0  24547639.600 0  24547641.202 0
        40.000 0        12.000 0
 -35053557.86047 -27016028.54944  23701473.092 0  23701471.979 0  23701474.684 0
        43.000 0        28.000 0
 -30052218.76347 -23359165.38545  22450972.413 0  22450971.612 0  22450973.858 0
        46.000 0        34.000 0
 -12771922.42145  -1571510.39741  25029948.159 0  25029946.801 0  25029948.266 0
        35.000 0         6.000 0
-319069952.660 6          .000 0  21853507.048 0          .000 0          .000 0
        40.000 0          .000 0
  -6316221.325 6          .000 0  22773984.634 0          .000 0          .000 0
        36.000 0          .000 0
-180266611.731 6          .000 0  21162221.744 0          .000 0          .000 0
        40.000 0          .000 0
 15 01 01 00 00 42.0000000  0 13G12G14G25G02G29G31G10G24G06G20S36S20
                                S26
 -45957014.07348 -35329960.92347  20579448.482 0  20579447.807 0  20579446.967 0
        52.000 0        44.000 0
 -22030052.95846 -14072008.84842  24432532.318 0  24432533.910 0  24432533.021 0
        38.000 0        16.000 0
 -36771055.85548 -28447626.09847  20986236.692 0  20986235.471 0  20986237.962 0
        50.000 0        42.000 0
 -32789279.03048 -23117610.55046  21627169.318 0  21627167.862 0  21627165.674 0
        49.000 0        40.000 0
 -16266911.02247 -12527978.53445  22984710.802 0  22984710.118 0  22984710.528 0
        45.000 0        32.000 0
 -11619010.02347  -8853074.49644  23997083.704 0  23997083.655 0  23997082.376 0
        42.000 0        26.000 0
  -6916369.41246  -5143455.21542  24546854.426 0  24546851.485 0  24546853.146 0
        39.000 0        12.000 0
 -35051420.81447 -27014363.32044  23701879.673 0  23701878.676 0  23701881.363 0
        43.000 0        28.000 0
 -30051875.56247 -23358897.95745  22451037.734 0  22451036.923 0  22451039.170 0
        46.000 0        34.000 0
 -12772023.88745  -1571589.46341  25029929.013 0  25029927.430 0  25029928.983 0
        35.000 0         6.000 0
-319071433.712 6          .000 0  21853223.891 0          .000 0          .000 0
        40.000 0          .000 0
  -6317731.020 5          .000 0  22773696.632 0          .000 0          .000 0
        35.000 0          .000 0
-180268044.139 6          .000 0  21161948.414 0          .000 0          .000 0
        40.000 0          .000 0
 15 01 01 00 00 43.0000000  0 13G12G14G25G02G29G31G10G24G06G20S36S20
                                S26
 -45957386.44548 -35330251.08347  20579377.514 0  20579376.947 0  20579376.117 0
        52.000 0        44.000 0
 -22029341.85946 -14071454.74842  24432668.216 0  24432669.212 0  24432668.362 0
        38.000 0        16.000 0
 -36774151.18948 -28450038.04747  20985647.589 0  20985646.465 0  20985648.946 0
        50.000 0        42.000 0
 -32791710.06448 -23119504.86246  21626706.784 0  21626705.240 0  21626703.091 0
        49.000 0        40.000 0
 -16271577.00747 -12531614.36545  22983822.883 0  22983822.150 0  22983822.609 0
        45.000 0        32.000 0
 -11623343.07047  -8856450.89744  23996259.426 0  23996259.084 0  23996257.844 0
        42.000 0        26.000 0
  -6920510.56846  -5146682.08942  24546066.408 0  24546063.458 0  24546065.167 0
        40.000 0        12.000 0
 -35049283.53647 -27012697.90944  23702286.400 0  23702285.423 0  23702288.090 0
        43.000 0        28.000 0
 -30051531.75447 -23358630.05345  22451103.026 0  22451102.362 0  22451104.599 0
        46.000 0        34.000 0
 -12772124.77745  -1571668.08041  25029909.867 0  25029908.138 0  25029909.808 0
        35.000 0         6.000 0
-319072914.808 6          .000 0  21852943.450 0          .000 0          .000 0
        40.000 0          .000 0
  -6319240.598 5          .000 0  22773409.666 0          .000 0          .000 0
        35.000 0          .000 0
-180269476.556 6          .000 0  21161675.944 0          .000 0          .000 0
        40.000 0          .000 0
 15 01 01 00 00 44.0000000  0 13G12G14G25G02G29G31G10G24G06G20S36S20
                                S26
 -45957758.19648 -35330540.75947  20579306.761 0  20579306.205 0  20579305.384 0
        52.000 0        44.000 0
 -22028630.19746 -14070900.21042  24432804.251 0  24432804.622 0  24432803.792 0
        38.000 0        16.000 0
 -36777245.93448 -28452449.53647  20985058.661 0  20985057.547 0  20985060.029 0
        50.000 0        42.000 0
 -32794140.40848 -23121398.63646  21626244.367 0  21626242.775 0  21626240.625 0
        49.000 0        40.000 0
 -16276242.60447 -12535249.89345  22982935.022 0  22982934.280 0  22982934.768 0
        45.000 0        32.000 0
 -11627675.62647  -8859826.91544  23995434.953 0  23995434.602 0  23995433.380 0
        42.000 0        24.000 0
  -6924651.19646  -5149908.55042  24545278.703 0  24545275.558 0  24545277.238 0
        40.000 0        12.000 0
 -35047145.92247 -27011032.23644  23702693.225 0  23702692.238 0  23702694.895 0
        43.000 0        28.000 0
 -30051187.25247 -23358361.61045  22451168.670 0  22451167.947 0  22451170.174 0
        47.000 0        34.000 0
 -12772224.89946  -1571746.10241  25029891.043 0  25029889.060 0  25029890.779 0
        36.000 0         6.000 0
-319074395.770 6          .000 0  21852662.921 0          .000 0          .000 0
        40.000 0          .000 0
  -6320749.854 6          .000 0  22773122.728 0          .000 0          .000 0
        36.000 0          .000 0
-180270908.593 6          .000 0  21161402.907 0          .000 0          .000 0
        40.000 0          .000 0
 15 01 01 00 00 45.0000000  0 13G12G14G25G02G29G31G10G24G06G20S36S20
                                S26
 -45958129.34448 -35330829.96647  20579236.175 0  20579235.579 0  20579234.749 0
        52.000 0        44.000 0
 -22027918.03346 -14070345.28142  24432940.237 0  24432940.081 0  24432939.309 0
        39.000 0        16.000 0
 -36780340.12848 -28454860.59747  20984469.851 0  20984468.747 0  20984471.238 0
        50.000 0        42.000 0
 -32796570.09048 -23123291.89546  21625782.135 0  21625780.436 0  21625778.257 0
        49.000 0        40.000 0
 -16280907.86647 -12538885.16045  22982047.396 0  22982046.478 0  22982046.986 0
        45.000 0        32.000 0
 -11632007.70647  -8863202.56344  23994610.753 0  23994610.206 0  23994609.005 0
        42.000 0        26.000 0
  -6928791.34146  -5153134.63642  24544490.910 0  24544487.736 0  24544489.386 0
        40.000 0        12.000 0
 -35045008.00047 -27009366.32444  23703099.991 0  23703099.132 0  23703101.730 0
        43.000 0        28.000 0
 -30050842.06647 -23358092.63445  22451234.431 0  22451233.678 0  22451235.876 0
        46.000 0        34.000 0
 -12772324.39046  -1571823.63041  25029872.756 0  25029870.129 0  25029871.838 0
        36.000 0         6.000 0
-319075876.696 6          .000 0  21852381.151 0          .000 0          .000 0
        40.000 0          .000 0
  -6322258.890 6          .000 0  22772836.455 0          .000 0          .000 0
        36.000 0          .000 0
-180272340.598 6          .000 0  21161129.460 0          .000 0          .000 0
        40.000 0          .000 0
 15 01 01 00 00 46.0000000  0 14G12G14G25G02G29G31G03G10G24G06G20S36
                                S20S26
 -45958500.04148 -35331118.82147  20579165.667 0  20579165.041 0  20579164.192 0
        52.000 0        44.000 0
 -22027205.47546 -14069790.04642  24433076.096 0  24433075.627 0  24433074.904 0
        39.000 0        16.000 0
 -36783433.90448 -28457271.33147  20983881.109 0  20983880.034 0  20983882.525 0
        50.000 0        42.000 0
 -32798999.24548 -23125184.74346  21625319.933 0  21625318.195 0  21625315.997 0
        49.000 0        40.000 0
 -16285572.92647 -12542520.27145  22981159.624 0  22981158.725 0  22981159.243 0
        45.000 0        32.000 0
 -11636339.44647  -8866577.94544  23993786.397 0  23993785.870 0  23993784.727 0
        42.000 0        26.000 0
 -12746196.62645     27030.71040  25788086.585 0  25788086.155 0  25788089.310 0
        32.000 0         4.000 0
  -6932931.13646  -5156360.44842  24543703.029 0  24543699.972 0  24543701.545 0
        39.000 0        12.000 0
 -35042869.91247 -27007700.28344  23703506.914 0  23703506.074 0  23703508.604 0
        43.000 0        28.000 0
 -30050496.35847 -23357823.25145  22451300.289 0  22451299.488 0  22451301.686 0
        46.000 0        34.000 0
 -12772423.35046  -1571900.74241  25029853.737 0  25029851.305 0  25029853.014 0
        36.000 0         8.000 0
-319077357.614 6          .000 0  21852099.040 0          .000 0          .000 0
        40.000 0          .000 0
  -6323768.030 5          .000 0  22772549.440 0          .000 0          .000 0
        35.000 0          .000 0
-180273772.782 6          .000 0  21160856.316 0          .000 0          .000 0
        40.000 0          .000 0
 15 01 01 00 00 47.0000000  0 14G12G14G25G02G29G31G03G10G24G06G20S36
                                S20S26
 -45958870.22848 -35331407.27947  20579095.266 0  20579094.601 0  20579093.752 0
        52.000 0        44.000 0
 -22026492.50546 -14069234.48842  24433212.101 0  24433211.320 0  24433210.587 0
        39.000 0        16.000 0
 -36786527.21248 -28459681.70147  20983292.601 0  20983291.390 0  20983293.890 0
        50.000 0        42.000 0
 -32801427.82748 -23127077.14546  21624857.839 0  21624856.061 0  21624853.844 0
        49.000 0        40.000 0
 -16290237.73747 -12546155.18745  22980271.920 0  22980271.070 0  22980271.548 0
        45.000 0        30.000 0
 -11640670.81447  -8869953.03744  23992962.374 0  23992961.592 0  23992960.498 0
        42.000 0        26.000 0
 -12745614.40045     27484.39240  25788197.593 0  25788196.949 0  25788200.182 0
        32.000 0         4.000 0
  -6937070.53846  -5159585.95342  24542915.266 0  24542912.267 0  24542913.791 0
        39.000 0        12.000 0
 -35040731.61647 -27006034.07844  23703913.651 0  23703913.035 0  23703915.487 0
        43.000 0        28.000 0
 -30050150.06547 -23357553.41145  22451366.167 0  22451365.405 0  22451367.603 0
        46.000 0        34.000 0
 -12772521.73946  -1571977.40941  25029835.148 0  25029832.589 0  25029834.308 0
        36.000 0         8.000 0
-319078838.556 6          .000 0  21851816.586 0          .000 0          .000 0
        40.000 0          .000 0
  -6325277.146 6          .000 0  22772260.793 0          .000 0          .000 0
        36.000 0          .000 0
-180275204.902 6          .000 0  21160584.070 0          .000 0          .000 0
        40.000 0          .000 0
 15 01 01 00 00 48.0000000  0 14G12G14G25G02G29G31G03G10G24G06G20S36
                                S20S26
 -45959240.03248 -35331695.43747  20579024.953 0  20579024.230 0  20579023.370 0
        52.000 0        44.000 0
 -22025779.21446 -14068678.68042  24433348.068 0  24433347.072 0  24433346.339 0
        39.000 0        16.000 0
 -36789620.17448 -28462091.80247  20982704.084 0  20982702.853 0  20982705.324 0
        50.000 0        42.000 0
 -32803855.95848 -23128969.19446  21624395.715 0  21624393.996 0  21624391.778 0
        49.000 0        40.000 0
 -16294902.42747 -12549790.00945  22979384.274 0  22979383.434 0  22979383.883 0
        45.000 0        32.000 0
 -11645001.92947  -8873327.93344  23992138.223 0  23992137.412 0  23992136.328 0
        42.000 0        26.000 0
 -12745031.85945     27938.31941  25788308.494 0  25788307.556 0  25788311.044 0
        32.000 0         6.000 0
  -6941209.64846  -5162811.23342  24542127.502 0  24542124.533 0  24542126.145 0
        39.000 0        12.000 0
 -35038593.22147 -27004367.79844  23704320.280 0  23704320.007 0  23704322.400 0
        43.000 0        28.000 0
 -30049803.30747 -23357283.21045  22451432.172 0  22451431.371 0  22451433.579 0
        46.000 0        34.000 0
 -12772619.57546  -1572053.64241  25029817.076 0  25029813.980 0  25029815.660 0
        36.000 0         6.000 0
-319080319.628 6          .000 0  21851534.181 0          .000 0          .000 0
        40.000 0          .000 0
  -6326786.503 6          .000 0  22771975.214 0          .000 0          .000 0
        36.000 0          .000 0
-180276637.074 6          .000 0  21160313.095 0          .000 0          .000 0
        40.000 0          .000 0
 15 01 01 00 00 49.0000000  0 14G12G14G25G02G29G31G03G10G24G06G20S36
                                S20S26
 -45959609.40848 -35331983.26347  20578954.659 0  20578953.956 0  20578953.067 0
        52.000 0        44.000 0
 -22025065.59346 -14068122.61342  24433484.171 0  24433482.872 0  24433482.169 0
        39.000 0        16.000 0
 -36792712.75448 -28464501.60447  20982115.664 0  20982114.375 0  20982116.807 0
        50.000 0        42.000 0
 -32806283.58948 -23130860.85446  21623933.620 0  21623932.038 0  21623929.830 0
        49.000 0        40.000 0
 -16299566.93847 -12553424.69245  22978496.687 0  22978495.828 0  22978496.257 0
        45.000 0        30.000 0
 -11649332.72947  -8876702.58444  23991314.189 0  23991313.281 0  23991312.206 0
        42.000 0        26.000 0
 -12744448.93845     28392.54341  25788419.678 0  25788418.232 0  25788421.974 0
        33.000 0         8.000 0
  -6945348.41646  -5166036.24642  24541339.827 0  24541336.896 0  24541338.567 0
        40.000 0        12.000 0
 -35036454.70047 -27002701.41844  23704727.037 0  23704726.988 0  23704729.362 0
        43.000 0        28.000 0
 -30049456.04147 -23357012.61245  22451498.197 0  22451497.435 0  22451499.672 0
        47.000 0        34.000 0
 -12772716.95246  -1572129.52241  25029798.712 0  25029795.469 0  25029797.081 0
        36.000 0         8.000 0
-319081800.807 6          .000 0  21851251.415 0          .000 0          .000 0
        40.000 0          .000 0
  -6328296.022 5          .000 0  22771687.935 0          .000 0          .000 0
        35.000 0          .000 0
-180278069.516 6          .000 0  21160040.957 0          .000 0          .000 0
        40.000 0          .000 0
 15 01 01 00 00 50.0000000  0 14G12G14G25G02G29G31G03G10G24G06G20S36
                                S20S26
 -45959978.25548 -35332270.67747  20578884.434 0  20578883.780 0  20578882.861 0
        52.000 0        44.000 0
 -22024351.50946 -14067566.18642  24433620.108 0  24433618.760 0  24433618.086 0
        39.000 0        16.000 0
 -36795804.84848 -28466911.02947  20981527.274 0  20981525.984 0  20981528.397 0
        50.000 0        42.000 0
 -32808710.63748 -23132752.06146  21623471.780 0  21623470.188 0  21623467.970 0
        49.000 0        40.000 0
 -16304231.18447 -12557059.16845  22977608.993 0  22977608.251 0  22977608.671 0
        45.000 0        30.000 0
 -11653663.12847  -8880076.92044  23990490.185 0  23990489.237 0  23990488.182 0
        43.000 0        26.000 0
 -12743865.53145     28847.14241  25788531.526 0  25788528.977 0  25788533.001 0
        33.000 0         8.000 0
  -6949486.78246  -5169260.94442  24540552.180 0  24540549.436 0  24540551.067 0
        40.000 0        12.000 0
 -35034315.94447 -27001034.85544  23705134.096 0  23705133.989 0  23705136.392 0
        43.000 0        28.000 0
 -30049108.16847 -23356741.54145  22451564.398 0  22451563.616 0  22451565.902 0
        46.000 0        34.000 0
 -12772813.72646  -1572204.93341  25029780.621 0  25029777.124 0  25029778.657 0
        36.000 0         6.000 0
-319083281.875 6          .000 0  21850969.069 0          .000 0          .000 0
        40.000 0          .000 0
  -6329805.529 6          .000 0  22771401.857 0          .000 0          .000 0
        36.000 0          .000 0
-180279501.831 6          .000 0  21159769.248 0          .000 0          .000 0
        40.000 0          .000 0
 15 01 01 00 00 51.0000000  0 14G12G14G25G02G29G31G03G10G24G06G20S36
                                S20S26
 -45960346.56448 -35332557.67147  20578814.375 0  20578813.691 0  20578812.763 0
        52.000 0        44.000 0
 -22023636.97446 -14067009.40842  24433756.329 0  24433754.737 0  24433754.072 0
        39.000 0        16.000 0
 -36798896.43948 -28469320.06147  20980938.991 0  20980937.682 0  20980940.085 0
        50.000 0        42.000 0
 -32811137.06748 -23134642.78546  21623009.978 0  21623008.484 0  21623006.227 0
        49.000 0        40.000 0
 -16308895.13947 -12560693.41845  22976721.259 0  22976720.703 0  22976721.123 0
        45.000 0        30.000 0
 -11657993.12447  -8883450.94344  23989666.346 0  23989665.262 0  23989664.246 0
        43.000 0        26.000 0
 -12743281.59245     29302.15641  25788642.593 0  25788639.878 0  25788644.137 0
        33.000 0         8.000 0
  -6953624.73146  -5172485.32242  24539764.964 0  24539762.073 0  24539763.655 0
        39.000 0        12.000 0
 -35032176.94847 -26999368.10644  23705541.029 0  23705541.038 0  23705543.471 0
        43.000 0        28.000 0
 -30048759.68947 -23356469.99845  22451630.686 0  22451629.924 0  22451632.249 0
        47.000 0        34.000 0
 -12772909.88746  -1572279.86541  25029762.285 0  25029758.925 0  25029760.381 0
        36.000 0         6.000 0
-319084762.897 6          .000 0  21850688.931 0          .000 0          .000 0
        40.000 0          .000 0
  -6331314.940 6          .000 0  22771114.207 0          .000 0          .000 0
        36.000 0          .000 0
-180280934.180 6          .000 0  21159495.469 0          .000 0          .000 0
        40.000 0          .000 0
 15 01 01 00 00 52.0000000  0 14G12G14G25G02G29G31G03G10G24G06G20S36
                                S20S26
 -45960714.41748 -35332844.31047  20578744.365 0  20578743.701 0  20578742.763 0
        52.000 0        44.000 0
 -22022922.05446 -14066452.32742  24433892.188 0  24433890.791 0  24433890.146 0
        39.000 0        16.000 0
 -36801987.63248 -28471728.78247  20980350.718 0  20980349.458 0  20980351.841 0
        50.000 0        42.000 0
 -32813562.99148 -23136533.11546  21622548.294 0  21622546.848 0  21622544.572 0
        49.000 0        40.000 0
 -16313558.91147 -12564327.52445  22975833.692 0  22975833.184 0  22975833.604 0
        45.000 0        32.000 0
 -11662322.79647  -8886824.71444  23988842.596 0  23988841.346 0  23988840.349 0
        43.000 0        26.000 0
 -12742697.16545     29757.55341  25788754.295 0  25788751.071 0  25788755.379 0
        34.000 0         6.000 0
  -6957762.30546  -5175709.40842  24538977.533 0  24538974.807 0  24538976.282 0
        39.000 0        12.000 0
 -35030037.78947 -26997701.22944  23705948.166 0  23705948.137 0  23705950.589 0
        43.000 0        28.000 0
 -30048410.66847 -23356198.03345  22451697.111 0  22451696.320 0  22451698.684 0
        46.000 0        34.000 0
 -12773005.51846  -1572354.38441  25029743.892 0  25029740.805 0  25029742.153 0
        36.000 0         6.000 0
-319086244.009 6          .000 0  21850407.503 0          .000 0          .000 0
        40.000 0          .000 0
  -6332824.521 6          .000 0  22770827.152 0          .000 0          .000 0
        36.000 0          .000 0
-180282366.534 6          .000 0  21159222.520 0          .000 0          .000 0
        40.000 0          .000 0
 15 01 01 00 00 53.0000000  0 14G12G14G25G02G29G31G03G10G24G06G20S36
                                S20S26
 -45961081.78948 -35333130.57547  20578674.433 0  20578673.808 0  20578672.850 0
        52.000 0        44.000 0
 -22022206.73946 -14065894.93942  24434028.086 0  24434026.914 0  24434026.308 0
        39.000 0        16.000 0
 -36805078.37248 -28474137.15147  20979762.542 0  20979761.321 0  20979763.695 0
        50.000 0        42.000 0
 -32815988.36448 -23138423.01646  21622086.698 0  21622085.350 0  21622083.034 0
        49.000 0        40.000 0
 -16318222.45147 -12567961.45045  22974946.047 0  22974945.685 0  22974946.164 0
        45.000 0        32.000 0
 -11666652.10447  -8890198.20144  23988018.729 0  23988017.488 0  23988016.501 0
        43.000 0        26.000 0
 -12742112.29445     30213.29941  25788865.899 0  25788862.353 0  25788866.680 0
        33.000 0         6.000 0
  -6961899.50246  -5178933.19542  24538190.140 0  24538187.581 0  24538188.997 0
        39.000 0        12.000 0
 -35027898.45747 -26996034.21844  23706355.216 0  23706355.226 0  23706357.707 0
        43.000 0        28.000 0
 -30048061.10747 -23355925.64645  22451763.732 0  22451762.823 0  22451765.217 0
        46.000 0        34.000 0
 -12773100.54246  -1572428.43141  25029725.312 0  25029722.792 0  25029724.003 0
        36.000 0         8.000 0
-319087725.222 6          .000 0  21850125.684 0          .000 0          .000 0
        40.000 0          .000 0
  -6334334.089 6          .000 0  22770539.023 0          .000 0          .000 0
        36.000 0          .000 0
-180283798.764 6          .000 0  21158950.177 0          .000 0          .000 0
        40.000 0          .000 0
 15 01 01 00 00 54.0000000  0 14G12G14G25G02G29G31G03G10G24G06G20S36
                                S20S26
 -45961448.57748 -35333416.38347  20578604.598 0  20578604.022 0  20578603.055 0
        52.000 0        44.000 0
 -22021490.94746 -14065337.18142  24434164.111 0  24434163.134 0  24434162.587 0
        39.000 0        16.000 0
 -36808168.57748 -28476545.10447  20979174.465 0  20979173.302 0  20979175.647 0
        50.000 0        42.000 0
 -32818413.08648 -23140312.40946  21621625.316 0  21621623.949 0  21621621.624 0
        49.000 0        40.000 0
 -16322885.65847 -12571595.11645  22974058.723 0  22974058.255 0  22974058.792 0
        45.000 0        32.000 0
 -11670980.96547  -8893571.34044  23987195.066 0  23987193.718 0  23987192.780 0
        43.000 0        26.000 0
 -12741526.90445     30669.44741  25788977.728 0  25788973.713 0  25788978.040 0
        32.000 0         6.000 0
  -6966036.23446  -5182156.62442  24537402.797 0  24537400.345 0  24537401.820 0
        39.000 0        12.000 0
 -35025758.84447 -26994366.98844  23706762.363 0  23706762.353 0  23706764.864 0
        42.000 0        28.000 0
 -30047710.87847 -23355652.73945  22451830.411 0  22451829.473 0  22451831.857 0
        46.000 0        34.000 0
 -12773194.95846  -1572502.00341  25029706.586 0  25029704.837 0  25029706.000 0
        36.000 0         8.000 0
-319089206.333 6          .000 0  21849843.602 0          .000 0          .000 0
        40.000 0          .000 0
  -6335843.377 5          .000 0  22770252.311 0          .000 0          .000 0
        35.000 0          .000 0
-180285230.975 6          .000 0  21158677.853 0          .000 0          .000 0
        40.000 0          .000 0
 15 01 01 00 00 55.0000000  0 14G12G14G25G02G29G31G03G10G24G06G20S36
                                S20S26
 -45961814.77048 -35333701.72847  20578534.872 0  20578534.344 0  20578533.367 0
        52.000 0        44.000 0
 -22020774.61046 -14064778.99542  24434300.175 0  24434299.452 0  24434298.944 0
        39.000 0        16.000 0
 -36811258.22748 -28478952.62347  20978586.455 0  20978585.381 0  20978587.696 0
        50.000 0        42.000 0
 -32820837.14948 -23142201.28846  21621163.984 0  21621162.684 0  21621160.359 0
        49.000 0        40.000 0
 -16327548.52247 -12575228.51445  22973171.498 0  22973170.892 0  22973171.517 0
        45.000 0        32.000 0
 -11675309.34647  -8896944.10444  23986371.423 0  23986370.026 0  23986369.137 0
        43.000 0        26.000 0
 -12740940.86045     31126.10340  25789088.804 0  25789085.258 0  25789089.469 0
        32.000 0         4.000 0
  -6970172.47146  -5185379.66642  24536615.375 0  24536613.197 0  24536614.740 0
        39.000 0        12.000 0
 -35023618.90247 -26992699.50044  23707169.520 0  23707169.530 0  23707172.050 0
        42.000 0        28.000 0
 -30047359.97747 -23355379.31045  22451897.237 0  22451896.250 0  22451898.624 0
        46.000 0        34.000 0
 -12773288.67746  -1572575.03141  25029688.075 0  25029687.010 0  25029688.153 0
        36.000 0         8.000 0
-319090687.400 6          .000 0  21849563.327 0          .000 0          .000 0
        40.000 0          .000 0
  -6337352.700 6          .000 0  22769966.243 0          .000 0          .000 0
        36.000 0          .000 0
-180286663.151 6          .000 0  21158404.572 0          .000 0          .000 0
        40.000 0          .000 0
 15 01 01 00 00 56.0000000  0 14G12G14G25G02G29G31G03G10G24G06G20S36
                                S20S26
 -45962180.42448 -35333986.65347  20578465.291 0  20578464.773 0  20578463.787 0
        52.000 0        44.000 0
 -22020057.82446 -14064220.46242  24434436.347 0  24434435.849 0  24434435.399 0
        39.000 0        16.000 0
 -36814347.39948 -28481359.76947  20977998.485 0  20977997.547 0  20977999.862 0
        50.000 0        42.000 0
 -32823260.61048 -23144089.70046  21620702.797 0  21620701.528 0  21620699.193 0
        49.000 0        40.000 0
 -16332211.10647 -12578861.69545  22972284.321 0  22972283.589 0  22972284.302 0
        45.000 0        32.000 0
 -11679637.33447  -8900316.56244  23985547.898 0  23985546.462 0  23985545.573 0
        43.000 0        26.000 0
 -12740354.40445     31583.08340  25789199.383 0  25789197.058 0  25789200.711 0
        32.000 0         4.000 0
  -6974308.28046  -5188602.37542  24535828.022 0  24535826.156 0  24535827.797 0
        39.000 0        12.000 0
 -35021478.72447 -26991031.82944  23707576.667 0  23707576.745 0  23707579.275 0
        42.000 0        28.000 0
 -30047008.47547 -23355105.41145  22451964.101 0  22451963.125 0  22451965.498 0
        46.000 0        34.000 0
 -12773381.77146  -1572647.57441  25029669.935 0  25029669.310 0  25029670.433 0
        36.000 0         8.000 0
-319092168.383 6          .000 0  21849281.674 0          .000 0          .000 0
        40.000 0          .000 0
  -6338862.064 5          .000 0  22769678.114 0          .000 0          .000 0
        35.000 0          .000 0
-180288095.416 6          .000 0  21158133.157 0          .000 0          .000 0
        40.000 0          .000 0
 15 01 01 00 00 57.0000000  0 14G12G14G25G02G29G31G03G10G24G06G20S36
                                S20S26
 -45962545.65448 -35334271.24947  20578395.799 0  20578395.291 0  20578394.304 0
        52.000 0        44.000 0
 -22019340.69646 -14063661.66442  24434572.675 0  24434572.264 0  24434571.844 0
        39.000 0        16.000 0
 -36817436.17448 -28483766.60747  20977410.671 0  20977409.772 0  20977412.107 0
        50.000 0        42.000 0
 -32825683.58648 -23145977.73246  21620241.748 0  21620240.449 0  21620238.114 0
        49.000 0        40.000 0
 -16336873.52047 -12582494.74345  22971397.076 0  22971396.344 0  22971397.067 0
        45.000 0        32.000 0
 -11683965.01347  -8903688.78044  23984724.225 0  23984722.955 0  23984722.076 0
        43.000 0        26.000 0
 -12739767.46845     32040.43840  25789310.547 0  25789308.887 0  25789312.120 0
        32.000 0         4.000 0
  -6978443.76646  -5191824.83542  24535041.137 0  24535039.184 0  24535040.913 0
        39.000 0        12.000 0
 -35019338.40847 -26989364.05144  23707983.981 0  23707984.000 0  23707986.520 0
        42.000 0        28.000 0
 -30046656.46047 -23354831.11345  22452031.015 0  22452030.107 0  22452032.471 0
        46.000 0        34.000 0
 -12773474.37646  -1572719.73341  25029652.313 0  25029651.717 0  25029652.791 0
        36.000 0         8.000 0
-319093649.345 6          .000 0  21848998.791 0          .000 0          .000 0
        40.000 0          .000 0
  -6340371.540 5          .000 0  22769389.672 0          .000 0          .000 0
        35.000 0          .000 0
-180289527.616 6          .000 0  21157860.931 0          .000 0          .000 0
        40.000 0          .000 0
 15 01 01 00 00 58.0000000  0 14G12G14G25G02G29G31G03G10G24G06G20S36
                                S20S26
 -45962910.34548 -35334555.42347  20578326.453 0  20578325.906 0  20578324.909 0
        52.000 0        44.000 0
 -22018623.10546 -14063102.50442  24434709.276 0  24434708.778 0  24434708.387 0
        39.000 0        16.000 0
 -36820524.45548 -28486173.06047  20976822.984 0  20976822.085 0  20976824.420 0
        50.000 0        42.000 0
 -32828105.95548 -23147865.29346  21619780.826 0  21619779.497 0  21619777.143 0
        49.000 0        40.000 0
 -16341535.63747 -12586127.55945  22970509.822 0  22970509.157 0  22970509.890 0
        45.000 0        32.000 0
 -11688292.28747  -8907060.68144  23983900.817 0  23983899.498 0  23983898.609 0
        43.000 0        24.000 0
 -12739180.01345     32498.19741  25789422.112 0  25789420.637 0  25789423.988 0
        32.000 0         6.000 0
  -6982578.81146  -5195046.94842  24534254.175 0  24534252.309 0  24534254.097 0
        39.000 0        12.000 0
 -35017197.84247 -26987696.07944  23708391.265 0  23708391.314 0  23708393.804 0
        42.000 0        28.000 0
 -30046303.83847 -23354556.34245  22452098.114 0  22452097.196 0  22452099.579 0
        46.000 0        34.000 0
 -12773566.35746  -1572791.40741  25029634.944 0  25029634.241 0  25029635.296 0
        36.000 0         8.000 0
-319095130.254 6          .000 0  21848716.826 0          .000 0          .000 0
        40.000 0          .000 0
  -6341880.954 5          .000 0  22769102.120 0          .000 0          .000 0
        35.000 0          .000 0
-180290959.718 6          .000 0  21157588.188 0          .000 0          .000 0
        40.000 0          .000 0
 15 01 01 00 00 59.0000000  0 14G12G14G25G02G29G31G03G10G24G06G20S36
                                S20S26
 -45963274.53348 -35334839.20647  20578257.175 0  20578256.618 0  20578255.603 0
        52.000 0        44.000 0
 -22017905.07946 -14062543.00442  24434845.575 0  24434845.448 0  24434845.028 0
        39.000 0        16.000 0
 -36823612.27548 -28488579.15347  20976235.395 0  20976234.486 0  20976236.821 0
        50.000 0        42.000 0
 -32830527.75048 -23149752.40546  21619320.060 0  21619318.673 0  21619316.289 0
        49.000 0        40.000 0
 -16346197.51047 -12589760.18645  22969622.762 0  22969622.049 0  22969622.762 0
        45.000 0        32.000 0
 -11692619.20347  -8910432.30344  23983077.311 0  23983076.129 0  23983075.220 0
        43.000 0        24.000 0
 -12738592.10245     32956.31640  25789533.277 0  25789532.495 0  25789535.924 0
        32.000 0         4.000 0
  -6986713.45946  -5198268.75242  24533467.388 0  24533465.503 0  24533467.339 0
        39.000 0        12.000 0
 -35015057.04947 -26986027.93044  23708798.519 0  23708798.656 0  23708801.147 0
        42.000 0        28.000 0
 -30045950.64147 -23354281.12345  22452165.419 0  22452164.383 0  22452166.767 0
        46.000 0        34.000 0
 -12773657.78746  -1572862.65041  25029617.938 0  25029616.883 0  25029617.938 0
        36.000 0         8.000 0
-319096611.136 6          .000 0  21848435.222 0          .000 0          .000 0
        40.000 0          .000 0
  -6343390.348 5          .000 0  22768813.424 0          .000 0          .000 0
        35.000 0          .000 0
-180292391.908 6          .000 0  21157315.248 0          .000 0          .000 0
        40.000 0          .000 0
 15 01 01 00 01  0.0000000  0 14G12G14G25G02G29G31G03G10G24G06G20S36
                                S20S26
 -45963638.19848 -35335122.58347  20578187.956 0  20578187.429 0  20578186.384 0
        52.000 0        44.000 0
 -22017186.63046 -14061983.17342  24434982.518 0  24434982.186 0  24434981.746 0
        38.000 0        16.000 0
 -36826699.62548 -28490984.88047  20975647.932 0  20975646.985 0  20975649.320 0
        50.000 0        42.000 0
 -32832948.96748 -23151639.06746  21618859.333 0  21618857.946 0  21618855.552 0
        49.000 0        40.000 0
 -16350859.11847 -12593392.60645  22968735.752 0  22968734.990 0  22968735.703 0
        45.000 0        32.000 0
 -11696945.70747  -8913803.60544  23982254.000 0  23982252.818 0  23982251.929 0
        43.000 0        24.000 0
 -12738003.76045     33414.76341  25789645.457 0  25789644.529 0  25789647.801 0
        32.000 0         6.000 0
  -6990847.70146  -5201490.24042  24532680.758 0  24532678.794 0  24532680.650 0
        39.000 0        12.000 0
 -35012916.06747 -26984359.63244  23709205.833 0  23709206.048 0  23709208.548 0
        42.000 0        28.000 0
 -30045596.85347 -23354005.44345  22452232.752 0  22452231.687 0  22452234.042 0
        47.000 0        34.000 0
 -12773748.58446  -1572933.40341  25029600.560 0  25029599.622 0  25029600.696 0
        36.000 0         6.000 0
-319098091.980 6          .000 0  21848152.925 0          .000 0          .000 0
        40.000 0          .000 0
  -6344899.538 6          .000 0  22768525.735 0          .000 0          .000 0
        36.000 0          .000 0
-180293824.065 6          .000 0  21157042.417 0          .000 0          .000 0
        40.000 0          .000 0
 15 01 01 00 01  1.0000000  0 14G12G14G25G02G29G31G03G10G24G06G20S36
                                S20S26
 -45964001.37148 -35335405.57547  20578118.923 0  20578118.327 0  20578117.262 0
        52.000 0        44.000 0
 -22016467.78346 -14061423.03342  24435119.569 0  24435118.963 0  24435118.582 0
        39.000 0        16.000 0
 -36829786.51848 -28493390.25247  20975060.509 0  20975059.591 0  20975061.916 0
        50.000 0        42.000 0
 -32835369.61348 -23153525.28446  21618398.762 0  21618397.316 0  21618394.913 0
        49.000 0        40.000 0
 -16355520.48247 -12597024.83645  22967848.868 0  22967847.960 0  22967848.673 0
        45.000 0        30.000 0
 -11701271.83847  -8917174.61544  23981430.709 0  23981429.585 0  23981428.726 0
        43.000 0        24.000 0
 -12737414.85645     33873.64641  25789757.774 0  25789756.651 0  25789759.777 0
        32.000 0         6.000 0
  -6994981.54246  -5204711.41242  24531894.391 0  24531892.144 0  24531894.030 0
        39.000 0        12.000 0
 -35010774.88547 -26982691.18044  23709613.146 0  23709613.488 0  23709615.969 0
        42.000 0        28.000 0
 -30045242.49147 -23353729.31645  22452300.252 0  22452299.129 0  22452301.444 0
        47.000 0        34.000 0
 -12773838.80946  -1573003.71141  25029583.592 0  25029582.469 0  25029583.572 0
        36.000 0         8.000 0
-319099572.823 6          .000 0  21847871.409 0          .000 0          .000 0
        40.000 0          .000 0
  -6346408.856 6          .000 0  22768239.032 0          .000 0          .000 0
        36.000 0          .000 0
-180295256.075 6          .000 0  21156770.328 0          .000 0          .000 0
        40.000 0          .000 0
 15 01 01 00 01  2.0000000  0 14G12G14G25G02G29G31G03G10G24G06G20S36
                                S20S26
 -45964363.99348 -35335688.13747  20578049.968 0  20578049.333 0  20578048.258 0
        52.000 0        44.000 0
 -22015748.43446 -14060862.50342  24435256.629 0  24435255.838 0  24435255.506 0
        39.000 0        16.000 0
 -36832872.88348 -28495795.21147  20974473.272 0  20974472.265 0  20974474.610 0
        50.000 0        42.000 0
 -32837789.63748 -23155411.01646  21617938.191 0  21617936.804 0  21617934.391 0
        49.000 0        40.000 0
 -16360181.54447 -12600656.83145  22966961.789 0  22966960.968 0  22966961.682 0
        45.000 0        30.000 0
 -11705597.54547  -8920545.29344  23980607.554 0  23980606.421 0  23980605.581 0
        43.000 0        24.000 0
 -12736825.42445     34332.94341  25789869.593 0  25789868.870 0  25789871.811 0
        33.000 0         8.000 0
  -6999114.91746  -5207932.22042  24531108.064 0  24531105.514 0  24531107.497 0
        39.000 0        12.000 0
 -35008633.44347 -26981022.52544  23710020.616 0  23710020.987 0  23710023.449 0
        42.000 0        28.000 0
 -30044887.49747 -23353452.69845  22452367.898 0  22452366.697 0  22452368.953 0
        47.000 0        34.000 0
 -12773928.39446  -1573073.52141  25029566.868 0  25029565.364 0  25029566.536 0
        37.000 0         8.000 0
-319101053.656 6          .000 0  21847589.864 0          .000 0          .000 0
        39.000 0          .000 0
  -6347918.225 6          .000 0  22767950.561 0          .000 0          .000 0
        36.000 0          .000 0
-180296688.155 6          .000 0  21156497.711 0          .000 0          .000 0
        40.000 0          .000 0
 15 01 01 00 01  3.0000000  0 14G12G14G25G02G29G31G03G10G24G06G20S36
                                S20S26
 -45964726.14848 -35335970.33747  20577981.100 0  20577980.417 0  20577979.323 0
        52.000 0        44.000 0
 -22015028.71246 -14060301.68042  24435393.602 0  24435392.801 0  24435392.449 0
        39.000 0        16.000 0
 -36835958.84348 -28498199.85547  20973886.053 0  20973885.038 0  20973887.392 0
        50.000 0        42.000 0
 -32840209.14748 -23157296.34846  21617477.757 0  21617476.400 0  21617473.948 0
        49.000 0        40.000 0
 -16364842.39047 -12604288.65745  22966074.788 0  22966074.017 0  22966074.642 0
        45.000 0        30.000 0
 -11709922.91047  -8923915.70844  23979784.410 0  23979783.325 0  23979782.514 0
        43.000 0        24.000 0
 -12736235.60345     34792.54241  25789981.940 0  25789981.100 0  25789983.913 0
        33.000 0         6.000 0
  -7003247.94846  -5211152.76442  24530321.589 0  24530318.962 0  24530321.003 0
        39.000 0        12.000 0
 -35006491.82147 -26979353.72944  23710428.232 0  23710428.515 0  23710430.957 0
        42.000 0        28.000 0
 -30044531.97047 -23353175.66245  22452435.574 0  22452434.362 0  22452436.570 0
        47.000 0        34.000 0
 -12774017.46446  -1573142.92841  25029549.998 0  25029548.338 0  25029549.588 0
        37.000 0         8.000 0
-319102534.509 6          .000 0  21847307.977 0          .000 0          .000 0
        40.000 0          .000 0
  -6349427.547 5          .000 0  22767665.040 0          .000 0          .000 0
        35.000 0          .000 0
-180298120.163 6          .000 0  21156225.387 0          .000 0          .000 0
        40.000 0          .000 0
 15 01 01 00 01  4.0000000  0 14G12G14G25G02G29G31G03G10G24G06G20S36
                                S20S26
 -45965087.72748 -35336252.08847  20577912.350 0  20577911.608 0  20577910.504 0
        52.000 0        44.000 0
 -22014308.49746 -14059740.47542  24435530.565 0  24435529.881 0  24435529.500 0
        39.000 0        16.000 0
 -36839044.26248 -28500604.07847  20973298.962 0  20973297.888 0  20973300.262 0
        50.000 0        42.000 0
 -32842628.00648 -23159181.17346  21617017.411 0  21617016.122 0  21617013.641 0
        49.000 0        40.000 0
 -16369502.93047 -12607920.24445  22965187.846 0  22965187.104 0  22965187.651 0
        45.000 0        30.000 0
 -11714247.81947  -8927285.76644  23978961.519 0  23978960.337 0  23978959.487 0
        43.000 0        24.000 0
 -12735645.18145     35252.61041  25790094.569 0  25790093.251 0  25790096.093 0
        34.000 0         6.000 0
  -7007380.52546  -5214372.95242  24529535.076 0  24529532.595 0  24529534.568 0
        39.000 0        12.000 0
 -35004349.91747 -26977684.71544  23710835.985 0  23710836.082 0  23710838.515 0
        42.000 0        28.000 0
 -30044175.77947 -23352898.11145  22452503.288 0  22452502.155 0  22452504.324 0
        46.000 0        34.000 0
 -12774105.85746  -1573211.80641  25029533.412 0  25029531.438 0  25029532.757 0
        37.000 0         8.000 0
-319104015.265 6          .000 0  21847026.295 0          .000 0          .000 0
        40.000 0          .000 0
  -6350936.861 5          .000 0  22767378.894 0          .000 0          .000 0
        35.000 0          .000 0
-180299552.111 6          .000 0  21155953.337 0          .000 0          .000 0
        40.000 0          .000 0
 15 01 01 00 01  5.0000000  0 14G12G14G25G02G29G31G03G10G24G06G20S36
                                S20S26
 -45965448.86348 -35336533.49347  20577843.718 0  20577842.868 0  20577841.754 0
        52.000 0        44.000 0
 -22013587.89646 -14059178.96842  24435667.821 0  24435666.961 0  24435666.629 0
        39.000 0        16.000 0
 -36842129.27448 -28503007.98347  20972712.008 0  20972710.816 0  20972713.200 0
        50.000 0        42.000 0
 -32845046.33248 -23161065.58346  21616557.222 0  21616555.952 0  21616553.441 0
        49.000 0        40.000 0
 -16374163.24747 -12611551.66045  22964300.894 0  22964300.230 0  22964300.718 0
        45.000 0        30.000 0
 -11718572.39047  -8930655.56244  23978138.462 0  23978137.417 0  23978136.538 0
        42.000 0        24.000 0
 -12735054.38445     35712.96941  25790207.287 0  25790205.548 0  25790208.362 0
        34.000 0         6.000 0
  -7011512.72246  -5217592.84442  24528748.524 0  24528746.297 0  24528748.192 0
        39.000 0        12.000 0
 -35002207.85547 -26976015.57644  23711243.572 0  23711243.689 0  23711246.131 0
        42.000 0        28.000 0
 -30043819.06247 -23352620.14945  22452571.071 0  22452570.036 0  22452572.165 0
        46.000 0        34.000 0
 -12774193.68746  -1573280.24541  25029516.962 0  25029514.647 0  25029516.024 0
        37.000 0         8.000 0
-319105496.126 6          .000 0  21846743.832 0          .000 0          .000 0
        40.000 0          .000 0
  -6352446.356 5          .000 0  22767090.687 0          .000 0          .000 0
        35.000 0          .000 0
-180300984.241 6          .000 0  21155681.648 0          .000 0          .000 0
        40.000 0          .000 0
 15 01 01 00 01  6.0000000  0 14G12G14G25G02G29G31G03G10G24G06G20S36
                                S20S26
 -45965809.54548 -35336814.54547  20577775.085 0  20577774.235 0  20577773.112 0
        52.000 0        44.000 0
 -22012866.92546 -14058617.17342  24435805.106 0  24435804.110 0  24435803.836 0
        39.000 0        16.000 0
 -36845213.83548 -28505411.53747  20972125.024 0  20972123.842 0  20972126.226 0
        50.000 0        42.000 0
 -32847464.12848 -23162949.57946  21616097.139 0  21616095.860 0  21616093.339 0
        49.000 0        40.000 0
 -16378823.35247 -12615182.90845  22963413.913 0  22963413.415 0  22963413.835 0
        44.000 0        30.000 0
 -11722896.62547  -8934025.09644  23977315.620 0  23977314.506 0  23977313.666 0
        42.000 0        24.000 0
 -12734463.08445     36173.71841  25790319.946 0  25790318.207 0  25790320.825 0
        34.000 0         6.000 0
  -7015644.55346  -5220812.45142  24527962.323 0  24527960.028 0  24527961.894 0
        39.000 0        12.000 0
 -35000065.62447 -26974346.30544  23711651.237 0  23711651.315 0  23711653.796 0
        42.000 0        28.000 0
 -30043461.80247 -23352341.76345  22452639.059 0  22452638.034 0  22452640.144 0
        46.000 0        34.000 0
 -12774281.00546  -1573348.28641  25029500.971 0  25029498.089 0  25029499.388 0
        37.000 0         8.000 0
-319106976.971 6          .000 0  21846461.379 0          .000 0          .000 0
        40.000 0          .000 0
  -6353955.793 6          .000 0  22766802.969 0          .000 0          .000 0
        36.000 0          .000 0
-180302416.511 6          .000 0  21155410.350 0          .000 0          .000 0
        40.000 0          .000 0
 15 01 01 00 01  7.0000000  0 14G12G14G25G02G29G31G03G10G24G06G20S36
                                S20S26
 -45966169.74048 -35337095.21647  20577706.550 0  20577705.680 0  20577704.567 0
        52.000 0        44.000 0
 -22012145.53746 -14058055.05342  24435942.430 0  24435941.346 0  24435941.072 0
        39.000 0        16.000 0
 -36848297.96648 -28507814.75647  20971538.138 0  20971536.947 0  20971539.320 0
        50.000 0        42.000 0
 -32849881.37848 -23164833.15046  21615637.135 0  21615635.875 0  21615633.335 0
        49.000 0        40.000 0
 -16383483.23947 -12618813.98745  22962526.932 0  22962526.639 0  22962526.990 0
        44.000 0        30.000 0
 -11727220.53047  -8937394.37144  23976492.417 0  23976491.655 0  23976490.864 0
        42.000 0        24.000 0
 -12733871.39245     36634.77541  25790433.103 0  25790430.935 0  25790433.387 0
        35.000 0         6.000 0
  -7019776.00146  -5224031.75942  24527175.810 0  24527173.837 0  24527175.654 0
        39.000 0        12.000 0
 -34997923.21547 -26972676.89644  23712059.019 0  23712058.999 0  23712061.480 0
        42.000 0        28.000 0
 -30043103.97847 -23352062.93945  22452707.038 0  22452706.119 0  22452708.229 0
        46.000 0        34.000 0
 -12774367.76046  -1573415.88841  25029484.491 0  25029481.747 0  25029482.850 0
        36.000 0         6.000 0
-319108457.841 6          .000 0  21846178.642 0          .000 0          .000 0
        40.000 0          .000 0
  -6355465.135 6          .000 0  22766516.246 0          .000 0          .000 0
        36.000 0          .000 0
-180303848.709 6          .000 0  21155137.382 0          .000 0          .000 0
        40.000 0          .000 0
 15 01 01 00 01  8.0000000  0 14G12G14G25G02G29G31G03G10G24G06G20S36
                                S20S26
 -45966529.40248 -35337375.47247  20577638.132 0  20577637.243 0  20577636.119 0
        52.000 0        44.000 0
 -22011423.71146 -14057492.59042  24436079.940 0  24436078.670 0  24436078.387 0
        39.000 0        16.000 0
 -36851381.60548 -28510217.59247  20970951.360 0  20970950.149 0  20970952.512 0
        50.000 0        42.000 0
 -32852298.02348 -23166716.24946  21615177.268 0  21615175.998 0  21615173.458 0
        49.000 0        40.000 0
 -16388142.84247 -12622444.84445  22961640.234 0  22961639.941 0  22961640.214 0
        45.000 0        30.000 0
 -11731544.01747  -8940763.32244  23975669.419 0  23975668.920 0  23975668.149 0
        42.000 0        24.000 0
 -12733279.15845     37096.25241  25790546.212 0  25790543.740 0  25790546.163 0
        35.000 0         6.000 0
  -7023907.03546  -5227250.74442  24526389.580 0  24526387.734 0  24526389.502 0
        39.000 0        12.000 0
 -34995780.56247 -26971007.29744  23712466.918 0  23712466.733 0  23712469.194 0
        42.000 0        28.000 0
 -30042745.55147 -23351783.64545  22452775.084 0  22452774.293 0  22452776.432 0
        46.000 0        34.000 0
 -12774453.86246  -1573482.97941  25029468.022 0  25029465.414 0  25029466.381 0
        37.000 0         6.000 0
-319109938.735 6          .000 0  21845897.448 0          .000 0          .000 0
        40.000 0          .000 0
  -6356974.436 5          .000 0  22766231.165 0          .000 0          .000 0
        35.000 0          .000 0
-180305280.668 6          .000 0  21154864.667 0          .000 0          .000 0
        40.000 0          .000 0
 15 01 01 00 01  9.0000000  0 14G12G14G25G02G29G31G03G10G24G06G20S36
                                S20S26
 -45966888.56248 -35337655.33747  20577569.772 0  20577568.903 0  20577567.780 0
        52.000 0        44.000 0
 -22010701.46946 -14056929.80342  24436217.821 0  24436216.151 0  24436215.819 0
        39.000 0        16.000 0
 -36854464.78348 -28512620.06847  20970364.669 0  20970363.438 0  20970365.793 0
        50.000 0        42.000 0
 -32854714.09948 -23168598.90646  21614717.596 0  21614716.238 0  21614713.708 0
        49.000 0        40.000 0
 -16392802.18947 -12626075.50345  22960753.633 0  22960753.301 0  22960753.506 0
        45.000 0        30.000 0
 -11735867.11447  -8944131.97044  23974846.743 0  23974846.254 0  23974845.502 0
        42.000 0        24.000 0
 -12732686.43745     37558.10841  25790659.437 0  25790656.644 0  25790658.978 0
        35.000 0         6.000 0
  -7028037.67246  -5230469.42242  24525603.497 0  24525601.690 0  24525603.429 0
        39.000 0        12.000 0
 -34993637.72247 -26969337.55244  23712874.827 0  23712874.476 0  23712876.947 0
        42.000 0        28.000 0
 -30042386.55547 -23351503.90745  22452843.317 0  22452842.584 0  22452844.733 0
        46.000 0        34.000 0
 -12774539.39546  -1573549.63040  25029451.591 0  25029449.120 0  25029449.970 0
        37.000 0         4.000 0
-319111419.725 6          .000 0  21845616.128 0          .000 0          .000 0
        40.000 0          .000 0
  -6358483.834 5          .000 0  22765942.606 0          .000 0          .000 0
        35.000 0          .000 0
-180306712.838 6          .000 0  21154591.631 0          .000 0          .000 0
        40.000 0          .000 0
 15 01 01 00 01 10.0000000  0 14G12G14G25G02G29G31G03G10G24G06G20S36
                                S20S26
 -45967247.19448 -35337934.79147  20577501.462 0  20577500.661 0  20577499.537 0
        52.000 0        44.000 0
 -22009978.74746 -14056366.64642  24436355.390 0  24436353.739 0  24436353.348 0
        39.000 0        16.000 0
 -36857547.49048 -28515022.17847  20969778.106 0  20969776.826 0  20969779.161 0
        51.000 0        42.000 0
 -32857129.59048 -23170481.10746  21614257.953 0  21614256.595 0  21614254.075 0
        49.000 0        40.000 0
 -16397461.27647 -12629705.95845  22959867.228 0  22959866.720 0  22959866.857 0
        45.000 0        30.000 0
 -11740189.82647  -8947500.31644  23974024.077 0  23974023.618 0  23974022.914 0
        42.000 0        24.000 0
 -12732093.18945     38020.37241  25790772.263 0  25790769.606 0  25790771.628 0
        35.000 0         6.000 0
  -7032167.89746  -5233687.77942  24524817.492 0  24524815.704 0  24524817.404 0
        38.000 0        12.000 0
 -34991494.63947 -26967667.61844  23713282.873 0  23713282.258 0  23713284.788 0
        43.000 0        28.000 0
 -30042026.96047 -23351223.70245  22452911.578 0  22452911.012 0  22452913.141 0
        46.000 0        34.000 0
 -12774624.33446  -1573615.81840  25029435.435 0  25029433.012 0  25029433.715 0
        37.000 0         4.000 0
-319112900.631 6          .000 0  21845334.133 0          .000 0          .000 0
        40.000 0          .000 0
  -6359993.290 5          .000 0  22765654.643 0          .000 0          .000 0
        35.000 0          .000 0
-180308145.094 6          .000 0  21154318.799 0          .000 0          .000 0
        40.000 0          .000 0
 15 01 01 00 01 11.0000000  0 14G12G14G25G02G29G31G03G10G24G06G20S36
                                S20S26
 -45967605.30448 -35338213.83947  20577433.249 0  20577432.507 0  20577431.383 0
        52.000 0        44.000 0
 -22009255.63146 -14055803.18242  24436493.124 0  24436491.366 0  24436490.897 0
        39.000 0        16.000 0
 -36860629.70948 -28517423.90747  20969191.630 0  20969190.311 0  20969192.626 0
        50.000 0        42.000 0
 -32859544.49348 -23172362.84946  21613798.437 0  21613797.041 0  21613794.530 0
        49.000 0        40.000 0
 -16402120.09347 -12633336.20245  22958980.814 0  22958980.257 0  22958980.276 0
        45.000 0        30.000 0
 -11744512.13846  -8950868.35244  23973201.313 0  23973201.059 0  23973200.404 0
        41.000 0        24.000 0
 -12731499.47445     38483.00840  25790885.420 0  25790882.665 0  25790884.414 0
        35.000 0         4.000 0
  -7036297.70146  -5236905.81042  24524031.643 0  24524029.806 0  24524031.487 0
        38.000 0        12.000 0
 -34989351.35647 -26965997.52944  23713690.744 0  23713690.089 0  23713692.658 0
        43.000 0        28.000 0
 -30041666.77247 -23350943.03545  22452979.967 0  22452979.567 0  22452981.677 0
        46.000 0        34.000 0
 -12774708.66646  -1573681.53340  25029419.395 0  25029417.070 0  25029417.597 0
        37.000 0         2.000 0
-319114381.537 6          .000 0  21845052.706 0          .000 0          .000 0
        40.000 0          .000 0
  -6361502.619 5          .000 0  22765367.306 0          .000 0          .000 0
        35.000 0          .000 0
-180309577.050 6          .000 0  21154046.348 0          .000 0          .000 0
        40.000 0          .000 0
 15 01 01 00 01 12.0000000  0 14G12G14G25G02G29G31G03G10G24G06G20S36
                                S20S26
 -45967962.86748 -35338492.45947  20577365.114 0  20577364.450 0  20577363.346 0
        52.000 0        44.000 0
 -22008532.02246 -14055239.33242  24436630.829 0  24436629.081 0  24436628.544 0
        39.000 0        16.000 0
 -36863711.42448 -28519825.24347  20968605.222 0  20968603.884 0  20968606.170 0
        51.000 0        42.000 0
 -32861958.77648 -23174244.10846  21613339.010 0  21613337.623 0  21613335.122 0
        49.000 0        40.000 0
 -16406778.61447 -12636966.21845  22958094.467 0  22958093.823 0  22958093.754 0
        45.000 0        30.000 0
 -11748834.02146  -8954236.05244  23972378.549 0  23972378.608 0  23972377.992 0
        41.000 0        24.000 0
 -12730905.25645     38946.04140  25790999.036 0  25790995.891 0  25790997.542 0
        35.000 0         4.000 0
  -7040427.05646  -5240123.49042  24523245.667 0  24523243.938 0  24523245.696 0
        39.000 0        12.000 0
 -34987207.81047 -26964327.23344  23714098.594 0  23714097.959 0  23714100.567 0
        42.000 0        28.000 0
 -30041305.95147 -23350661.87645  22453048.444 0  22453048.248 0  22453050.339 0
        45.000 0        34.000 0
 -12774792.37846  -1573746.76440  25029403.336 0  25029401.177 0  25029401.665 0
        37.000 0         4.000 0
-319115862.455 6          .000 0  21844771.219 0          .000 0          .000 0
        40.000 0          .000 0
  -6363011.807 5          .000 0  22765080.984 0          .000 0          .000 0
        35.000 0          .000 0
-180311008.945 6          .000 0  21153773.604 0          .000 0          .000 0
        40.000 0          .000 0
 15 01 01 00 01 13.0000000  0 14G12G14G25G02G29G31G03G10G24G06G20S36
                                S20S26
 -45968319.99448 -35338770.74047  20577297.077 0  20577296.491 0  20577295.388 0
        52.000 0        44.000 0
 -22007808.08446 -14054675.22742  24436768.798 0  24436766.835 0  24436766.327 0
        39.000 0        16.000 0
 -36866792.74348 -28522226.27147  20968018.893 0  20968017.536 0  20968019.802 0
        51.000 0        42.000 0
 -32864372.56448 -23176124.98246  21612879.719 0  21612878.302 0  21612875.792 0
        49.000 0        40.000 0
 -16411436.95247 -12640596.09045  22957208.297 0  22957207.379 0  22957207.252 0
        45.000 0        30.000 0
 -11753155.60547  -8957603.52044  23971556.088 0  23971556.205 0  23971555.629 0
        42.000 0        24.000 0
 -12730310.57945     39409.42241  25791112.184 0  25791109.194 0  25791110.699 0
        35.000 0         6.000 0
  -7044556.08046  -5243340.91042  24522459.838 0  24522458.138 0  24522459.955 0
        39.000 0        12.000 0
 -34985064.12247 -26962656.82844  23714506.552 0  23714505.878 0  23714508.506 0
        42.000 0        28.000 0
 -30040944.64047 -23350380.33445  22453116.969 0  22453117.008 0  22453119.089 0
        45.000 0        34.000 0
 -12774875.57746  -1573811.59340  25029387.061 0  25029385.332 0  25029385.850 0
        37.000 0         4.000 0
-319117343.433 6          .000 0  21844488.805 0          .000 0          .000 0
        40.000 0          .000 0
  -6364521.105 6          .000 0  22764793.070 0          .000 0          .000 0
        36.000 0          .000 0
-180312440.980 6          .000 0  21153501.105 0          .000 0          .000 0
        40.000 0          .000 0
 15 01 01 00 01 14.0000000  0 14G12G14G25G02G29G31G03G10G24G06G20S36
                                S20S26
 -45968676.58048 -35339048.60047  20577229.197 0  20577228.630 0  20577227.536 0
        52.000 0        44.000 0
 -22007083.69246 -14054110.76642  24436906.875 0  24436904.687 0  24436904.218 0
        39.000 0        16.000 0
 -36869873.57348 -28524626.91847  20967432.652 0  20967431.284 0  20967433.521 0
        51.000 0        42.000 0
 -32866785.74448 -23178005.38246  21612420.496 0  21612419.099 0  21612416.579 0
        49.000 0        40.000 0
 -16416095.01847 -12644225.75145  22956322.146 0  22956320.993 0  22956320.817 0
        45.000 0        30.000 0
 -11757476.80446  -8960970.68744  23970733.862 0  23970733.862 0  23970733.354 0
        41.000 0        24.000 0
 -12729715.40945     39873.19040  25791225.087 0  25791222.557 0  25791223.670 0
        35.000 0         4.000 0
  -7048684.66646  -5246557.98742  24521674.086 0  24521672.455 0  24521674.243 0
        38.000 0        12.000 0
 -34982920.20147 -26960986.24144  23714914.452 0  23714913.836 0  23714916.454 0
        43.000 0        28.000 0
 -30040582.71447 -23350098.31445  22453185.680 0  22453185.875 0  22453187.927 0
        45.000 0        34.000 0
 -12774958.16046  -1573875.93941  25029371.442 0  25029369.635 0  25029370.133 0
        36.000 0         6.000 0
-319118824.433 6          .000 0  21844207.094 0          .000 0          .000 0
        40.000 0          .000 0
  -6366030.496 6          .000 0  22764507.178 0          .000 0          .000 0
        36.000 0          .000 0
-180313873.033 6          .000 0  21153228.732 0          .000 0          .000 0
        40.000 0          .000 0
 15 01 01 00 01 15.0000000  0 14G12G14G25G02G29G31G03G10G24G06G20S36
                                S20S26
 -45969032.69248 -35339326.08947  20577161.414 0  20577160.867 0  20577159.773 0
        52.000 0        44.000 0
 -22006358.87446 -14053545.97542  24437044.375 0  24437042.627 0  24437042.099 0
        39.000 0        16.000 0
 -36872953.96148 -28527027.22147  20966846.440 0  20966845.121 0  20966847.329 0
        51.000 0        42.000 0
 -32869198.37248 -23179885.35246  21611961.342 0  21611959.984 0  21611957.473 0
        49.000 0        40.000 0
 -16420752.84047 -12647855.22245  22955435.878 0  22955434.637 0  22955434.461 0
        45.000 0        30.000 0
 -11761797.60346  -8964337.54444  23969911.704 0  23969911.586 0  23969911.157 0
        41.000 0        24.000 0
 -12729119.81045     40337.29241  25791338.215 0  25791335.968 0  25791336.769 0
        34.000 0         6.000 0
  -7052812.86946  -5249774.76542  24520888.452 0  24520886.850 0  24520888.628 0
        39.000 0        12.000 0
 -34980776.07847 -26959315.49644  23715322.664 0  23715321.853 0  23715324.451 0
        42.000 0        28.000 0
 -30040220.22347 -23349815.85345  22453254.410 0  22453254.870 0  22453256.901 0
        45.000 0        34.000 0
 -12775040.19546  -1573939.85941  25029355.470 0  25029354.064 0  25029354.503 0
        36.000 0         6.000 0
-319120305.382 6          .000 0  21843925.050 0          .000 0          .000 0
        40.000 0          .000 0
  -6367539.831 5          .000 0  22764219.918 0          .000 0          .000 0
        35.000 0          .000 0
-180315305.164 6          .000 0  21152956.799 0          .000 0          .000 0
        40.000 0          .000 0
 15 01 01 00 01 16.0000000  0 14G12G14G25G02G29G31G03G10G24G06G20S36
                                S20S26
 -45969388.28348 -35339603.17347  20577093.777 0  20577093.191 0  20577092.107 0
        52.000 0        44.000 0
 -22005633.61046 -14052980.83342  24437182.129 0  24437180.674 0  24437180.088 0
        39.000 0        16.000 0
 -36876033.86248 -28529427.14447  20966260.355 0  20966259.036 0  20966261.234 0
        50.000 0        42.000 0
 -32871610.41348 -23181764.86446  21611502.246 0  21611500.986 0  21611498.485 0
        49.000 0        40.000 0
 -16425410.38847 -12651484.47945  22954549.746 0  22954548.330 0  22954548.144 0
        46.000 0        30.000 0
 -11766118.00346  -8967704.09044  23969089.770 0  23969089.380 0  23969089.018 0
        41.000 0        24.000 0
 -12728523.68245     40801.80640  25791451.851 0  25791449.360 0  25791450.180 0
        34.000 0         4.000 0
  -7056940.69246  -5252991.25042  24520103.033 0  24520101.343 0  24520103.160 0
        38.000 0        12.000 0
 -34978631.75047 -26957644.59144  23715730.719 0  23715729.909 0  23715732.497 0
        42.000 0        28.000 0
 -30039857.13747 -23349532.93045  22453323.180 0  22453323.942 0  22453325.993 0
        45.000 0        34.000 0
 -12775121.60846  -1574003.29641  25029339.880 0  25029338.591 0  25029339.030 0
        36.000 0         6.000 0
-319121786.276 6          .000 0  21843642.333 0          .000 0          .000 0
        39.000 0          .000 0
  -6369049.267 5          .000 0  22763930.754 0          .000 0          .000 0
        34.000 0          .000 0
-180316737.187 6          .000 0  21152684.417 0          .000 0          .000 0
        39.000 0          .000 0
 15 01 01 00 01 17.0000000  0 14G12G14G25G02G29G31G03G10G24G06G20S36
                                S20S26
 -45969743.40548 -35339879.89147  20577026.356 0  20577025.613 0  20577024.539 0
        52.000 0        44.000 0
 -22004907.98846 -14052415.41542  24437320.098 0  24437318.789 0  24437318.135 0
        39.000 0        16.000 0
 -36879113.33648 -28531826.73447  20965674.339 0  20965673.020 0  20965675.218 0
        50.000 0        42.000 0
 -32874021.91348 -23183643.95646  21611043.258 0  21611042.076 0  21611039.595 0
        49.000 0        40.000 0
 -16430067.73047 -12655113.57645  22953663.595 0  22953662.111 0  22953661.886 0
        46.000 0        30.000 0
 -11770438.10046  -8971070.39944  23968267.808 0  23968267.221 0  23968266.928 0
        41.000 0        24.000 0
 -12727927.13245     41266.64740  25791564.998 0  25791562.859 0  25791563.650 0
        33.000 0         4.000 0
  -7061068.08646  -5256207.39842  24519317.858 0  24519315.914 0  24519317.761 0
        39.000 0        12.000 0
 -34976487.24447 -26955973.54744  23716138.638 0  23716138.023 0  23716140.602 0
        42.000 0        28.000 0
 -30039493.50147 -23349249.57745  22453392.360 0  22453393.141 0  22453395.183 0
        45.000 0        34.000 0
 -12775202.52146  -1574066.34241  25029324.934 0  25029323.186 0  25029323.674 0
        36.000 0         6.000 0
-319123267.203 6          .000 0  21843360.710 0          .000 0          .000 0
        40.000 0          .000 0
  -6370558.826 6          .000 0  22763642.869 0          .000 0          .000 0
        36.000 0          .000 0
-180318169.191 6          .000 0  21152412.592 0          .000 0          .000 0
        40.000 0          .000 0
 15 01 01 00 01 18.0000000  0 14G12G14G25G02G29G31G03G10G24G06G20S36
                                S20S26
 -45970097.97448 -35340156.17947  20576958.944 0  20576958.133 0  20576957.068 0
        52.000 0        44.000 0
 -22004181.87946 -14051849.61742  24437458.106 0  24437457.002 0  24437456.289 0
        39.000 0        16.000 0
 -36882192.30848 -28534225.93347  20965088.381 0  20965087.101 0  20965089.309 0
        50.000 0        42.000 0
 -32876432.80748 -23185522.57446  21610584.455 0  21610583.273 0  21610580.821 0
        49.000 0        40.000 0
 -16434724.77547 -12658742.44245  22952777.464 0  22952775.960 0  22952775.686 0
        46.000 0        30.000 0
 -11774757.76246  -8974436.36844  23967445.884 0  23967445.171 0  23967444.936 0
        41.000 0        24.000 0
 -12727330.07545     41731.88740  25791677.618 0  25791676.544 0  25791677.110 0
        33.000 0         4.000 0
  -7065195.06646  -5259423.22442  24518532.732 0  24518530.564 0  24518532.400 0
        39.000 0        12.000 0
 -34974342.49947 -26954302.31744  23716546.714 0  23716546.196 0  23716548.775 0
        42.000 0        28.000 0
 -30039129.25547 -23348965.75045  22453461.657 0  22453462.458 0  22453464.470 0
        45.000 0        34.000 0
 -12775282.73646  -1574128.84741  25029309.823 0  25029307.918 0  25029308.426 0
        36.000 0         6.000 0
-319124748.077 6          .000 0  21843079.272 0          .000 0          .000 0
        40.000 0          .000 0
  -6372068.199 5          .000 0  22763356.850 0          .000 0          .000 0
        35.000 0          .000 0
-180319601.343 6          .000 0  21152140.102 0          .000 0          .000 0
        40.000 0          .000 0
 15 01 01 00 01 19.0000000  0 14G12G14G25G02G29G31G03G10G24G06G20S36
                                S20S26
 -45970452.04348 -35340432.07747  20576891.708 0  20576890.751 0  20576889.696 0
        52.000 0        44.000 0
 -22003455.36546 -14051283.50442  24437596.046 0  24437595.274 0  24437594.512 0
        39.000 0        16.000 0
 -36885270.81348 -28536624.76947  20964502.598 0  20964501.280 0  20964503.487 0
        50.000 0        42.000 0
 -32878843.12048 -23187400.74046  21610125.741 0  21610124.568 0  21610122.156 0
        49.000 0        40.000 0
 -16439381.56347 -12662371.10745  22951891.313 0  22951889.906 0  22951889.545 0
        46.000 0        30.000 0
 -11779077.01747  -8977802.02244  23966624.019 0  23966623.198 0  23966623.032 0
        42.000 0        24.000 0
 -12726732.50245     42197.52841  25791790.609 0  25791790.326 0  25791790.707 0
        33.000 0         6.000 0
  -7069321.63146  -5262638.72842  24517747.264 0  24517745.301 0  24517747.118 0
        39.000 0        12.000 0
 -34972197.53247 -26952630.91544  23716954.711 0  23716954.379 0  23716956.957 0
        42.000 0        28.000 0
 -30038764.42447 -23348681.46645  22453530.847 0  22453531.863 0  22453533.855 0
        45.000 0        34.000 0
 -12775362.38146  -1574190.90641  25029294.056 0  25029292.767 0  25029293.255 0
        36.000 0         6.000 0
-319126228.891 6          .000 0  21842797.922 0          .000 0          .000 0
        40.000 0          .000 0
  -6373577.588 5          .000 0  22763069.922 0          .000 0          .000 0
        35.000 0          .000 0
-180321033.447 6          .000 0  21151867.212 0          .000 0          .000 0
        40.000 0          .000 0
 15 01 01 00 01 20.0000000  0 14G12G14G25G02G29G31G03G10G24G06G20S36
                                S20S26
 -45970805.57448 -35340707.55647  20576824.540 0  20576823.466 0  20576822.421 0
        52.000 0        44.000 0
 -22002728.36946 -14050717.01442  24437734.464 0  24437733.624 0  24437732.823 0
        39.000 0        16.000 0
 -36888348.81448 -28539023.21147  20963916.865 0  20963915.566 0  20963917.793 0
        50.000 0        42.000 0
 -32881252.84348 -23189278.44646  21609667.202 0  21609665.990 0  21609663.597 0
        49.000 0        40.000 0
 -16444038.07247 -12665999.55545  22951005.260 0  22951003.912 0  22951003.472 0
        46.000 0        30.000 0
 -11783395.89447  -8981167.38044  23965802.017 0  23965801.294 0  23965801.177 0
        42.000 0        24.000 0
 -12726134.35745     42663.61341  25791903.649 0  25791904.226 0  25791904.597 0
        33.000 0         6.000 0
  -7073447.77146  -5265853.90142  24516962.177 0  24516960.184 0  24516961.923 0
        39.000 0        12.000 0
 -34970052.32147 -26950959.32344  23717362.806 0  23717362.581 0  23717365.179 0
        42.000 0        28.000 0
 -30038398.98047 -23348396.70545  22453600.417 0  22453601.355 0  22453603.338 0
        45.000 0        34.000 0
 -12775441.45246  -1574252.51641  25029278.661 0  25029277.704 0  25029278.183 0
        36.000 0         8.000 0
-319127709.583 6          .000 0  21842516.973 0          .000 0          .000 0
        40.000 0          .000 0
  -6375087.107 6          .000 0  22762783.161 0          .000 0          .000 0
        36.000 0          .000 0
-180322465.447 6          .000 0  21151594.341 0          .000 0          .000 0
        40.000 0          .000 0
 15 01 01 00 01 21.0000000  0 14G12G14G25G02G29G31G03G10G24G06G20S36
                                S20S26
 -45971158.62548 -35340982.66147  20576757.363 0  20576756.279 0  20576755.234 0
        52.000 0        44.000 0
 -22002001.02146 -14050150.24942  24437872.824 0  24437872.062 0  24437871.232 0
        38.000 0        16.000 0
 -36891426.39548 -28541421.32647  20963331.229 0  20963329.920 0  20963332.157 0
        50.000 0        42.000 0
 -32883662.01248 -23191155.72146  21609208.790 0  21609207.530 0  21609205.156 0
        49.000 0        40.000 0
 -16448694.36047 -12669627.83145  22950119.206 0  22950117.917 0  22950117.399 0
        46.000 0        30.000 0
 -11787714.42247  -8984532.46744  23964980.347 0  23964979.468 0  23964979.410 0
        42.000 0        24.000 0
 -12725535.82145     43129.99741  25792017.656 0  25792018.164 0  25792018.624 0
        33.000 0         6.000 0
  -7077573.52746  -5269068.77442  24516177.393 0  24516175.127 0  24516176.807 0
        39.000 0        12.000 0
 -34967906.93347 -26949287.59244  23717770.910 0  23717770.822 0  23717773.421 0
        42.000 0        28.000 0
 -30038032.99547 -23348111.52345  22453670.232 0  22453670.955 0  22453672.967 0
        45.000 0        34.000 0
 -12775519.93746  -1574313.67241  25029263.305 0  25029262.768 0  25029263.208 0
        36.000 0         6.000 0
-319129190.218 6          .000 0  21842235.448 0          .000 0          .000 0
        40.000 0          .000 0
  -6376596.560 5          .000 0  22762495.237 0          .000 0          .000 0
        35.000 0          .000 0
-180323897.560 6          .000 0  21151321.499 0          .000 0          .000 0
        40.000 0          .000 0
 15 01 01 00 01 22.0000000  0 14G12G14G25G02G29G31G03G10G24G06G20S36
                                S20S26
 -45971511.20048 -35341257.39547  20576690.293 0  20576689.189 0  20576688.134 0
        52.000 0        44.000 0
 -22001273.25846 -14049583.16342  24438010.930 0  24438010.578 0  24438009.719 0
        38.000 0        16.000 0
 -36894503.52248 -28543819.08747  20962745.574 0  20962744.373 0  20962746.600 0
        50.000 0        42.000 0
 -32886070.64148 -23193032.57546  21608750.466 0  21608749.167 0  21608746.803 0
        49.000 0        40.000 0
 -16453350.41647 -12673255.92645  22949233.270 0  22949231.961 0  22949231.366 0
        46.000 0        30.000 0
 -11792032.57147  -8987897.25844  23964158.404 0  23964157.711 0  23964157.662 0
        42.000 0        24.000 0
 -12724936.86145     43596.71740  25792131.244 0  25792132.035 0  25792132.943 0
        33.000 0         4.000 0
  -7081698.89646  -5272283.34742  24515392.189 0  24515390.118 0  24515391.837 0
        39.000 0        12.000 0
 -34965761.35447 -26947615.71344  23718179.230 0  23718179.122 0  23718181.691 0
        43.000 0        28.000 0
 -30037666.44847 -23347825.90245  22453740.018 0  22453740.692 0  22453742.772 0
        45.000 0        34.000 0
 -12775597.86846  -1574374.39741  25029248.858 0  25029247.959 0  25029248.360 0
        36.000 0         6.000 0
-319130670.882 6          .000 0  21841952.721 0          .000 0          .000 0
        40.000 0          .000 0
  -6378106.045 5          .000 0  22762208.427 0          .000 0          .000 0
        35.000 0          .000 0
-180325329.590 6          .000 0  21151049.352 0          .000 0          .000 0
        40.000 0          .000 0
 15 01 01 00 01 23.0000000  0 14G12G14G25G02G29G31G03G10G24G06G20S36
                                S20S26
 -45971863.21548 -35341531.69247  20576623.262 0  20576622.207 0  20576621.152 0
        52.000 0        44.000 0
 -22000545.01446 -14049015.70242  24438149.299 0  24438149.123 0  24438148.293 0
        38.000 0        16.000 0
 -36897580.14148 -28546216.45347  20962160.095 0  20962158.913 0  20962161.130 0
        50.000 0        42.000 0
 -32888478.64148 -23194908.93746  21608292.230 0  21608290.911 0  21608288.576 0
        49.000 0        40.000 0
 -16458006.17647 -12676883.79145  22948347.080 0  22948346.055 0  22948345.351 0
        46.000 0        30.000 0
 -11796350.33246  -8991261.74644  23963336.422 0  23963336.012 0  23963335.982 0
        41.000 0        24.000 0
 -12724337.32745     44063.88641  25792245.553 0  25792246.061 0  25792247.292 0
        34.000 0         6.000 0
  -7085823.81646  -5275497.56842  24514607.141 0  24514605.187 0  24514606.955 0
        39.000 0        12.000 0
 -34963615.53447 -26945943.64544  23718587.627 0  23718587.451 0  23718590.040 0
        43.000 0        28.000 0
 -30037299.27347 -23347539.79245  22453809.969 0  22453810.546 0  22453812.675 0
        45.000 0        34.000 0
 -12775675.19345  -1574434.64940  25029233.951 0  25029233.287 0  25029233.668 0
        35.000 0         4.000 0
-319132151.474 6          .000 0  21841670.990 0          .000 0          .000 0
        40.000 0          .000 0
  -6379615.352 5          .000 0  22761920.464 0          .000 0          .000 0
        35.000 0          .000 0
-180326761.603 6          .000 0  21150777.077 0          .000 0          .000 0
        40.000 0          .000 0
 15 01 01 00 01 24.0000000  0 14G12G14G25G02G29G31G03G10G24G06G20S36
                                S20S26
 -45972214.70448 -35341805.58047  20576556.310 0  20576555.333 0  20576554.278 0
        52.000 0        44.000 0
 -21999816.31546 -14048447.88642  24438287.864 0  24438287.766 0  24438286.946 0
        38.000 0        16.000 0
 -36900656.26448 -28548613.43147  20961574.772 0  20961573.541 0  20961575.768 0
        50.000 0        42.000 0
 -32890886.04948 -23196784.84046  21607834.052 0  21607832.792 0  21607830.467 0
        49.000 0        40.000 0
 -16462661.66047 -12680511.44045  22947461.076 0  22947460.197 0  22947459.406 0
        46.000 0        32.000 0
 -11800667.66146  -8994625.89644  23962514.684 0  23962514.371 0  23962514.410 0
        41.000 0        24.000 0
 -12723737.28345     44531.45341  25792360.303 0  25792360.401 0  25792361.387 0
        34.000 0         6.000 0
  -7089948.31146  -5278711.45942  24513822.132 0  24513820.305 0  24513822.122 0
        39.000 0        12.000 0
 -34961469.48047 -26944271.39544  23718996.093 0  23718995.820 0  23718998.467 0
        43.000 0        28.000 0
 -30036931.50147 -23347253.21745  22453880.018 0  22453880.517 0  22453882.646 0
        45.000 0        34.000 0
 -12775751.89246  -1574494.41640  25029219.054 0  25029218.742 0  25029219.054 0
        36.000 0         4.000 0
-319133631.970 6          .000 0  21841389.054 0          .000 0          .000 0
        40.000 0          .000 0
  -6381124.746 5          .000 0  22761633.683 0          .000 0          .000 0
        35.000 0          .000 0
-180328193.512 6          .000 0  21150504.460 0          .000 0          .000 0
        40.000 0          .000 0
 15 01 01 00 01 25.0000000  0 14G12G14G25G02G29G31G03G10G24G06G20S36
                                S20S26
 -45972565.60748 -35342079.01147  20576489.396 0  20576488.537 0  20576487.511 0
        52.000 0        44.000 0
 -21999087.12146 -14047879.68542  24438426.546 0  24438426.527 0  24438425.745 0
        38.000 0        16.000 0
 -36903731.83548 -28551009.98047  20960989.478 0  20960988.277 0  20960990.523 0
        50.000 0        42.000 0
 -32893292.79348 -23198660.22546  21607376.041 0  21607374.810 0  21607372.505 0
        49.000 0        40.000 0
 -16467316.79647 -12684138.81945  22946575.081 0  22946574.368 0  22946573.567 0
        45.000 0        30.000 0
 -11804984.51346  -8997989.67444  23961693.268 0  23961692.819 0  23961692.936 0
        41.000 0        24.000 0
 -12723136.69045     44999.45141  25792475.170 0  25792474.808 0  25792475.648 0
        34.000 0         6.000 0
  -7094072.32146  -5281924.96942  24513037.133 0  24513035.521 0  24513037.397 0
        39.000 0        12.000 0
 -34959323.12847 -26942598.91244  23719404.540 0  23719404.247 0  23719406.923 0
        43.000 0        28.000 0
 -30036563.06047 -23346966.12145  22453950.312 0  22453950.605 0  22453952.744 0
        45.000 0        34.000 0
 -12775827.91045  -1574553.64740  25029204.705 0  25029204.314 0  25029204.519 0
        35.000 0         4.000 0
-319135112.447 6          .000 0  21841107.089 0          .000 0          .000 0
        40.000 0          .000 0
  -6382634.072 5          .000 0  22761346.287 0          .000 0          .000 0
        35.000 0          .000 0
-180329625.243 6          .000 0  21150231.941 0          .000 0          .000 0
        40.000 0          .000 0
 15 01 01 00 01 26.0000000  0 14G12G14G25G02G29G31G03G10G24G06G20S36
                                S20S26
 -45972916.09048 -35342352.11647  20576422.629 0  20576421.828 0  20576420.832 0
        52.000 0        44.000 0
 -21998357.58346 -14047311.21542  24438565.238 0  24438565.346 0  24438564.603 0
        38.000 0        16.000 0
 -36906807.04048 -28553406.24347  20960404.223 0  20960403.071 0  20960405.327 0
        50.000 0        42.000 0
 -32895699.06048 -23200535.23846  21606918.157 0  21606916.906 0  21606914.620 0
        49.000 0        40.000 0
 -16471971.77847 -12687766.07845  22945688.940 0  22945688.549 0  22945687.758 0
        45.000 0        32.000 0
 -11809301.08046  -9001353.23144  23960871.979 0  23960871.354 0  23960871.501 0
        41.000 0        24.000 0
 -12722535.70745     45467.74941  25792589.206 0  25792589.216 0  25792590.290 0
        34.000 0         6.000 0
  -7098196.02746  -5285138.24442  24512252.603 0  24512250.815 0  24512252.720 0
        39.000 0        12.000 0
 -34957176.63747 -26940926.32244  23719812.849 0  23719812.732 0  23719815.389 0
        43.000 0        28.000 0
 -30036194.13547 -23346678.64845  22454020.713 0  22454020.801 0  22454022.940 0
        45.000 0        34.000 0
 -12775903.39645  -1574612.46240  25029190.580 0  25029189.964 0  25029190.130 0
        35.000 0         4.000 0
-319136593.196 6          .000 0  21840825.183 0          .000 0          .000 0
        40.000 0          .000 0
  -6384143.447 5          .000 0  22761058.451 0          .000 0          .000 0
        35.000 0          .000 0
-180331057.172 6          .000 0  21149958.738 0          .000 0          .000 0
        40.000 0          .000 0
 15 01 01 00 01 27.0000000  0 14G12G14G25G02G29G31G03G10G24G06G20S36
                                S20S26
 -45973266.02848 -35342624.79647  20576355.930 0  20576355.227 0  20576354.231 0
        52.000 0        44.000 0
 -21997627.60046 -14046742.39942  24438704.057 0  24438704.194 0  24438703.500 0
        38.000 0        16.000 0
 -36909881.72848 -28555802.10547  20959819.047 0  20959817.963 0  20959820.229 0
        50.000 0        42.000 0
 -32898104.70948 -23202409.76946  21606460.380 0  21606459.100 0  21606456.814 0
        49.000 0        40.000 0
 -16476626.47047 -12691393.11045  22944802.975 0  22944802.770 0  22944802.018 0
        45.000 0        30.000 0
 -11813617.21146  -9004716.44844  23960050.485 0  23960049.968 0  23960050.153 0
        41.000 0        24.000 0
 -12721934.17245     45936.47941  25792703.936 0  25792703.692 0  25792704.981 0
        34.000 0         8.000 0
  -7102319.26846  -5288351.15842  24511467.965 0  24511466.177 0  24511468.121 0
        39.000 0        14.000 0
 -34955029.89647 -26939253.53644  23720221.481 0  23720221.247 0  23720223.904 0
        43.000 0        28.000 0
 -30035824.59547 -23346390.69545  22454091.124 0  22454091.124 0  22454093.282 0
        45.000 0        34.000 0
 -12775978.32545  -1574670.84740  25029175.937 0  25029175.712 0  25029175.878 0
        34.000 0         4.000 0
-319138073.927 6          .000 0  21840543.237 0          .000 0          .000 0
        40.000 0          .000 0
  -6385652.883 5          .000 0  22760772.188 0          .000 0          .000 0
        35.000 0          .000 0
-180332489.128 6          .000 0  21149686.063 0          .000 0          .000 0
        40.000 0          .000 0
 15 01 01 00 01 28.0000000  0 14G12G14G25G02G29G31G03G10G24G06G20S36
                                S20S26
 -45973615.55648 -35342897.15647  20576289.388 0  20576288.704 0  20576287.718 0
        52.000 0        44.000 0
 -21996897.29546 -14046173.33242  24438842.768 0  24438843.091 0  24438842.436 0
        38.000 0        16.000 0
 -36912956.05248 -28558197.68247  20959233.861 0  20959232.913 0  20959235.189 0
        50.000 0        42.000 0
 -32900509.89048 -23204283.93646  21606002.759 0  21606001.401 0  21605999.135 0
        49.000 0        40.000 0
 -16481280.98647 -12695020.00645  22943917.146 0  22943917.019 0  22943916.306 0
        45.000 0        32.000 0
 -11817933.07646  -9008079.45844  23959229.207 0  23959228.660 0  23959228.855 0
        41.000 0        24.000 0
 -12721332.29645     46405.47341  25792818.041 0  25792818.080 0  25792819.535 0
        33.000 0         8.000 0
  -7106442.21846  -5291563.84242  24510683.542 0  24510681.598 0  24510683.552 0
        39.000 0        14.000 0
 -34952883.02847 -26937580.65244  23720630.045 0  23720629.781 0  23720632.468 0
        43.000 0        28.000 0
 -30035454.56547 -23346102.36045  22454161.544 0  22454161.544 0  22454163.752 0
        45.000 0        34.000 0
 -12776052.74645  -1574728.83540  25029161.226 0  25029161.548 0  25029161.694 0
        35.000 0         4.000 0
-319139554.798 6          .000 0  21840262.561 0          .000 0          .000 0
        40.000 0          .000 0
  -6387162.497 5          .000 0  22760484.596 0          .000 0          .000 0
        35.000 0          .000 0
-180333921.263 6          .000 0  21149413.212 0          .000 0          .000 0
        40.000 0          .000 0
 15 01 01 00 01 29.0000000  0 14G12G14G25G02G29G31G03G10G24G06G20S36
                                S20S26
 -45973964.57048 -35343169.11547  20576223.080 0  20576222.279 0  20576221.312 0
        52.000 0        44.000 0
 -21996166.53446 -14045603.91142  24438981.675 0  24438982.105 0  24438981.460 0
        37.000 0        16.000 0
 -36916029.89948 -28560592.88747  20958648.870 0  20958647.971 0  20958650.257 0
        50.000 0        42.000 0
 -32902914.48548 -23206157.64646  21605545.226 0  21605543.810 0  21605541.563 0
        49.000 0        40.000 0
 -16485935.25447 -12698646.70745  22943031.357 0  22943031.288 0  22943030.614 0
        45.000 0        30.000 0
 -11822248.54846  -9011442.16344  23958408.191 0  23958407.439 0  23958407.635 0
        41.000 0        24.000 0
 -12720729.99945     46874.79341  25792932.976 0  25792932.566 0  25792934.207 0
        33.000 0         8.000 0
  -7110564.72646  -5294776.18642  24509899.198 0  24509897.117 0  24509899.081 0
        40.000 0        14.000 0
 -34950735.97947 -26935907.62744  23721038.677 0  23721038.345 0  23721041.070 0
        43.000 0        28.000 0
 -30035083.94047 -23345813.56245  22454232.091 0  22454232.072 0  22454234.309 0
        45.000 0        34.000 0
 -12776126.59945  -1574786.38440  25029147.032 0  25029147.491 0  25029147.608 0
        35.000 0         4.000 0
-319141035.625 6          .000 0  21839980.332 0          .000 0          .000 0
        40.000 0          .000 0
  -6388671.999 5          .000 0  22760196.135 0          .000 0          .000 0
        34.000 0          .000 0
-180335353.232 6          .000 0  21149140.732 0          .000 0          .000 0
        40.000 0          .000 0
 15 01 01 00 01 30.0000000  0 14G12G14G25G02G29G31G03G10G24G06G20S36
                                S20S26
 -45974313.04048 -35343440.65147  20576156.782 0  20576155.952 0  20576154.994 0
        52.000 0        44.000 0
 -21995435.34146 -14045034.15042  24439120.650 0  24439121.207 0  24439120.553 0
        37.000 0        16.000 0
 -36919103.25648 -28562987.71147  20958064.006 0  20958063.146 0  20958065.413 0
        50.000 0        42.000 0
 -32905318.47048 -23208030.88146  21605087.918 0  21605086.346 0  21605084.118 0
        49.000 0        40.000 0
 -16490589.24047 -12702273.19045  22942145.782 0  22942145.616 0  22942144.991 0
        45.000 0        30.000 0
 -11826563.59046  -9014804.53444  23957587.127 0  23957586.326 0  23957586.522 0
        41.000 0        24.000 0
 -12720127.08345     47344.59641  25793047.716 0  25793047.217 0  25793049.161 0
        32.000 0         8.000 0
  -7114686.79546  -5297988.18742  24509114.843 0  24509112.694 0  24509114.677 0
        40.000 0        14.000 0
 -34948588.66247 -26934234.39444  23721447.387 0  23721446.958 0  23721449.742 0
        43.000 0        28.000 0
 -30034712.71547 -23345524.29645  22454302.727 0  22454302.707 0  22454304.954 0
        45.000 0        34.000 0
 -12776199.75045  -1574843.38340  25029132.848 0  25029133.552 0  25029133.669 0
        34.000 0         4.000 0
-319142516.445 6          .000 0  21839699.374 0          .000 0          .000 0
        40.000 0          .000 0
  -6390181.362 5          .000 0  22759908.797 0          .000 0          .000 0
        35.000 0          .000 0
-180336785.299 6          .000 0  21148867.968 0          .000 0          .000 0
        40.000 0          .000 0
 15 01 01 00 01 31.0000000  0 14G12G14G25G02G29G31G03G10G24G06G20S36
                                S20S26
 -45974661.06948 -35343711.84347  20576090.552 0  20576089.712 0  20576088.755 0
        52.000 0        44.000 0
 -21994703.77746 -14044464.10242  24439259.792 0  24439260.329 0  24439259.831 0
        37.000 0        16.000 0
 -36922176.19548 -28565382.20947  20957479.142 0  20957478.380 0  20957480.646 0
        50.000 0        42.000 0
 -32907721.94348 -23209903.71646  21604630.659 0  21604628.989 0  21604626.752 0
        49.000 0        40.000 0
 -16495243.01947 -12705899.51145  22941260.129 0  22941260.012 0  22941259.455 0
        45.000 0        30.000 0
 -11830878.32646  -9018166.66644  23956765.956 0  23956765.272 0  23956765.458 0
        41.000 0        24.000 0
 -12719523.86345     47814.63941  25793162.231 0  25793161.967 0  25793164.175 0
        32.000 0         6.000 0
  -7118808.52046  -5301199.91542  24508330.811 0  24508328.350 0  24508330.352 0
        40.000 0        14.000 0
 -34946441.20947 -26932561.05444  23721856.176 0  23721855.619 0  23721858.413 0
        42.000 0        28.000 0
 -30034340.95747 -23345234.61645  22454373.362 0  22454373.450 0  22454375.697 0
        45.000 0        34.000 0
 -12776272.44345  -1574900.02541  25029119.260 0  25029119.690 0  25029119.837 0
        34.000 0         6.000 0
-319143997.396 6          .000 0  21839417.565 0          .000 0          .000 0
        40.000 0          .000 0
  -6391690.847 5          .000 0  22759621.147 0          .000 0          .000 0
        35.000 0          .000 0
-180338217.267 6          .000 0  21148596.094 0          .000 0          .000 0
        40.000 0          .000 0
 15 01 01 00 01 32.0000000  0 14G12G14G25G02G29G31G03G10G24G06G20S36
                                S20S26
 -45975008.53748 -35343982.59847  20576024.410 0  20576023.599 0  20576022.632 0
        52.000 0        44.000 0
 -21993971.70346 -14043893.65642  24439398.864 0  24439399.558 0  24439399.206 0
        37.000 0        14.000 0
 -36925248.60648 -28567776.29747  20956894.454 0  20956893.721 0  20956895.997 0
        50.000 0        42.000 0
 -32910124.78548 -23211776.06146  21604173.341 0  21604171.749 0  21604169.522 0
        49.000 0        40.000 0
 -16499896.49447 -12709525.59545  22940374.643 0  22940374.457 0  22940373.969 0
        45.000 0        32.000 0
 -11835192.63347  -9021528.46544  23955945.116 0  23955944.315 0  23955944.472 0
        42.000 0        24.000 0
 -12718919.96245     48285.20841  25793276.208 0  25793277.009 0  25793279.295 0
        32.000 0         6.000 0
  -7122929.78246  -5304411.28442  24507546.594 0  24507544.093 0  24507546.193 0
        40.000 0        14.000 0
 -34944293.48447 -26930887.50244  23722264.935 0  23722264.339 0  23722267.094 0
        43.000 0        28.000 0
 -30033968.57047 -23344944.44545  22454444.291 0  22454444.320 0  22454446.557 0
        45.000 0        34.000 0
 -12776344.49645  -1574956.16841  25029105.262 0  25029105.946 0  25029106.122 0
        35.000 0         6.000 0
-319145478.257 6          .000 0  21839135.678 0          .000 0          .000 0
        40.000 0          .000 0
  -6393200.320 5          .000 0  22759333.828 0          .000 0          .000 0
        35.000 0          .000 0
-180339649.132 6          .000 0  21148324.737 0          .000 0          .000 0
        40.000 0          .000 0
 15 01 01 00 01 33.0000000  0 14G12G14G25G02G29G31G03G10G24G06G20S36
                                S20S26
 -45975355.52448 -35344252.97847  20575958.385 0  20575957.555 0  20575956.588 0
        52.000 0        44.000 0
 -21993239.27746 -14043322.93742  24439538.074 0  24439538.885 0  24439538.631 0
        37.000 0        14.000 0
 -36928320.59448 -28570170.05347  20956309.893 0  20956309.121 0  20956311.417 0
        50.000 0        42.000 0
 -32912527.08048 -23213647.97846  21603716.170 0  21603714.597 0  21603712.390 0
        49.000 0        40.000 0
 -16504549.73847 -12713151.49945  22939489.166 0  22939488.951 0  22939488.511 0
        45.000 0        32.000 0
 -11839506.56547  -9024889.97044  23955124.336 0  23955123.417 0  23955123.544 0
        42.000 0        24.000 0
 -12718315.63245     48756.11041  25793390.899 0  25793392.120 0  25793394.484 0
        32.000 0         6.000 0
  -7127050.68246  -5307622.37542  24506762.308 0  24506759.915 0  24506762.093 0
        40.000 0        14.000 0
 -34942145.59347 -26929213.82044  23722673.821 0  23722673.059 0  23722675.823 0
        42.000 0        28.000 0
 -30033595.63847 -23344653.85045  22454515.131 0  22454515.287 0  22454517.544 0
        45.000 0        34.000 0
 -12776415.93945  -1575011.83240  25029091.928 0  25029092.300 0  25029092.495 0
        35.000 0         4.000 0
-319146959.117 6          .000 0  21838853.058 0          .000 0          .000 0
        40.000 0          .000 0
  -6394709.760 5          .000 0  22759046.334 0          .000 0          .000 0
        35.000 0          .000 0
-180341081.023 6          .000 0  21148051.320 0          .000 0          .000 0
        40.000 0          .000 0
 15 01 01 00 01 34.0000000  0 13G12G14G25G02G29G31G10G24G06G20S36S20
                                S26
 -45975701.95748 -35344522.92647  20575892.410 0  20575891.628 0  20575890.661 0
        52.000 0        44.000 0
 -21992506.33246 -14042751.81542  24439677.733 0  24439678.290 0  24439678.153 0
        37.000 0        16.000 0
 -36931392.05448 -28572563.39947  20955725.371 0  20955724.648 0  20955726.953 0
        50.000 0        42.000 0
 -32914928.75448 -23215519.41146  21603259.194 0  21603257.572 0  21603255.365 0
        49.000 0        40.000 0
 -16509202.68247 -12716777.16945  22938603.796 0  22938603.493 0  22938603.122 0
        45.000 0        32.000 0
 -11843820.06647  -9028251.14144  23954303.828 0  23954302.598 0  23954302.715 0
        42.000 0        24.000 0
  -7131171.09546  -5310833.08542  24505978.452 0  24505975.814 0  24505977.983 0
        40.000 0        14.000 0
 -34939997.41747 -26927539.91644  23723082.687 0  23723081.818 0  23723084.641 0
        43.000 0        28.000 0
 -30033222.07447 -23344362.76145  22454586.255 0  22454586.382 0  22454588.648 0
        45.000 0        34.000 0
 -12776486.76945  -1575067.01640  25029078.780 0  25029078.849 0  25029078.976 0
        34.000 0         4.000 0
-319148439.999 6          .000 0  21838570.839 0          .000 0          .000 0
        40.000 0          .000 0
  -6396219.215 6          .000 0  22758759.524 0          .000 0          .000 0
        36.000 0          .000 0
-180342512.813 6          .000 0  21147779.377 0          .000 0          .000 0
        40.000 0          .000 0
 15 01 01 00 01 35.0000000  0 13G12G14G25G02G29G31G10G24G06G20S36S20
                                S26
 -45976047.87748 -35344792.47447  20575826.580 0  20575825.809 0  20575824.842 0
        52.000 0        44.000 0
 -21991772.99446 -14042180.38642  24439817.675 0  24439817.822 0  24439817.743 0
        37.000 0        16.000 0
 -36934463.04448 -28574956.37847  20955140.937 0  20955140.263 0  20955142.568 0
        50.000 0        42.000 0
 -32917329.84248 -23217390.38946  21602802.218 0  21602800.675 0  21602798.448 0
        49.000 0        40.000 0
 -16513855.35547 -12720402.62945  22937718.515 0  22937718.085 0  22937717.841 0
        45.000 0        32.000 0
 -11848133.17047  -9031612.00144  23953483.106 0  23953481.856 0  23953481.954 0
        42.000 0        24.000 0
  -7135291.11546  -5314043.49042  24505194.791 0  24505191.802 0  24505193.961 0
        40.000 0        14.000 0
 -34937849.03847 -26925865.85444  23723491.720 0  23723490.626 0  23723493.498 0
        43.000 0        28.000 0
 -30032847.90947 -23344071.20645  22454657.476 0  22454657.594 0  22454659.879 0
        45.000 0        34.000 0
 -12776557.03445  -1575121.76240  25029065.534 0  25029065.534 0  25029065.524 0
        35.000 0         4.000 0
-319149920.881 6          .000 0  21838289.401 0          .000 0          .000 0
        39.000 0          .000 0
  -6397728.679 5          .000 0  22758473.583 0          .000 0          .000 0
        34.000 0          .000 0
-180343944.686 6          .000 0  21147506.828 0          .000 0          .000 0
        40.000 0          .000 0
 15 01 01 00 01 36.0000000  0 13G12G14G25G02G29G31G10G24G06G20S36S20
                                S26
 -45976393.34148 -35345061.66747  20575760.780 0  20575760.067 0  20575759.100 0
        52.000 0        44.000 0
 -21991039.26946 -14041608.65542  24439957.334 0  24439957.422 0  24439957.393 0
        38.000 0        16.000 0
 -36937533.61348 -28577349.03047  20954556.688 0  20954555.946 0  20954558.261 0
        50.000 0        42.000 0
 -32919730.41148 -23219260.96246  21602345.467 0  21602343.884 0  21602341.638 0
        49.000 0        40.000 0
 -16518507.83447 -12724027.93645  22936833.165 0  22936832.715 0  22936832.598 0
        45.000 0        32.000 0
 -11852445.92847  -9034972.59244  23952662.316 0  23952661.183 0  23952661.261 0
        42.000 0        24.000 0
  -7139410.77046  -5317253.60942  24504411.032 0  24504407.897 0  24504410.026 0
        40.000 0        14.000 0
 -34935700.47947 -26924191.65244  23723900.577 0  23723899.473 0  23723902.403 0
        43.000 0        28.000 0
 -30032473.22647 -23343779.24645  22454728.844 0  22454728.903 0  22454731.169 0
        45.000 0        34.000 0
 -12776626.71045  -1575176.05340  25029052.034 0  25029052.278 0  25029052.230 0
        35.000 0         4.000 0
-319151401.770 6          .000 0  21838007.417 0          .000 0          .000 0
        40.000 0          .000 0
  -6399238.217 5          .000 0  22758187.818 0          .000 0          .000 0
        35.000 0          .000 0
-180345376.687 6          .000 0  21147234.642 0          .000 0          .000 0
        40.000 0          .000 0
 15 01 01 00 01 37.0000000  0 13G12G14G25G02G29G31G10G24G06G20S36S20
                                S26
 -45976738.29448 -35345330.46347  20575695.068 0  20575694.424 0  20575693.456 0
        52.000 0        44.000 0
 -21990305.13246 -14041036.60242  24440097.433 0  24440097.061 0  24440097.071 0
        38.000 0        16.000 0
 -36940603.71748 -28579741.31847  20953972.586 0  20953971.726 0  20953974.051 0
        50.000 0        42.000 0
 -32922130.40848 -23221131.08946  21601888.794 0  21601887.192 0  21601884.906 0
        49.000 0        40.000 0
 -16523160.06247 -12727653.04845  22935947.991 0  22935947.414 0  22935947.395 0
        45.000 0        32.000 0
 -11856758.33647  -9038332.90944  23951841.603 0  23951840.578 0  23951840.627 0
        42.000 0        24.000 0
  -7143530.02246  -5320463.41642  24503627.049 0  24503624.060 0  24503626.150 0
        40.000 0        14.000 0
 -34933551.73347 -26922517.30544  23724309.453 0  23724308.349 0  23724311.328 0
        43.000 0        28.000 0
 -30032097.96647 -23343486.83845  22454800.290 0  22454800.310 0  22454802.557 0
        45.000 0        34.000 0
 -12776695.83045  -1575229.91040  25029039.355 0  25029039.081 0  25029039.072 0
        35.000 0         4.000 0
-319152882.642 6          .000 0  21837725.842 0          .000 0          .000 0
        40.000 0          .000 0
  -6400747.759 5          .000 0  22757901.838 0          .000 0          .000 0
        35.000 0          .000 0
-180346808.743 6          .000 0  21146961.507 0          .000 0          .000 0
        40.000 0          .000 0
 15 01 01 00 01 38.0000000  0 14G12G14G25G02G29G31G03G10G24G06G20S36
                                S20S26
 -45977082.80548 -35345598.91347  20575629.444 0  20575628.868 0  20575627.901 0
        52.000 0        44.000 0
 -21989570.60546 -14040464.24742  24440237.326 0  24440236.789 0  24440236.838 0
        38.000 0        14.000 0
 -36943673.41448 -28582133.28947  20953388.601 0  20953387.585 0  20953389.910 0
        50.000 0        42.000 0
 -32924529.88048 -23223000.80746  21601432.248 0  21601430.607 0  21601428.282 0
        49.000 0        40.000 0
 -16527812.09047 -12731278.00545  22935062.856 0  22935062.152 0  22935062.211 0
        45.000 0        32.000 0
 -11861070.40747  -9041692.96444  23951021.067 0  23951020.002 0  23951020.090 0
        42.000 0        24.000 0
 -12715286.80345     51116.22241  25793967.382 0  25793969.306 0  25793971.201 0
        32.000 0         8.000 0
  -7147648.90946  -5323672.94042  24502843.261 0  24502840.282 0  24502842.314 0
        40.000 0        14.000 0
 -34931402.83947 -26920842.84344  23724718.368 0  23724717.264 0  23724720.283 0
        43.000 0        28.000 0
 -30031722.17847 -23343194.01745  22454871.785 0  22454871.815 0  22454874.032 0
        46.000 0        34.000 0
 -12776764.40645  -1575283.34440  25029027.037 0  25029025.972 0  25029025.982 0
        35.000 0         4.000 0
-319154363.540 6          .000 0  21837444.122 0          .000 0          .000 0
        39.000 0          .000 0
  -6402257.339 5          .000 0  22757612.791 0          .000 0          .000 0
        35.000 0          .000 0
-180348240.882 6          .000 0  21146690.053 0          .000 0          .000 0
        40.000 0          .000 0
 15 01 01 00 01 39.0000000  0 14G12G14G25G02G29G31G03G10G24G06G20S36
                                S20S26
 -45977426.71748 -35345866.89747  20575563.957 0  20575563.419 0  20575562.462 0
        52.000 0        44.000 0
 -21988835.60146 -14039891.52142  24440377.766 0  24440376.594 0  24440376.711 0
        39.000 0        14.000 0
 -36946742.56048 -28584524.83247  20952804.636 0  20952803.532 0  20952805.857 0
        50.000 0        42.000 0
 -32926928.70348 -23224870.02046  21600975.741 0  21600974.158 0  21600971.784 0
        49.000 0        40.000 0
 -16532463.79147 -12734902.70645  22934177.701 0  22934176.939 0  22934177.037 0
        45.000 0        32.000 0
 -11865381.99647  -9045052.64444  23950200.638 0  23950199.524 0  23950199.651 0
        42.000 0        24.000 0
 -12714679.53245     51589.41941  25794083.226 0  25794084.994 0  25794086.830 0
        32.000 0         6.000 0
  -7151767.33246  -5326882.10142  24502059.718 0  24502056.582 0  24502058.565 0
        40.000 0        14.000 0
 -34929253.68647 -26919168.17744  23725127.264 0  23725126.248 0  23725129.276 0
        43.000 0        28.000 0
 -30031345.74047 -23342900.68945  22454943.300 0  22454943.446 0  22454945.654 0
        45.000 0        34.000 0
 -12776832.36645  -1575336.29940  25029014.592 0  25029012.970 0  25029012.961 0
        35.000 0         4.000 0
-319155844.363 6          .000 0  21837162.772 0          .000 0          .000 0
        40.000 0          .000 0
  -6403766.757 5          .000 0  22757324.418 0          .000 0          .000 0
        35.000 0          .000 0
-180349672.899 6          .000 0  21146416.977 0          .000 0          .000 0
        40.000 0          .000 0
 15 01 01 00 01 40.0000000  0 14G12G14G25G02G29G31G03G10G24G06G20S36
                                S20S26
 -45977770.01948 -35346134.40547  20575498.606 0  20575498.088 0  20575497.150 0
        52.000 0        44.000 0
 -21988100.07946 -14039318.39142  24440517.875 0  24440516.517 0  24440516.693 0
        39.000 0        16.000 0
 -36949811.13548 -28586915.93047  20952220.671 0  20952219.606 0  20952221.931 0
        50.000 0        42.000 0
 -32929326.84148 -23226738.70046  21600519.361 0  21600517.837 0  21600515.414 0
        50.000 0        40.000 0
 -16537115.12147 -12738527.11845  22933292.634 0  22933291.794 0  22933291.941 0
        45.000 0        32.000 0
 -11869693.11647  -9048411.95644  23949380.287 0  23949379.163 0  23949379.251 0
        42.000 0        24.000 0
 -12714071.65745     52063.08141  25794198.708 0  25794201.003 0  25794202.722 0
        33.000 0         6.000 0
  -7155885.21346  -5330090.83942  24501276.204 0  24501272.990 0  24501274.953 0
        40.000 0        14.000 0
 -34927104.20447 -26917493.25744  23725536.277 0  23725535.291 0  23725538.299 0
        43.000 0        28.000 0
 -30030968.60247 -23342606.81645  22455015.137 0  22455015.235 0  22455017.442 0
        46.000 0        34.000 0
 -12776899.60745  -1575388.69140  25029001.864 0  25029000.096 0  25029000.174 0
        35.000 0         4.000 0
-319157325.113 6          .000 0  21836881.676 0          .000 0          .000 0
        40.000 0          .000 0
  -6405275.995 5          .000 0  22757038.077 0          .000 0          .000 0
        35.000 0          .000 0
-180351104.481 6          .000 0  21146144.653 0          .000 0          .000 0
        40.000 0          .000 0
 15 01 01 00 01 41.0000000  0 14G12G14G25G02G29G31G03G10G24G06G20S36
                                S20S26
 -45978112.86848 -35346401.56047  20575433.314 0  20575432.835 0  20575431.898 0
        52.000 0        44.000 0
 -21987364.16046 -14038744.94742  24440658.100 0  24440656.557 0  24440656.742 0
        39.000 0        16.000 0
 -36952879.29148 -28589306.70147  20951636.852 0  20951635.748 0  20951638.083 0
        50.000 0        42.000 0
 -32931724.45348 -23228606.96846  21600063.049 0  21600061.613 0  21600059.132 0
        50.000 0        40.000 0
 -16541766.24047 -12742151.36545  22932407.646 0  22932406.689 0  22932406.874 0
        45.000 0        32.000 0
 -11874003.87647  -9051770.98944  23948560.063 0  23948558.881 0  23948558.930 0
        42.000 0        24.000 0
 -12713463.45145     52537.00641  25794315.675 0  25794317.013 0  25794318.664 0
        33.000 0         8.000 0
  -7160002.77146  -5333299.32442  24500492.621 0  24500489.456 0  24500491.380 0
        40.000 0        14.000 0
 -34924954.55847 -26915818.20844  23725945.378 0  23725944.372 0  23725947.361 0
        43.000 0        28.000 0
 -30030590.95047 -23342312.54345  22455087.120 0  22455087.110 0  22455089.318 0
        46.000 0        34.000 0
 -12776966.30346  -1575440.65740  25028989.419 0  25028987.319 0  25028987.553 0
        36.000 0         4.000 0
-319158805.894 6          .000 0  21836600.434 0          .000 0          .000 0
        40.000 0          .000 0
  -6406785.376 6          .000 0  22756750.231 0          .000 0          .000 0
        36.000 0          .000 0
-180352536.236 6          .000 0  21145871.431 0          .000 0          .000 0
        40.000 0          .000 0
 15 01 01 00 01 42.0000000  0 14G12G14G25G02G29G31G03G10G24G06G20S36
                                S20S26
 -45978455.14548 -35346668.27147  20575368.178 0  20575367.700 0  20575366.762 0
        52.000 0        44.000 0
 -21986627.78846 -14038171.15542  24440798.414 0  24440796.685 0  24440796.870 0
        39.000 0        16.000 0
 -36955946.92648 -28591697.06547  20951053.082 0  20951051.998 0  20951054.333 0
        50.000 0        42.000 0
 -32934121.43948 -23230474.74946  21599606.923 0  21599605.516 0  21599602.967 0
        50.000 0        40.000 0
 -16546417.06247 -12745775.38245  22931522.638 0  22931521.671 0  22931521.866 0
        46.000 0        32.000 0
 -11878314.20047  -9055129.68344  23947740.005 0  23947738.686 0  23947738.676 0
        42.000 0        24.000 0
 -12712854.65845     53011.38841  25794432.641 0  25794432.954 0  25794434.605 0
        33.000 0         8.000 0
  -7164119.84246  -5336507.43142  24499708.774 0  24499706.078 0  24499707.827 0
        40.000 0        14.000 0
 -34922804.65247 -26914142.95644  23726354.450 0  23726353.492 0  23726356.472 0
        43.000 0        28.000 0
 -30030212.65247 -23342017.76745  22455159.055 0  22455159.074 0  22455161.272 0
        46.000 0        34.000 0
 -12777032.35145  -1575492.11740  25028976.886 0  25028974.678 0  25028975.001 0
        35.000 0         4.000 0
-319160286.636 6          .000 0  21836318.889 0          .000 0          .000 0
        40.000 0          .000 0
  -6408294.806 5          .000 0  22756463.069 0          .000 0          .000 0
        35.000 0          .000 0
-180353968.035 6          .000 0  21145599.302 0          .000 0          .000 0
        40.000 0          .000 0
 15 01 01 00 01 43.0000000  0 14G12G14G25G02G29G31G03G10G24G06G20S36
                                S20S26
 -45978796.88248 -35346934.56047  20575303.228 0  20575302.671 0  20575301.743 0
        52.000 0        44.000 0
 -21985890.92446 -14037596.98042  24440938.961 0  24440936.881 0  24440937.066 0
        40.000 0        16.000 0
 -36959014.04548 -28594087.02847  20950469.430 0  20950468.345 0  20950470.690 0
        50.000 0        42.000 0
 -32936517.80948 -23232342.05046  21599150.982 0  21599149.517 0  21599146.919 0
        50.000 0        40.000 0
 -16551067.57847 -12749399.15945  22930637.913 0  22930636.780 0  22930636.897 0
        46.000 0        32.000 0
 -11882624.09747  -9058488.04344  23946919.918 0  23946918.570 0  23946918.501 0
        42.000 0        24.000 0
 -12712245.34245     53486.17741  25794549.335 0  25794548.973 0  25794550.654 0
        33.000 0         8.000 0
  -7168236.47246  -5339715.19242  24498924.879 0  24498922.759 0  24498924.391 0
        40.000 0        14.000 0
 -34920654.49747 -26912467.51144  23726763.482 0  23726762.672 0  23726765.661 0
        43.000 0        28.000 0
 -30029833.74647 -23341722.51645  22455231.165 0  22455231.175 0  22455233.363 0
        45.000 0        34.000 0
 -12777097.81645  -1575543.12440  25028964.197 0  25028962.175 0  25028962.507 0
        35.000 0         4.000 0
-319161767.360 6          .000 0  21836037.402 0          .000 0          .000 0
        40.000 0          .000 0
  -6409804.198 5          .000 0  22756176.132 0          .000 0          .000 0
        35.000 0          .000 0
-180355399.798 6          .000 0  21145326.686 0          .000 0          .000 0
        40.000 0          .000 0
 15 01 01 00 01 44.0000000  0 14G12G14G25G02G29G31G03G10G24G06G20S36
                                S20S26
 -45979138.14248 -35347200.47647  20575238.278 0  20575237.741 0  20575236.813 0
        52.000 0        44.000 0
 -21985153.69946 -14037022.51942  24441079.392 0  24441077.165 0  24441077.331 0
        40.000 0        16.000 0
 -36962080.73448 -28596476.65647  20949885.884 0  20949884.781 0  20949887.125 0
        50.000 0        42.000 0
 -32938913.63248 -23234208.92546  21598695.208 0  21598693.625 0  21598690.998 0
        50.000 0        40.000 0
 -16555717.88347 -12753022.77245  22929753.052 0  22929751.938 0  22929751.987 0
        46.000 0        32.000 0
 -11886933.68147  -9061846.15944  23946099.850 0  23946098.502 0  23946098.414 0
        42.000 0        24.000 0
 -12711635.60245     53961.29641  25794665.149 0  25794664.983 0  25794666.761 0
        32.000 0         8.000 0
  -7172352.71946  -5342922.65542  24498141.170 0  24498139.441 0  24498141.189 0
        40.000 0        14.000 0
 -34918504.16547 -26910791.92844  23727172.710 0  23727171.909 0  23727174.898 0
        43.000 0        28.000 0
 -30029454.29047 -23341426.83645  22455303.344 0  22455303.403 0  22455305.591 0
        45.000 0        34.000 0
 -12777162.73145  -1575593.70840  25028951.586 0  25028949.788 0  25028950.150 0
        35.000 0         4.000 0
-319163248.097 6          .000 0  21835755.300 0          .000 0          .000 0
        40.000 0          .000 0
  -6411313.617 5          .000 0  22755890.621 0          .000 0          .000 0
        35.000 0          .000 0
-180356831.508 6          .000 0  21145054.430 0          .000 0          .000 0
        40.000 0          .000 0
 15 01 01 00 01 45.0000000  0 14G12G14G25G02G29G31G03G10G24G06G20S36
                                S20S26
 -45979478.88348 -35347465.98947  20575173.543 0  20575172.927 0  20575171.989 0
        52.000 0        44.000 0
 -21984416.03546 -14036447.71642  24441219.999 0  24441217.556 0  24441217.683 0
        40.000 0        16.000 0
 -36965146.94848 -28598865.91347  20949302.408 0  20949301.304 0  20949303.648 0
        50.000 0        42.000 0
 -32941308.88448 -23236075.35646  21598239.492 0  21598237.851 0  21598235.194 0
        50.000 0        40.000 0
 -16560367.90747 -12756646.16645  22928868.083 0  22928867.096 0  22928867.213 0
        46.000 0        32.000 0
 -11891242.82947  -9065203.93644  23945279.958 0  23945278.513 0  23945278.405 0
        43.000 0        26.000 0
 -12711025.33645     54436.82141  25794780.250 0  25794781.139 0  25794782.985 0
        32.000 0         6.000 0
  -7176468.56246  -5346129.80542  24497357.919 0  24497356.210 0  24497358.056 0
        40.000 0        14.000 0
 -34916353.62547 -26909116.18344  23727581.870 0  23727581.147 0  23727584.175 0
        43.000 0        28.000 0
 -30029074.25447 -23341130.70445  22455375.640 0  22455375.738 0  22455377.926 0
        45.000 0        34.000 0
 -12777226.99845  -1575643.78741  25028938.887 0  25028937.529 0  25028937.949 0
        34.000 0         6.000 0
-319164728.803 6          .000 0  21835472.368 0          .000 0          .000 0
        40.000 0          .000 0
  -6412823.053 5          .000 0  22755604.572 0          .000 0          .000 0
        35.000 0          .000 0
-180358263.231 6          .000 0  21144782.283 0          .000 0          .000 0
        40.000 0          .000 0
 15 01 01 00 01 46.0000000  0 13G12G14G25G02G29G31G10G24G06G20S36S20
                                S26
 -45979819.05448 -35347731.05847  20575108.827 0  20575108.192 0  20575107.254 0
        52.000 0        44.000 0
 -21983677.87646 -14035872.52942  24441360.761 0  24441358.046 0  24441358.114 0
        40.000 0        16.000 0
 -36968212.62648 -28601254.75447  20948718.989 0  20948717.905 0  20948720.279 0
        50.000 0        42.000 0
 -32943703.49048 -23237941.28246  21597783.903 0  21597782.165 0  21597779.508 0
        50.000 0        40.000 0
 -16565017.61747 -12760269.31645  22927983.104 0  22927982.332 0  22927982.488 0
        46.000 0        32.000 0
 -11895551.55547  -9068561.38344  23944460.203 0  23944458.630 0  23944458.484 0
        43.000 0        26.000 0
  -7180583.90146  -5349336.56042  24496574.551 0  24496573.115 0  24496574.971 0
        40.000 0        14.000 0
 -34914202.81847 -26907440.23044  23727991.205 0  23727990.414 0  23727993.511 0
        43.000 0        28.000 0
 -30028693.56747 -23340834.06545  22455448.073 0  22455448.190 0  22455450.407 0
        45.000 0        34.000 0
 -12777290.65845  -1575693.39241  25028926.002 0  25028925.367 0  25028925.865 0
        34.000 0         6.000 0
-319166209.506 6          .000 0  21835189.495 0          .000 0          .000 0
        40.000 0          .000 0
  -6414332.424 6          .000 0  22755318.094 0          .000 0          .000 0
        36.000 0          .000 0
-180359694.896 6          .000 0  21144509.265 0          .000 0          .000 0
        40.000 0          .000 0
 15 01 01 00 01 47.0000000  0 14G12G14G25G02G29G31G03G10G24G06G20S36
                                S20S26
 -45980158.71948 -35347995.73247  20575044.287 0  20575043.564 0  20575042.626 0
        52.000 0        44.000 0
 -21982939.30346 -14035297.01842  24441501.309 0  24441498.652 0  24441498.672 0
        40.000 0        16.000 0
 -36971277.83748 -28603643.23047  20948135.649 0  20948134.604 0  20948136.997 0
        50.000 0        42.000 0
 -32946097.52148 -23239806.76046  21597328.344 0  21597326.595 0  21597323.948 0
        50.000 0        40.000 0
 -16569667.07347 -12763892.26745  22927098.350 0  22927097.627 0  22927097.744 0
        46.000 0        32.000 0
 -11899859.87147  -9071918.51244  23943640.692 0  23943638.846 0  23943638.651 0
        43.000 0        26.000 0
 -12709803.32645     55389.02241  25795011.947 0  25795013.920 0  25795015.825 0
        32.000 0         8.000 0
  -7184698.85146  -5352543.01542  24495791.379 0  24495790.099 0  24495791.936 0
        39.000 0        14.000 0
 -34912051.80047 -26905764.11344  23728400.335 0  23728399.730 0  23728402.875 0
        43.000 0        28.000 0
 -30028312.29447 -23340536.97045  22455520.496 0  22455520.759 0  22455522.996 0
        45.000 0        34.000 0
 -12777353.66345  -1575742.48741  25028914.173 0  25028913.303 0  25028913.909 0
        34.000 0         8.000 0
-319167690.210 6          .000 0  21834907.666 0          .000 0          .000 0
        40.000 0          .000 0
  -6415841.629 6          .000 0  22755030.219 0          .000 0          .000 0
        36.000 0          .000 0
-180361126.592 6          .000 0  21144237.235 0          .000 0          .000 0
        40.000 0          .000 0
 15 01 01 00 01 48.0000000  0 13G12G14G25G02G29G31G10G24G06G20S36S20
                                S26
 -45980497.94948 -35348260.06847  20574979.825 0  20574979.015 0  20574978.077 0
        52.000 0        44.000 0
 -21982200.37046 -14034721.22542  24441642.131 0  24441639.307 0  24441639.278 0
        40.000 0        16.000 0
 -36974342.64348 -28606031.39047  20947552.387 0  20947551.381 0  20947553.794 0
        50.000 0        42.000 0
 -32948491.04148 -23241671.84146  21596872.823 0  21596871.114 0  21596868.476 0
        50.000 0        40.000 0
 -16574316.34247 -12767515.07345  22926213.527 0  22926212.941 0  22926213.049 0
        46.000 0        32.000 0
 -11904167.88647  -9075275.40744  23942821.172 0  23942819.081 0  23942818.847 0
        43.000 0        26.000 0
  -7188813.44046  -5355749.18642  24495008.353 0  24495007.171 0  24495008.890 0
        40.000 0        14.000 0
 -34909900.62247 -26904087.87044  23728809.729 0  23728809.124 0  23728812.299 0
        43.000 0        28.000 0
 -30027930.51447 -23340239.47945  22455593.143 0  22455593.436 0  22455595.703 0
        45.000 0        34.000 0
 -12777416.25745  -1575791.26141  25028902.070 0  25028901.357 0  25028902.011 0
        34.000 0         8.000 0
-319169171.153 6          .000 0  21834626.033 0          .000 0          .000 0
        40.000 0          .000 0
  -6417350.979 5          .000 0  22754741.924 0          .000 0          .000 0
        35.000 0          .000 0
-180362558.333 6          .000 0  21143963.905 0          .000 0          .000 0
        40.000 0          .000 0
 15 01 01 00 01 49.0000000  0 14G12G14G25G02G29G31G03G10G24G06G20S36
                                S20S26
 -45980836.68248 -35348524.01547  20574915.412 0  20574914.553 0  20574913.615 0
        52.000 0        44.000 0
 -21981461.02246 -14034145.11042  24441782.923 0  24441780.031 0  24441779.963 0
        40.000 0        16.000 0
 -36977406.99548 -28608419.19747  20946969.233 0  20946968.237 0  20946970.669 0
        50.000 0        42.000 0
 -32950884.00348 -23243536.48646  21596417.381 0  21596415.740 0  21596413.103 0
        50.000 0        40.000 0
 -16578965.37447 -12771137.69545  22925328.734 0  22925328.295 0  22925328.402 0
        46.000 0        32.000 0
 -11908475.52847  -9078632.01144  23942001.544 0  23941999.395 0  23941999.131 0
        43.000 0        26.000 0
 -12708579.46645     56342.67241  25795245.158 0  25795246.692 0  25795248.792 0
        32.000 0         6.000 0
  -7192927.65246  -5358955.06342  24494225.317 0  24494224.292 0  24494225.933 0
        39.000 0        14.000 0
 -34907749.25047 -26902411.47744  23729219.133 0  23729218.518 0  23729221.712 0
        43.000 0        28.000 0
 -30027548.17147 -23339941.55045  22455665.840 0  22455666.221 0  22455668.487 0
        45.000 0        34.000 0
 -12777478.24545  -1575839.56041  25028890.289 0  25028889.547 0  25028890.211 0
        34.000 0         6.000 0
-319170651.966 6          .000 0  21834344.781 0          .000 0          .000 0
        40.000 0          .000 0
  -6418860.424 5          .000 0  22754454.674 0          .000 0          .000 0
        35.000 0          .000 0
-180363990.237 6          .000 0  21143691.415 0          .000 0          .000 0
        40.000 0          .000 0
 15 01 01 00 01 50.0000000  0 14G12G14G25G02G29G31G03G10G24G06G20S36
                                S20S26
 -45981174.90748 -35348787.56747  20574851.127 0  20574850.189 0  20574849.241 0
        52.000 0        44.000 0
 -21980721.25146 -14033568.66642  24441923.676 0  24441920.843 0  24441920.735 0
        40.000 0        16.000 0
 -36980470.88248 -28610806.64147  20946386.206 0  20946385.190 0  20946387.622 0
        50.000 0        42.000 0
 -32953276.39148 -23245400.68546  21595962.037 0  21595960.464 0  21595957.836 0
        49.000 0        40.000 0
 -16583614.14347 -12774760.11145  22924444.078 0  22924443.707 0  22924443.814 0
        45.000 0        32.000 0
 -11912782.76847  -9081988.30144  23941182.130 0  23941179.835 0  23941179.522 0
        44.000 0        26.000 0
 -12707966.81045     56820.06541  25795362.086 0  25795363.258 0  25795365.544 0
        32.000 0         8.000 0
  -7197041.45646  -5362160.62642  24493442.545 0  24493441.412 0  24493443.093 0
        40.000 0        14.000 0
 -34905597.69447 -26900734.93944  23729628.615 0  23729627.941 0  23729631.145 0
        43.000 0        28.000 0
 -30027165.23847 -23339643.16245  22455738.741 0  22455739.113 0  22455741.369 0
        45.000 0        34.000 0
 -12777539.60545  -1575887.36841  25028878.616 0  25028877.873 0  25028878.586 0
        34.000 0         6.000 0
-319172132.727 6          .000 0  21834063.295 0          .000 0          .000 0
        40.000 0          .000 0
  -6420369.813 6          .000 0  22754167.698 0          .000 0          .000 0
        36.000 0          .000 0
-180365422.067 6          .000 0  21143418.886 0          .000 0          .000 0
        40.000 0          .000 0
 15 01 01 00 01 51.0000000  0 14G12G14G25G02G29G31G03G10G24G06G20S36
                                S20S26
 -45981512.62948 -35349050.72847  20574786.880 0  20574785.942 0  20574784.975 0
        52.000 0        44.000 0
 -21979981.08846 -14032991.91442  24442064.419 0  24442061.713 0  24442061.576 0
        40.000 0        16.000 0
 -36983534.31148 -28613193.72947  20945803.276 0  20945802.240 0  20945804.663 0
        50.000 0        42.000 0
 -32955668.20948 -23247264.43946  21595506.760 0  21595505.305 0  21595502.687 0
        49.000 0        40.000 0
 -16588262.66147 -12778382.33345  22923559.431 0  22923559.158 0  22923559.226 0
        46.000 0        32.000 0
 -11917089.65147  -9085344.31344  23940362.620 0  23940360.334 0  23940359.982 0
        44.000 0        26.000 0
 -12707353.74845     57297.77341  25795478.916 0  25795479.913 0  25795482.364 0
        32.000 0         8.000 0
  -7201154.85046  -5365365.86742  24492659.998 0  24492658.601 0  24492660.340 0
        39.000 0        14.000 0
 -34903445.92847 -26899058.24044  23730037.990 0  23730037.433 0  23730040.598 0
        42.000 0        28.000 0
 -30026781.74347 -23339344.33645  22455811.702 0  22455812.092 0  22455814.349 0
        45.000 0        34.000 0
 -12777600.39345  -1575934.73341  25028866.835 0  25028866.347 0  25028867.138 0
        34.000 0         6.000 0
-319173613.493 6          .000 0  21833782.746 0          .000 0          .000 0
        40.000 0          .000 0
  -6421879.164 6          .000 0  22753880.917 0          .000 0          .000 0
        36.000 0          .000 0
-180366853.784 6          .000 0  21143146.787 0          .000 0          .000 0
        41.000 0          .000 0
 15 01 01 00 01 52.0000000  0 14G12G14G25G02G29G31G03G10G24G06G20S36
                                S20S26
 -45981849.93748 -35349313.56447  20574722.750 0  20574721.754 0  20574720.777 0
        52.000 0        44.000 0
 -21979240.57446 -14032414.88842  24442205.191 0  24442202.671 0  24442202.505 0
        40.000 0        16.000 0
 -36986597.35448 -28615580.51547  20945220.385 0  20945219.389 0  20945221.792 0
        50.000 0        42.000 0
 -32958059.53448 -23249127.81046  21595051.513 0  21595050.244 0  21595047.645 0
        49.000 0        40.000 0
 -16592911.01147 -12782004.42345  22922674.999 0  22922674.628 0  22922674.677 0
        46.000 0        32.000 0
 -11921396.22247  -9088700.08344  23939543.060 0  23939540.881 0  23939540.471 0
        44.000 0        26.000 0
 -12706740.24245     57775.83041  25795596.450 0  25795596.655 0  25795599.195 0
        32.000 0         8.000 0
  -7205267.93246  -5368570.86642  24491877.539 0  24491875.859 0  24491877.637 0
        39.000 0        14.000 0
 -34901294.04447 -26897381.44844  23730447.452 0  23730446.944 0  23730450.060 0
        43.000 0        28.000 0
 -30026397.75547 -23339045.12545  22455884.867 0  22455885.180 0  22455887.417 0
        46.000 0        34.000 0
 -12777660.71145  -1575981.73441  25028855.435 0  25028854.859 0  25028855.728 0
        34.000 0         8.000 0
-319175094.289 6          .000 0  21833500.957 0          .000 0          .000 0
        40.000 0          .000 0
  -6423388.619 6          .000 0  22753593.032 0          .000 0          .000 0
        36.000 0          .000 0
-180368285.521 6          .000 0  21142874.083 0          .000 0          .000 0
        40.000 0          .000 0
 15 01 01 00 01 53.0000000  0 14G12G14G25G02G29G31G03G10G24G06G20S36
                                S20S26
 -45982186.64748 -35349575.93647  20574658.718 0  20574657.693 0  20574656.716 0
        52.000 0        44.000 0
 -21978499.56746 -14031837.48442  24442346.247 0  24442343.776 0  24442343.473 0
        40.000 0        16.000 0
 -36989659.84448 -28617966.87147  20944637.670 0  20944636.635 0  20944639.008 0
        50.000 0        42.000 0
 -32960450.20448 -23250990.66946  21594596.520 0  21594595.309 0  21594592.730 0
        49.000 0        40.000 0
 -16597559.02847 -12785626.25245  22921790.490 0  22921790.128 0  22921790.187 0
        46.000 0        32.000 0
 -11925702.31847  -9092055.48344  23938723.647 0  23938721.527 0  23938721.058 0
        44.000 0        26.000 0
 -12706126.17245     58254.32541  25795713.612 0  25795713.446 0  25795716.122 0
        32.000 0         8.000 0
  -7209380.52146  -5371775.48242  24491094.816 0  24491093.224 0  24491095.021 0
        39.000 0        14.000 0
 -34899141.87347 -26895704.43244  23730857.051 0  23730856.475 0  23730859.581 0
        43.000 0        28.000 0
 -30026013.11647 -23338745.40645  22455958.286 0  22455958.384 0  22455960.602 0
        46.000 0        34.000 0
 -12777720.34045  -1576028.19441  25028844.036 0  25028843.498 0  25028844.407 0
        34.000 0         8.000 0
-319176574.961 6          .000 0  21833218.357 0          .000 0          .000 0
        40.000 0          .000 0
  -6424898.038 6          .000 0  22753306.730 0          .000 0          .000 0
        36.000 0          .000 0
-180369717.100 6          .000 0  21142601.603 0          .000 0          .000 0
        40.000 0          .000 0
 15 01 01 00 01 54.0000000  0 14G12G14G25G02G29G31G03G10G24G06G20S36
                                S20S26
 -45982522.97048 -35349838.00647  20574594.667 0  20574593.690 0  20574592.713 0
        52.000 0        44.000 0
 -21977758.24946 -14031259.83342  24442487.401 0  24442484.929 0  24442484.499 0
        40.000 0        16.000 0
 -36992721.98248 -28620352.95247  20944055.043 0  20944053.920 0  20944056.303 0
        50.000 0        42.000 0
 -32962840.41648 -23252853.17246  21594141.606 0  21594140.453 0  21594137.894 0
        49.000 0        40.000 0
 -16602206.90247 -12789247.97245  22920906.019 0  22920905.648 0  22920905.696 0
        46.000 0        32.000 0
 -11930008.15247  -9095410.67844  23937904.214 0  23937902.192 0  23937901.723 0
        44.000 0        26.000 0
 -12705511.72345     58733.11941  25795830.745 0  25795830.130 0  25795833.148 0
        32.000 0         8.000 0
  -7213492.79946  -5374979.85642  24490311.898 0  24490310.735 0  24490312.493 0
        40.000 0        14.000 0
 -34896989.62147 -26894027.35344  23731266.504 0  23731265.996 0  23731269.122 0
        42.000 0        28.000 0
 -30025627.99547 -23338445.31345  22456031.735 0  22456031.686 0  22456033.894 0
        46.000 0        34.000 0
 -12777779.54045  -1576074.32141  25028832.626 0  25028832.235 0  25028833.085 0
        34.000 0         8.000 0
-319178055.726 6          .000 0  21832936.489 0          .000 0          .000 0
        40.000 0          .000 0
  -6426407.659 5          .000 0  22753018.797 0          .000 0          .000 0
        35.000 0          .000 0
-180371148.843 6          .000 0  21142329.035 0          .000 0          .000 0
        40.000 0          .000 0
 15 01 01 00 01 55.0000000  0 14G12G14G25G02G29G31G03G10G24G06G20S36
                                S20S26
 -45982858.82648 -35350099.71247  20574530.801 0  20574529.795 0  20574528.808 0
        52.000 0        44.000 0
 -21977016.55546 -14030681.89042  24442628.486 0  24442626.141 0  24442625.643 0
        40.000 0        16.000 0
 -36995783.70548 -28622738.71147  20943472.494 0  20943471.293 0  20943473.676 0
        50.000 0        42.000 0
 -32965230.09548 -23254715.26046  21593686.877 0  21593685.704 0  21593683.165 0
        49.000 0        40.000 0
 -16606854.55947 -12792869.52245  22920021.704 0  22920021.245 0  22920021.235 0
        46.000 0        32.000 0
 -11934313.63647  -9098765.60144  23937084.859 0  23937082.925 0  23937082.456 0
        44.000 0        26.000 0
 -12704896.89745     59212.20241  25795947.595 0  25795946.960 0  25795950.242 0
        33.000 0         8.000 0
  -7217604.71846  -5378183.95042  24489529.175 0  24489528.305 0  24489530.044 0
        39.000 0        14.000 0
 -34894837.18947 -26892350.13444  23731676.113 0  23731675.556 0  23731678.711 0
        43.000 0        28.000 0
 -30025242.35747 -23338144.81645  22456105.242 0  22456105.047 0  22456107.274 0
        46.000 0        34.000 0
 -12777838.13745  -1576119.97941  25028821.597 0  25028821.099 0  25028821.822 0
        34.000 0         8.000 0
-319179536.475 6          .000 0  21832654.554 0          .000 0          .000 0
        40.000 0          .000 0
  -6427917.424 5          .000 0  22752729.906 0          .000 0          .000 0
        35.000 0          .000 0
-180372580.858 6          .000 0  21142056.115 0          .000 0          .000 0
        40.000 0          .000 0
 15 01 01 00 01 56.0000000  0 14G12G14G25G02G29G31G03G10G24G06G20S36
                                S20S26
 -45983194.14648 -35350361.00147  20574466.945 0  20574465.978 0  20574464.991 0
        52.000 0        44.000 0
 -21976274.39946 -14030103.58642  24442769.630 0  24442767.441 0  24442766.885 0
        40.000 0        16.000 0
 -36998844.92048 -28625124.07347  20942890.063 0  20942888.754 0  20942891.147 0
        50.000 0        42.000 0
 -32967619.16448 -23256576.87246  21593232.265 0  21593231.063 0  21593228.543 0
        49.000 0        40.000 0
 -16611501.92847 -12796490.84845  22919137.370 0  22919136.911 0  22919136.823 0
        46.000 0        32.000 0
 -11938618.71647  -9102120.20944  23936265.622 0  23936263.717 0  23936263.248 0
        44.000 0        26.000 0
 -12704281.49345     59691.73641  25796064.630 0  25796064.151 0  25796067.433 0
        32.000 0         8.000 0
  -7221716.20646  -5381387.70642  24488746.832 0  24488745.934 0  24488747.712 0
        39.000 0        14.000 0
 -34892684.54147 -26890672.74644  23732085.741 0  23732085.175 0  23732088.359 0
        42.000 0        28.000 0
 -30024856.09947 -23337843.83745  22456178.906 0  22456178.496 0  22456180.772 0
        46.000 0        34.000 0
 -12777896.14545  -1576165.17941  25028811.136 0  25028810.110 0  25028810.715 0
        34.000 0         8.000 0
-319181017.212 6          .000 0  21832371.270 0          .000 0          .000 0
        41.000 0          .000 0
  -6429426.916 6          .000 0  22752443.037 0          .000 0          .000 0
        36.000 0          .000 0
-180374012.856 6          .000 0  21141784.143 0          .000 0          .000 0
        40.000 0          .000 0
 15 01 01 00 01 57.0000000  0 14G12G14G25G02G29G31G03G10G24G06G20S36
                                S20S26
 -45983528.89148 -35350621.84147  20574403.225 0  20574402.288 0  20574401.301 0
        52.000 0        44.000 0
 -21975531.76546 -14029524.90942  24442910.832 0  24442908.781 0  24442908.233 0
        40.000 0        16.000 0
 -37001905.59348 -28627509.01347  20942307.670 0  20942306.332 0  20942308.735 0
        50.000 0        42.000 0
 -32970007.58948 -23258437.98346  21592777.799 0  21592776.549 0  21592774.038 0
        49.000 0        40.000 0
 -16616148.97247 -12800111.92045  22918252.929 0  22918252.646 0  22918252.440 0
        45.000 0        32.000 0
 -11942923.31847  -9105474.44444  23935446.570 0  23935444.607 0  23935444.118 0
        44.000 0        26.000 0
 -12703665.61145     60171.64441  25796181.909 0  25796181.402 0  25796184.703 0
        33.000 0         8.000 0
  -7225827.19946  -5384591.07842  24487964.705 0  24487963.680 0  24487965.477 0
        39.000 0        14.000 0
 -34890531.60847 -26888995.13744  23732495.262 0  23732494.871 0  23732498.046 0
        42.000 0        28.000 0
 -30024469.20447 -23337542.36145  22456252.618 0  22456252.062 0  22456254.386 0
        46.000 0        34.000 0
 -12777953.53545  -1576209.89841  25028799.873 0  25028799.286 0  25028799.794 0
        33.000 0         8.000 0
-319182497.918 6          .000 0  21832090.545 0          .000 0          .000 0
        40.000 0          .000 0
  -6430936.216 6          .000 0  22752156.012 0          .000 0          .000 0
        36.000 0          .000 0
-180375444.744 6          .000 0  21141512.503 0          .000 0          .000 0
        40.000 0          .000 0
 15 01 01 00 01 58.0000000  0 14G12G14G25G02G29G31G03G10G24G06G20S36
                                S20S26
 -45983863.09948 -35350882.26347  20574339.653 0  20574338.705 0  20574337.709 0
        52.000 0        44.000 0
 -21974788.67346 -14028945.87542  24443052.191 0  24443050.217 0  24443049.690 0
        40.000 0        16.000 0
 -37004965.77248 -28629893.56847  20941725.356 0  20941723.988 0  20941726.391 0
        50.000 0        42.000 0
 -32972395.40548 -23260298.61846  21592323.490 0  21592322.152 0  21592319.661 0
        49.000 0        40.000 0
 -16620795.73247 -12803732.77145  22917368.624 0  22917368.409 0  22917368.097 0
        45.000 0        32.000 0
 -11947227.51747  -9108828.36544  23934627.343 0  23934625.604 0  23934625.067 0
        44.000 0        26.000 0
 -12703049.13445     60652.01241  25796299.277 0  25796298.661 0  25796301.963 0
        32.000 0         8.000 0
  -7229937.76446  -5387794.11742  24487182.568 0  24487181.543 0  24487183.262 0
        39.000 0        14.000 0
 -34888378.41047 -26887317.32144  23732904.959 0  23732904.627 0  23732907.792 0
        42.000 0        28.000 0
 -30024081.69347 -23337240.40445  22456326.468 0  22456325.754 0  22456328.099 0
        46.000 0        34.000 0
 -12778010.28945  -1576254.12141  25028788.834 0  25028788.531 0  25028788.971 0
        34.000 0         6.000 0
-319183978.604 6          .000 0  21831808.961 0          .000 0          .000 0
        40.000 0          .000 0
  -6432445.822 5          .000 0  22751867.199 0          .000 0          .000 0
        35.000 0          .000 0
-180376876.524 6          .000 0  21141239.701 0          .000 0          .000 0
        40.000 0          .000 0
 15 01 01 00 01 59.0000000  0 14G12G14G25G02G29G31G03G10G24G06G20S36
                                S20S26
 -45984196.79448 -35351142.28547  20574276.158 0  20574275.220 0  20574274.204 0
        52.000 0        44.000 0
 -21974045.13146 -14028366.49342  24443193.657 0  24443191.693 0  24443191.156 0
        40.000 0        16.000 0
 -37008025.45348 -28632277.73647  20941142.983 0  20941141.742 0  20941144.155 0
        50.000 0        42.000 0
 -32974782.63148 -23262158.79546  21591869.152 0  21591867.862 0  21591865.391 0
        49.000 0        40.000 0
 -16625442.22747 -12807353.41545  22916484.378 0  22916484.212 0  22916483.821 0
        45.000 0        32.000 0
 -11951531.31147  -9112181.97244  23933808.320 0  23933806.679 0  23933806.093 0
        44.000 0        28.000 0
 -12702432.18245     61132.75441  25796417.084 0  25796416.039 0  25796419.321 0
        33.000 0         8.000 0
  -7234047.88746  -5390996.81242  24486400.607 0  24486399.464 0  24486401.115 0
        40.000 0        14.000 0
 -34886224.99647 -26885639.33744  23733314.695 0  23733314.402 0  23733317.547 0
        42.000 0        28.000 0
 -30023693.57847 -23336937.97845  22456400.375 0  22456399.584 0  22456401.919 0
        46.000 0        34.000 0
 -12778066.42945  -1576297.86441  25028778.792 0  25028777.884 0  25028778.245 0
        33.000 0         6.000 0
-319185459.289 6          .000 0  21831527.025 0          .000 0          .000 0
        40.000 0          .000 0
  -6433955.431 6          .000 0  22751582.030 0          .000 0          .000 0
        36.000 0          .000 0
-180378308.175 6          .000 0  21140967.367 0          .000 0          .000 0
        40.000 0          .000 0
 15 01 01 00 02  0.0000000  0 14G12G14G25G02G29G31G03G10G24G06G20S36
                                S20S26
 -45984530.06648 -35351401.97847  20574212.800 0  20574211.814 0  20574210.778 0
        52.000 0        44.000 0
 -21973301.26746 -14027786.85642  24443334.947 0  24443333.218 0  24443332.671 0
        40.000 0        16.000 0
 -37011084.74548 -28634661.60047  20940560.737 0  20940559.594 0  20940561.997 0
        50.000 0        42.000 0
 -32977169.35048 -23264018.57546  21591415.018 0  21591413.660 0  21591411.218 0
        49.000 0        40.000 0
 -16630088.52247 -12810973.90545  22915600.142 0  22915600.034 0  22915599.575 0
        45.000 0        32.000 0
 -11955834.78047  -9115535.32444  23932989.268 0  23932987.784 0  23932987.158 0
        44.000 0        28.000 0
 -12701814.86845     61613.78141  25796534.178 0  25796533.543 0  25796536.786 0
        34.000 0         8.000 0
  -7238157.66446  -5394199.23442  24485618.890 0  24485617.366 0  24485619.037 0
        40.000 0        14.000 0
 -34884071.45147 -26883961.25044  23733724.665 0  23733724.196 0  23733727.303 0
        42.000 0        28.000 0
 -30023304.97147 -23336635.16745  22456474.283 0  22456473.560 0  22456475.846 0
        46.000 0        34.000 0
 -12778122.04845  -1576341.20241  25028768.477 0  25028767.275 0  25028767.637 0
        33.000 0         6.000 0
-319186940.025 6          .000 0  21831245.500 0          .000 0          .000 0
        40.000 0          .000 0
  -6435464.909 6          .000 0  22751294.809 0          .000 0          .000 0
        36.000 0          .000 0
-180379739.840 6          .000 0  21140695.493 0          .000 0          .000 0
        40.000 0          .000 0
 15 01 01 00 02  1.0000000  0 14G12G14G25G02G29G31G03G10G24G06G20S36
                                S20S26
 -45984862.77048 -35351661.22847  20574149.530 0  20574148.504 0  20574147.489 0
        52.000 0        44.000 0
 -21972556.89846 -14027206.82742  24443476.657 0  24443474.899 0  24443474.313 0
        40.000 0        16.000 0
 -37014143.51248 -28637045.05447  20939978.628 0  20939977.563 0  20939979.937 0
        50.000 0        42.000 0
 -32979555.42948 -23265877.85746  21590960.973 0  21590959.576 0  21590957.173 0
        49.000 0        40.000 0
 -16634734.52047 -12814594.16145  22914716.032 0  22914715.866 0  22914715.417 0
        45.000 0        32.000 0
 -11960137.81247  -9118888.33744  23932170.344 0  23932168.986 0  23932168.302 0
        44.000 0        28.000 0
 -12701196.98245     62095.25441  25796652.073 0  25796651.145 0  25796654.368 0
        33.000 0         8.000 0
  -7242266.99146  -5397401.30542  24484837.271 0  24484835.366 0  24484837.046 0
        40.000 0        14.000 0
 -34881917.62347 -26882282.94344  23734134.518 0  23734134.049 0  23734137.126 0
        42.000 0        28.000 0
 -30022915.72247 -23336331.85645  22456548.279 0  22456547.624 0  22456549.910 0
        46.000 0        34.000 0
 -12778177.03545  -1576384.05241  25028757.585 0  25028756.755 0  25028757.155 0
        34.000 0         6.000 0
-319188420.674 6          .000 0  21830964.345 0          .000 0          .000 0
        39.000 0          .000 0
  -6436974.180 6          .000 0  22751007.960 0          .000 0          .000 0
        36.000 0          .000 0
-180381171.487 6          .000 0  21140424.107 0          .000 0          .000 0
        40.000 0          .000 0
 15 01 01 00 02  2.0000000  0 14G12G14G25G02G29G31G03G10G24G06G20S36
                                S20S26
 -45985194.97748 -35351920.09047  20574086.329 0  20574085.283 0  20574084.277 0
        52.000 0        44.000 0
 -21971812.11546 -14026626.47842  24443618.250 0  24443616.668 0  24443616.033 0
        39.000 0        16.000 0
 -37017201.80848 -28639428.14247  20939396.577 0  20939395.591 0  20939397.935 0
        50.000 0        42.000 0
 -32981940.94348 -23267736.69946  21590506.966 0  21590505.609 0  21590503.225 0
        49.000 0        40.000 0
 -16639380.24747 -12818214.20845  22913831.855 0  22913831.767 0  22913831.327 0
        45.000 0        32.000 0
 -11964440.46747  -9122241.05644  23931351.517 0  23931350.256 0  23931349.543 0
        44.000 0        28.000 0
 -12700578.60745     62577.11141  25796769.763 0  25796768.776 0  25796772.058 0
        34.000 0         8.000 0
  -7246375.90946  -5400603.06242  24484055.740 0  24484053.425 0  24484055.183 0
        40.000 0        14.000 0
 -34879763.61347 -26880604.49444  23734544.498 0  23734543.942 0  23734546.999 0
        42.000 0        28.000 0
 -30022525.90247 -23336028.10145  22456622.480 0  22456621.776 0  22456624.091 0
        46.000 0        34.000 0
 -12778231.42345  -1576426.43741  25028747.162 0  25028746.351 0  25028746.811 0
        33.000 0         6.000 0
-319189901.374 6          .000 0  21830683.005 0          .000 0          .000 0
        40.000 0          .000 0
  -6438483.437 5          .000 0  22750720.378 0          .000 0          .000 0
        35.000 0          .000 0
-180382603.115 6          .000 0  21140151.305 0          .000 0          .000 0
        40.000 0          .000 0
 15 01 01 00 02  3.0000000  0 14G12G14G25G02G29G31G03G10G24G06G20S36
                                S20S26
 -45985526.76848 -35352178.62947  20574023.195 0  20574022.150 0  20574021.134 0
        52.000 0        44.000 0
 -21971067.00646 -14026045.87542  24443760.039 0  24443758.456 0  24443757.851 0
        39.000 0        16.000 0
 -37020259.73748 -28641810.94447  20938814.644 0  20938813.706 0  20938816.011 0
        50.000 0        42.000 0
 -32984325.98648 -23269595.17446  21590053.126 0  21590051.749 0  21590049.375 0
        49.000 0        40.000 0
 -16644025.83247 -12821834.14445  22912947.862 0  22912947.735 0  22912947.306 0
        45.000 0        32.000 0
 -11968742.82647  -9125593.54444  23930532.895 0  23930531.576 0  23930530.834 0
        44.000 0        28.000 0
 -12699959.92145     63059.21141  25796887.628 0  25796886.436 0  25796889.816 0
        35.000 0         8.000 0
  -7250484.49846  -5403804.56342  24483274.287 0  24483271.552 0  24483273.359 0
        41.000 0        14.000 0
 -34877609.50047 -26878925.96544  23734954.293 0  23734953.863 0  23734956.891 0
        42.000 0        28.000 0
 -30022135.60747 -23335723.97545  22456696.690 0  22456696.016 0  22456698.370 0
        46.000 0        34.000 0
 -12778285.38045  -1576468.48341  25028737.521 0  25028736.026 0  25028736.544 0
        34.000 0         6.000 0
-319191382.182 6          .000 0  21830400.845 0          .000 0          .000 0
        40.000 0          .000 0
  -6439993.183 5          .000 0  22750429.797 0          .000 0          .000 0
        35.000 0          .000 0
-180384034.970 6          .000 0  21139878.434 0          .000 0          .000 0
        40.000 0          .000 0
 15 01 01 00 02  4.0000000  0 14G12G14G25G02G29G31G03G10G24G06G20S36
                                S20S26
 -45985857.91648 -35352436.66747  20573960.189 0  20573959.144 0  20573958.128 0
        52.000 0        44.000 0
 -21970321.36646 -14025464.85742  24443902.130 0  24443900.342 0  24443899.786 0
        39.000 0        16.000 0
 -37023317.06548 -28644193.27847  20938232.857 0  20938231.929 0  20938234.215 0
        50.000 0        42.000 0
 -32986710.32948 -23271453.10446  21589599.384 0  21589598.036 0  21589595.662 0
        49.000 0        40.000 0
 -16648671.03047 -12825453.77745  22912063.900 0  22912063.734 0  22912063.343 0
        45.000 0        32.000 0
 -11973044.68247  -9128945.64044  23929714.253 0  23929713.013 0  23929712.202 0
        44.000 0        28.000 0
 -12699340.51345     63541.87541  25797006.187 0  25797004.175 0  25797007.809 0
        34.000 0         8.000 0
  -7254592.54846  -5407005.64142  24482492.804 0  24482489.815 0  24482491.573 0
        41.000 0        14.000 0
 -34875455.02647 -26877247.15544  23735364.400 0  23735363.892 0  23735366.871 0
        42.000 0        28.000 0
 -30021744.59647 -23335419.29145  22456770.998 0  22456770.393 0  22456772.786 0
        46.000 0        34.000 0
 -12778338.59045  -1576509.94641  25028727.469 0  25028725.887 0  25028726.434 0
        33.000 0         6.000 0
-319192862.818 6          .000 0  21830118.509 0          .000 0          .000 0
        40.000 0          .000 0
  -6441502.889 5          .000 0  22750142.215 0          .000 0          .000 0
        35.000 0          .000 0
-180385466.709 6          .000 0  21139605.788 0          .000 0          .000 0
        40.000 0          .000 0
 15 01 01 00 02  5.0000000  0 14G12G14G25G02G29G31G03G10G24G06G20S36
                                S20S26
 -45986188.52848 -35352694.28747  20573897.163 0  20573896.235 0  20573895.210 0
        52.000 0        44.000 0
 -21969575.24446 -14024883.46542  24444043.674 0  24444042.326 0  24444041.721 0
        38.000 0        16.000 0
 -37026373.89448 -28646575.22247  20937651.187 0  20937650.249 0  20937652.516 0
        50.000 0        42.000 0
 -32989094.05548 -23273310.55246  21589145.807 0  21589144.440 0  21589142.046 0
        49.000 0        40.000 0
 -16653315.93947 -12829073.18745  22911180.025 0  22911179.732 0  22911179.448 0
        45.000 0        32.000 0
 -11977346.10847  -9132297.40044  23928895.788 0  23928894.527 0  23928893.658 0
        44.000 0        28.000 0
 -12698720.67445     64024.87541  25797124.356 0  25797122.011 0  25797125.870 0
        34.000 0         8.000 0
  -7258700.16846  -5410206.38342  24481711.263 0  24481708.167 0  24481709.866 0
        41.000 0        14.000 0
 -34873300.32647 -26875568.16944  23735774.536 0  23735773.941 0  23735776.900 0
        42.000 0        28.000 0
 -30021352.98047 -23335114.13545  22456845.492 0  22456844.897 0  22456847.300 0
        46.000 0        34.000 0
 -12778391.16745  -1576550.91541  25028717.554 0  25028715.903 0  25028716.460 0
        33.000 0         6.000 0
-319194343.427 6          .000 0  21829836.104 0          .000 0          .000 0
        41.000 0          .000 0
  -6443012.419 6          .000 0  22749855.825 0          .000 0          .000 0
        36.000 0          .000 0
-180386898.381 6          .000 0  21139332.663 0          .000 0          .000 0
        40.000 0          .000 0
 15 01 01 00 02  6.0000000  0 14G12G14G25G02G29G31G03G10G24G06G20S36
                                S20S26
 -45986518.65848 -35352951.53147  20573834.274 0  20573833.415 0  20573832.389 0
        52.000 0        44.000 0
 -21968828.72546 -14024301.76242  24444185.463 0  24444184.388 0  24444183.743 0
        38.000 0        16.000 0
 -37029430.28548 -28648956.82647  20937069.654 0  20937068.629 0  20937070.885 0
        50.000 0        42.000 0
 -32991477.23148 -23275167.57246  21588692.279 0  21588690.941 0  21588688.548 0
        49.000 0        40.000 0
 -16657960.61147 -12832692.41145  22910296.228 0  22910295.788 0  22910295.593 0
        45.000 0        32.000 0
 -11981647.16947  -9135648.87744  23928077.205 0  23928076.072 0  23928075.183 0
        44.000 0        28.000 0
 -12698100.38145     64508.22541  25797242.788 0  25797240.004 0  25797243.980 0
        34.000 0         8.000 0
  -7262807.40646  -5413406.82642  24480929.898 0  24480926.626 0  24480928.296 0
        41.000 0        14.000 0
 -34871145.46947 -26873889.06044  23736184.595 0  23736184.018 0  23736186.978 0
        42.000 0        28.000 0
 -30020960.80147 -23334808.54145  22456920.045 0  22456919.537 0  22456921.862 0
        46.000 0        34.000 0
 -12778443.20045  -1576591.46041  25028707.522 0  25028705.979 0  25028706.604 0
        33.000 0         6.000 0
-319195824.152 6          .000 0  21829555.350 0          .000 0          .000 0
        40.000 0          .000 0
  -6444521.780 5          .000 0  22749568.263 0          .000 0          .000 0
        35.000 0          .000 0
-180388330.002 6          .000 0  21139059.920 0          .000 0          .000 0
        40.000 0          .000 0
 15 01 01 00 02  7.0000000  0 14G12G14G25G02G29G31G03G10G24G06G20S36
                                S20S26
 -45986848.23148 -35353208.34147  20573771.473 0  20573770.692 0  20573769.666 0
        52.000 0        44.000 0
 -21968081.75746 -14023719.71042  24444327.075 0  24444326.587 0  24444325.884 0
        38.000 0        16.000 0
 -37032486.14548 -28651338.01547  20936488.141 0  20936487.105 0  20936489.372 0
        50.000 0        42.000 0
 -32993859.77948 -23277024.10346  21588238.967 0  21588237.550 0  21588235.177 0
        49.000 0        40.000 0
 -16662604.99447 -12836311.41045  22909412.451 0  22909411.962 0  22909411.806 0
        45.000 0        32.000 0
 -11985947.80647  -9139000.02344  23927258.759 0  23927257.684 0  23927256.795 0
        44.000 0        28.000 0
 -12697479.48945     64992.04041  25797360.917 0  25797358.133 0  25797362.168 0
        33.000 0        10.000 0
  -7266914.15746  -5416606.89142  24480148.093 0  24480145.172 0  24480146.804 0
        41.000 0        14.000 0
 -34868990.35347 -26872209.74844  23736594.614 0  23736594.116 0  23736597.085 0
        42.000 0        28.000 0
 -30020568.00547 -23334502.46645  22456994.812 0  22456994.275 0  22456996.561 0
        46.000 0        34.000 0
 -12778494.59245  -1576631.50740  25028697.871 0  25028696.152 0  25028696.904 0
        33.000 0         4.000 0
-319197304.725 6          .000 0  21829273.512 0          .000 0          .000 0
        40.000 0          .000 0
  -6446031.232 5          .000 0  22749281.784 0          .000 0          .000 0
        35.000 0          .000 0
-180389761.554 6          .000 0  21138786.648 0          .000 0          .000 0
        40.000 0          .000 0
 15 01 01 00 02  8.0000000  0 14G12G14G25G02G29G31G03G10G24G06G20S36
                                S20S26
 -45987177.45948 -35353464.88247  20573708.721 0  20573708.027 0  20573707.011 0
        52.000 0        44.000 0
 -21967334.50246 -14023137.43442  24444469.147 0  24444468.825 0  24444468.073 0
        38.000 0        16.000 0
 -37035541.70448 -28653718.97147  20935906.813 0  20935905.661 0  20935907.907 0
        50.000 0        42.000 0
 -32996241.91848 -23278880.31446  21587785.615 0  21587784.228 0  21587781.864 0
        49.000 0        40.000 0
 -16667249.28547 -12839930.33745  22908528.742 0  22908528.156 0  22908528.048 0
        45.000 0        32.000 0
 -11990248.20147  -9142350.98144  23926440.215 0  23926439.326 0  23926438.408 0
        43.000 0        28.000 0
 -12696858.35545     65476.04441  25797479.770 0  25797476.351 0  25797480.268 0
        33.000 0        10.000 0
  -7271020.68546  -5419806.78242  24479366.572 0  24479363.758 0  24479365.321 0
        41.000 0        14.000 0
 -34866835.20347 -26870530.41144  23737004.643 0  23737004.223 0  23737007.173 0
        42.000 0        28.000 0
 -30020174.77147 -23334196.05045  22457069.716 0  22457069.091 0  22457071.377 0
        46.000 0        34.000 0
 -12778545.57545  -1576671.23940  25028688.171 0  25028686.461 0  25028687.253 0
        33.000 0         2.000 0
-319198785.416 6          .000 0  21828990.795 0          .000 0          .000 0
        40.000 0          .000 0
  -6447540.807 6          .000 0  22748993.607 0          .000 0          .000 0
        36.000 0          .000 0
-180391193.355 6          .000 0  21138513.778 0          .000 0          .000 0
        40.000 0          .000 0
 15 01 01 00 02  9.0000000  0 14G12G14G25G02G29G31G03G10G24G06G20S36
                                S20S26
 -45987506.09248 -35353720.96047  20573646.096 0  20573645.480 0  20573644.474 0
        52.000 0        44.000 0
 -21966586.77746 -14022554.79242  24444611.170 0  24444611.062 0  24444610.301 0
        38.000 0        16.000 0
 -37038596.71448 -28656099.49847  20935325.554 0  20935324.313 0  20935326.540 0
        51.000 0        42.000 0
 -32998623.39348 -23280736.00946  21587332.497 0  21587331.062 0  21587328.688 0
        49.000 0        40.000 0
 -16671893.22947 -12843548.99345  22907645.062 0  22907644.369 0  22907644.369 0
        45.000 0        32.000 0
 -11994548.13747  -9145701.58144  23925621.788 0  23925621.056 0  23925620.118 0
        43.000 0        28.000 0
 -12696236.56345     65960.56241  25797597.811 0  25797594.695 0  25797598.524 0
        33.000 0        10.000 0
  -7275126.71446  -5423006.28442  24478585.128 0  24478582.442 0  24478583.946 0
        41.000 0        14.000 0
 -34864679.76247 -26868850.84644  23737414.760 0  23737414.369 0  23737417.329 0
        42.000 0        28.000 0
 -30019780.90647 -23333889.14145  22457144.591 0  22457144.034 0  22457146.340 0
        46.000 0        34.000 0
 -12778595.89345  -1576710.44840  25028678.187 0  25028676.927 0  25028677.680 0
        33.000 0         2.000 0
-319200266.025 6          .000 0  21828708.791 0          .000 0          .000 0
        40.000 0          .000 0
  -6449050.445 5          .000 0  22748707.275 0          .000 0          .000 0
        34.000 0          .000 0
-180392625.035 6          .000 0  21138242.460 0          .000 0          .000 0
        40.000 0          .000 0
 15 01 01 00 02 10.0000000  0 14G12G14G25G02G29G31G03G10G24G06G20S36
                                S20S26
 -45987834.10048 -35353976.55147  20573583.636 0  20573583.050 0  20573582.044 0
        52.000 0        44.000 0
 -21965838.49846 -14021971.71942  24444753.251 0  24444753.408 0  24444752.626 0
        37.000 0        16.000 0
 -37041651.12248 -28658479.55747  20934744.333 0  20934743.064 0  20934745.310 0
        51.000 0        42.000 0
 -33001004.17848 -23282591.16646  21586879.390 0  21586877.993 0  21586875.639 0
        49.000 0        40.000 0
 -16676536.79547 -12847167.35545  22906761.529 0  22906760.650 0  22906760.748 0
        45.000 0        32.000 0
 -11998847.56847  -9149051.78844  23924803.557 0  23924802.912 0  23924801.945 0
        43.000 0        28.000 0
 -12695614.27145     66445.47841  25797715.921 0  25797713.108 0  25797716.956 0
        33.000 0        10.000 0
  -7279232.19746  -5426205.36242  24477803.861 0  24477801.233 0  24477802.728 0
        41.000 0        14.000 0
 -34862523.99347 -26867171.02644  23737825.043 0  23737824.574 0  23737827.573 0
        42.000 0        28.000 0
 -30019386.33247 -23333581.68145  22457219.710 0  22457219.105 0  22457221.459 0
        46.000 0        34.000 0
 -12778645.45745  -1576749.07240  25028668.986 0  25028667.511 0  25028668.214 0
        33.000 0         2.000 0
-319201746.590 6          .000 0  21828428.046 0          .000 0          .000 0
        40.000 0          .000 0
  -6450559.810 5          .000 0  22748420.084 0          .000 0          .000 0
        35.000 0          .000 0
-180394056.567 6          .000 0  21137971.250 0          .000 0          .000 0
        40.000 0          .000 0
 15 01 01 00 02 11.0000000  0 14G12G14G25G02G29G31G03G10G24G06G20S36
                                S20S26
 -45988161.64148 -35354231.77747  20573521.275 0  20573520.708 0  20573519.722 0
        52.000 0        44.000 0
 -21965089.83046 -14021388.34442  24444895.225 0  24444895.851 0  24444895.079 0
        37.000 0        16.000 0
 -37044705.10348 -28660859.28247  20934163.152 0  20934161.892 0  20934164.158 0
        50.000 0        42.000 0
 -33003384.41548 -23284445.89646  21586426.438 0  21586425.012 0  21586422.697 0
        49.000 0        40.000 0
 -16681180.13847 -12850785.54445  22905878.114 0  22905877.000 0  22905877.215 0
        45.000 0        32.000 0
 -12003146.63547  -9152401.71144  23923985.521 0  23923984.837 0  23923983.851 0
        43.000 0        26.000 0
 -12694991.49845     66930.75941  25797833.826 0  25797831.667 0  25797835.486 0
        32.000 0        10.000 0
  -7283337.31046  -5429404.15242  24477022.495 0  24477020.083 0  24477021.577 0
        40.000 0        14.000 0
 -34860368.04747 -26865491.06844  23738235.257 0  23738234.827 0  23738237.846 0
        42.000 0        28.000 0
 -30018991.21747 -23333273.79945  22457294.986 0  22457294.282 0  22457296.685 0
        46.000 0        34.000 0
 -12778694.56845  -1576787.34440  25028659.540 0  25028658.162 0          .000 0
        33.000 0          .000 0
-319203227.165 6          .000 0  21828146.570 0          .000 0          .000 0
        40.000 0          .000 0
  -6452068.986 5          .000 0  22748135.130 0          .000 0          .000 0
        35.000 0          .000 0
-180395488.053 6          .000 0  21137699.161 0          .000 0          .000 0
        40.000 0          .000 0
 15 01 01 00 02 12.0000000  0 13G12G14G25G02G29G31G10G24G06G20S36S20
                                S26
 -45988488.63348 -35354486.57747  20573459.040 0  20573458.474 0  20573457.497 0
        52.000 0        44.000 0
 -21964340.72646 -14020804.63042  24445037.629 0  24445038.372 0  24445037.629 0
        38.000 0        16.000 0
 -37047758.57848 -28663238.61347  20933582.069 0  20933580.818 0  20933583.075 0
        50.000 0        42.000 0
 -33005764.04148 -23286300.14946  21585973.497 0  21585972.178 0  21585969.873 0
        49.000 0        40.000 0
 -16685823.19047 -12854403.50545  22904994.707 0  22904993.408 0  22904993.731 0
        45.000 0        32.000 0
 -12007445.29447  -9155751.31744  23923167.651 0  23923166.821 0  23923165.776 0
        43.000 0        26.000 0
  -7287441.97746  -5432602.59242  24476241.228 0  24476238.962 0  24476240.515 0
        40.000 0        14.000 0
 -34858211.85347 -26863810.91744  23738645.540 0  23738645.130 0  23738648.158 0
        42.000 0        28.000 0
 -30018595.48147 -23332965.43345  22457370.447 0  22457369.597 0  22457372.029 0
        46.000 0        34.000 0
 -12778743.03645  -1576825.11140  25028650.045 0  25028648.921 0          .000 0
        33.000 0          .000 0
-319204707.765 6          .000 0  21827864.605 0          .000 0          .000 0
        40.000 0          .000 0
  -6453578.046 5          .000 0  22747848.505 0          .000 0          .000 0
        35.000 0          .000 0
-180396919.473 6          .000 0  21137427.706 0          .000 0          .000 0
        40.000 0          .000 0
 15 01 01 00 02 13.0000000  0 13G12G14G25G02G29G31G10G24G06G20S36S20
                                S26
 -45988815.09948 -35354740.96647  20573396.884 0  20573396.337 0  20573395.350 0
        52.000 0        44.000 0
 -21963591.16646 -14020220.56142  24445180.639 0  24445180.922 0  24445180.248 0
        38.000 0        16.000 0
 -37050811.56948 -28665617.56747  20933001.112 0  20932999.842 0  20933002.099 0
        50.000 0        42.000 0
 -33008143.07348 -23288153.94046  21585520.829 0  21585519.481 0  21585517.156 0
        49.000 0        40.000 0
 -16690465.97647 -12858021.25945  22904111.106 0  22904109.866 0  22904110.315 0
        45.000 0        32.000 0
 -12011743.54147  -9159100.60144  23922349.625 0  23922348.883 0  23922347.789 0
        43.000 0        26.000 0
  -7291546.21046  -5435800.69642  24475459.999 0  24475457.929 0  24475459.531 0
        40.000 0        14.000 0
 -34856055.41447 -26862130.57544  23739055.901 0  23739055.481 0  23739058.519 0
        42.000 0        28.000 0
 -30018199.16647 -23332656.61645  22457446.064 0  22457445.009 0  22457447.471 0
        46.000 0        34.000 0
 -12778790.79745  -1576862.32540  25028641.116 0          .000 0          .000 0
        33.000 0         2.000 0
-319206188.371 6          .000 0  21827583.226 0          .000 0          .000 0
        40.000 0          .000 0
  -6455087.308 6          .000 0  22747559.448 0          .000 0          .000 0
        36.000 0          .000 0
-180398350.984 6          .000 0  21137154.924 0          .000 0          .000 0
        40.000 0          .000 0
 15 01 01 00 02 14.0000000  0 14G12G14G25G02G29G31G03G10G24G06G20S36
                                S20S26
 -45989141.16648 -35354995.04447  20573334.816 0  20573334.288 0  20573333.282 0
        52.000 0        44.000 0
 -21962841.28546 -14019636.23942  24445323.609 0  24445323.531 0  24445322.925 0
        38.000 0        16.000 0
 -37053864.18648 -28667996.23047  20932420.195 0  20932418.925 0  20932421.181 0
        50.000 0        42.000 0
 -33010521.63448 -23290007.36446  21585068.132 0  21585066.871 0  21585064.527 0
        49.000 0        40.000 0
 -16695108.59647 -12861638.88445  22903227.690 0  22903226.362 0  22903226.919 0
        45.000 0        32.000 0
 -12016041.51047  -9162449.66844  23921531.668 0  23921531.033 0  23921529.880 0
        42.000 0        26.000 0
 -12693120.25745     68388.88641  25798188.380 0  25798188.292 0  25798191.564 0
        32.000 0         8.000 0
  -7295650.13246  -5438998.55642  24474678.820 0  24474676.954 0  24474678.585 0
        40.000 0        14.000 0
 -34853898.87747 -26860450.15744  23739466.399 0  23739465.823 0  23739468.890 0
        42.000 0        28.000 0
 -30017802.36247 -23332347.41845  22457521.662 0  22457520.519 0  22457522.971 0
        46.000 0        34.000 0
 -12778838.19345  -1576899.25840  25028632.589 0          .000 0          .000 0
        33.000 0         2.000 0
-319207669.139 6          .000 0  21827301.300 0          .000 0          .000 0
        40.000 0          .000 0
  -6456596.918 5          .000 0  22747272.345 0          .000 0          .000 0
        35.000 0          .000 0
-180399782.683 6          .000 0  21136880.744 0          .000 0          .000 0
        40.000 0          .000 0
 15 01 01 00 02 15.0000000  0 13G12G14G25G02G29G31G10G24G06G20S36S20
                                S26
 -45989466.71748 -35355248.72047  20573272.903 0  20573272.327 0  20573271.331 0
        52.000 0        44.000 0
 -21962090.99446 -14019051.59942  24445466.462 0  24445466.248 0  24445465.661 0
        38.000 0        16.000 0
 -37056916.32548 -28670374.52147  20931839.355 0  20931838.105 0  20931840.352 0
        50.000 0        42.000 0
 -33012899.60048 -23291860.32446  21584615.610 0  21584614.389 0  21584612.035 0
        49.000 0        40.000 0
 -16699750.93947 -12865256.29345  22902344.304 0  22902343.005 0  22902343.561 0
        45.000 0        32.000 0
 -12020339.05647  -9165798.40544  23920713.769 0  23920713.261 0  23920712.049 0
        43.000 0        26.000 0
  -7299753.64246  -5442196.09642  24473897.777 0  24473896.067 0  24473897.709 0
        40.000 0        14.000 0
 -34851742.15147 -26858769.59144  23739877.004 0  23739876.203 0  23739879.300 0
        42.000 0        28.000 0
 -30017404.97547 -23332037.76545  22457597.513 0  22457596.126 0  22457598.578 0
        46.000 0        34.000 0
 -12778884.92345  -1576935.67140  25028623.729 0  25028621.843 0  25028622.556 0
        33.000 0         2.000 0
-319209149.870 6          .000 0  21827019.120 0          .000 0          .000 0
        40.000 0          .000 0
  -6458106.507 6          .000 0  22746985.583 0          .000 0          .000 0
        36.000 0          .000 0
-180401214.293 6          .000 0  21136608.782 0          .000 0          .000 0
        40.000 0          .000 0
 15 01 01 00 02 16.0000000  0 13G12G14G25G02G29G31G10G24G06G20S36S20
                                S26
 -45989791.85048 -35355502.07147  20573211.050 0  20573210.454 0  20573209.467 0
        52.000 0        44.000 0
 -21961340.35546 -14018466.68742  24445609.550 0  24445609.013 0  24445608.466 0
        38.000 0        16.000 0
 -37059968.07848 -28672752.51047  20931258.663 0  20931257.354 0  20931259.639 0
        50.000 0        42.000 0
 -33015277.08748 -23293712.91146  21584163.206 0  21584161.994 0  21584159.621 0
        49.000 0        40.000 0
 -16704393.13147 -12868873.58445  22901460.790 0  22901459.638 0  22901460.214 0
        45.000 0        32.000 0
 -12024636.32147  -9169146.92444  23919895.879 0  23919895.528 0  23919894.326 0
        42.000 0        26.000 0
  -7303856.81046  -5445393.37142  24473116.939 0  24473115.259 0  24473116.881 0
        40.000 0        14.000 0
 -34849585.28347 -26857088.91644  23740287.365 0  23740286.633 0  23740289.729 0
        42.000 0        28.000 0
 -30017007.10647 -23331727.73745  22457673.150 0  22457671.831 0  22457674.283 0
        46.000 0        34.000 0
 -12778931.17145  -1576971.71040  25028614.761 0  25028613.071 0          .000 0
        33.000 0          .000 0
-319210630.686 6          .000 0  21826737.526 0          .000 0          .000 0
        40.000 0          .000 0
  -6459616.285 5          .000 0  22746697.103 0          .000 0          .000 0
        35.000 0          .000 0
-180402645.966 6          .000 0  21136336.497 0          .000 0          .000 0
        40.000 0          .000 0
 15 01 01 00 02 17.0000000  0 13G12G14G25G02G29G31G10G24G06G20S36S20
                                S26
 -45990116.50848 -35355755.05247  20573149.245 0  20573148.669 0  20573147.692 0
        52.000 0        44.000 0
 -21960589.36046 -14017881.50142  24445752.980 0  24445751.915 0  24445751.417 0
        39.000 0        16.000 0
 -37063019.40448 -28675130.16747  20930677.940 0  20930676.690 0  20930678.995 0
        50.000 0        42.000 0
 -33017654.03948 -23295565.08146  21583710.870 0  21583709.678 0  21583707.285 0
        49.000 0        40.000 0
 -16709035.09947 -12872490.70145  22900577.384 0  22900576.241 0  22900576.896 0
        45.000 0        32.000 0
 -12028933.25347  -9172495.18444  23919077.824 0  23919077.863 0  23919076.671 0
        42.000 0        26.000 0
  -7307959.61646  -5448590.36342  24472335.974 0  24472334.539 0  24472336.121 0
        40.000 0        14.000 0
 -34847428.27047 -26855408.12744  23740697.805 0  23740697.082 0  23740700.178 0
        42.000 0        28.000 0
 -30016608.69347 -23331417.28545  22457748.914 0  22457747.664 0  22457750.106 0
        46.000 0        34.000 0
 -12778976.91445  -1577007.35840  25028605.638 0  25028604.426 0          .000 0
        33.000 0          .000 0
-319212111.521 6          .000 0  21826455.912 0          .000 0          .000 0
        40.000 0          .000 0
  -6461125.896 5          .000 0  22746410.732 0          .000 0          .000 0
        35.000 0          .000 0
-180404077.570 6          .000 0  21136064.310 0          .000 0          .000 0
        40.000 0          .000 0
 15 01 01 00 02 18.0000000  0 13G12G14G25G02G29G31G10G24G06G20S36S20
                                S26
 -45990440.57448 -35356007.57047  20573087.606 0  20573087.001 0  20573086.024 0
        52.000 0        44.000 0
 -21959837.83646 -14017295.90242  24445896.312 0  24445894.905 0  24445894.456 0
        39.000 0        16.000 0
 -37066070.16848 -28677507.38647  20930097.326 0  20930096.154 0  20930098.459 0
        50.000 0        42.000 0
 -33020030.31148 -23297416.72246  21583258.710 0  21583257.489 0  21583255.086 0
        49.000 0        40.000 0
 -16713676.71547 -12876107.54445  22899693.900 0  22899692.914 0  22899693.617 0
        45.000 0        32.000 0
 -12033229.67847  -9175843.04844  23918260.228 0  23918260.276 0  23918259.094 0
        42.000 0        26.000 0
  -7312061.91546  -5451786.96142  24471555.352 0  24471553.867 0  24471555.440 0
        40.000 0        14.000 0
 -34845270.94847 -26853727.09844  23741108.263 0  23741107.579 0  23741110.676 0
        42.000 0        28.000 0
 -30016209.61847 -23331106.31745  22457824.844 0  22457823.642 0  22457826.055 0
        46.000 0        34.000 0
 -12779021.96645  -1577042.46240  25028596.875 0  25028595.859 0          .000 0
        34.000 0          .000 0
-319213592.285 6          .000 0  21826174.533 0          .000 0          .000 0
        40.000 0          .000 0
  -6462635.118 5          .000 0  22746122.974 0          .000 0          .000 0
        35.000 0          .000 0
-180405509.186 6          .000 0  21135790.726 0          .000 0          .000 0
        40.000 0          .000 0
 15 01 01 00 02 19.0000000  0 13G12G14G25G02G29G31G10G24G06G20S36S20
                                S26
 -45990764.05348 -35356259.63247  20573026.095 0  20573025.431 0  20573024.454 0
        52.000 0        44.000 0
 -21959085.81846 -14016709.91642  24446039.878 0  24446038.002 0  24446037.524 0
        39.000 0        16.000 0
 -37069120.37348 -28679884.17047  20929516.877 0  20929515.715 0  20929518.030 0
        50.000 0        42.000 0
 -33022405.92448 -23299267.84946  21582806.618 0  21582805.426 0  21582803.013 0
        49.000 0        40.000 0
 -16718317.99647 -12879724.12545  22898810.572 0  22898809.703 0  22898810.367 0
        45.000 0        32.000 0
 -12037525.63247  -9179190.54544  23917442.416 0  23917442.768 0  23917441.596 0
        42.000 0        26.000 0
  -7316163.72346  -5454983.17442  24470774.690 0  24470773.312 0  24470774.866 0
        40.000 0        14.000 0
 -34843113.33347 -26852045.84144  23741518.898 0  23741518.126 0  23741521.242 0
        42.000 0        28.000 0
 -30015809.87447 -23330794.82745  22457900.715 0  22457899.738 0  22457902.131 0
        46.000 0        34.000 0
 -12779066.35045  -1577077.04040  25028588.142 0  25028587.380 0          .000 0
        33.000 0          .000 0
-319215073.037 6          .000 0  21825893.496 0          .000 0          .000 0
        40.000 0          .000 0
  -6464144.340 6          .000 0  22745835.470 0          .000 0          .000 0
        36.000 0          .000 0
-180406940.802 6          .000 0  21135518.442 0          .000 0          .000 0
        40.000 0          .000 0
 15 01 01 00 02 20.0000000  0 13G12G14G25G02G29G31G10G24G06G20S36S20
                                S26
 -45991087.07248 -35356511.33647  20572964.642 0  20572963.958 0  20572962.981 0
        52.000 0        44.000 0
 -21958333.42446 -14016123.63642  24446183.415 0  24446181.188 0  24446180.670 0
        39.000 0        16.000 0
 -37072170.16248 -28682260.62947  20928936.438 0  20928935.354 0  20928937.679 0
        50.000 0        42.000 0
 -33024781.01548 -23301118.56846  21582354.653 0  21582353.471 0  21582351.058 0
        49.000 0        40.000 0
 -16722959.06647 -12883340.54245  22897927.244 0  22897926.541 0  22897927.166 0
        45.000 0        32.000 0
 -12041821.27147  -9182537.79544  23916624.986 0  23916625.309 0  23916624.185 0
        42.000 0        26.000 0
  -7320265.17046  -5458179.10542  24469994.038 0  24469992.875 0  24469994.409 0
        40.000 0        14.000 0
 -34840955.56747 -26850364.46644  23741929.435 0  23741928.722 0  23741931.867 0
        42.000 0        28.000 0
 -30015409.60347 -23330482.92745  22457976.782 0  22457975.912 0  22457978.296 0
        46.000 0        34.000 0
 -12779110.14945  -1577111.16340  25028580.122 0  25028579.009 0          .000 0
        33.000 0          .000 0
-319216553.851 6          .000 0  21825612.176 0          .000 0          .000 0
        40.000 0          .000 0
  -6465653.893 6          .000 0  22745549.813 0          .000 0          .000 0
        36.000 0          .000 0
-180408372.283 6          .000 0  21135246.235 0          .000 0          .000 0
        40.000 0          .000 0
 15 01 01 00 02 21.0000000  0 13G12G14G25G02G29G31G10G24G06G20S36S20
                                S26
 -45991409.62148 -35356762.67247  20572903.355 0  20572902.573 0  20572901.596 0
        52.000 0        44.000 0
 -21957580.64246 -14015537.05642  24446327.001 0  24446324.432 0  24446323.914 0
        39.000 0        16.000 0
 -37075219.50648 -28684636.74147  20928356.058 0  20928355.081 0  20928357.416 0
        50.000 0        42.000 0
 -33027155.55548 -23302968.85946  21581902.874 0  21581901.624 0  21581899.201 0
        49.000 0        40.000 0
 -16727599.91047 -12886956.78445  22897044.083 0  22897043.428 0  22897044.024 0
        45.000 0        32.000 0
 -12046116.52947  -9185884.75044  23915807.771 0  23915807.918 0  23915806.843 0
        42.000 0        26.000 0
  -7324366.21846  -5461374.72942  24469213.669 0  24469212.497 0  24469214.020 0
        40.000 0        14.000 0
 -34838797.63947 -26848682.96544  23742340.216 0  23742339.356 0  23742342.531 0
        42.000 0        28.000 0
 -30015008.79947 -23330170.61145  22458052.946 0  22458052.203 0  22458054.567 0
        46.000 0        34.000 0
 -12779153.42845  -1577144.88640  25028572.122 0  25028570.735 0  25028571.360 0
        32.000 0         2.000 0
-319218034.668 6          .000 0  21825329.615 0          .000 0          .000 0
        40.000 0          .000 0
  -6467163.417 6          .000 0  22745262.729 0          .000 0          .000 0
        36.000 0          .000 0
-180409803.614 6          .000 0  21134974.478 0          .000 0          .000 0
        40.000 0          .000 0
 15 01 01 00 02 22.0000000  0 13G12G14G25G02G29G31G10G24G06G20S36S20
                                S26
 -45991731.68048 -35357013.62847  20572842.087 0  20572841.277 0  20572840.300 0
        52.000 0        44.000 0
 -21956827.46046 -14014950.16042  24446470.274 0  24446467.763 0  24446467.226 0
        39.000 0        16.000 0
 -37078268.40648 -28687012.50747  20927775.815 0  20927774.877 0  20927777.231 0
        50.000 0        42.000 0
 -33029529.54348 -23304818.71946  21581451.261 0  21581449.893 0  21581447.461 0
        49.000 0        40.000 0
 -16732240.51747 -12890572.84045  22896160.882 0  22896160.344 0  22896160.931 0
        45.000 0        32.000 0
 -12050411.41547  -9189231.41544  23914990.507 0  23914990.585 0  23914989.569 0
        42.000 0        26.000 0
  -7328466.88846  -5464570.05242  24468433.573 0  24468432.157 0  24468433.691 0
        40.000 0        14.000 0
 -34836639.51047 -26847001.30644  23742750.958 0  23742750.049 0  23742753.244 0
        42.000 0        28.000 0
 -30014607.41747 -23329857.84645  22458129.149 0  22458128.602 0  22458130.937 0
        46.000 0        34.000 0
 -12779196.17645  -1577178.19640  25028563.702 0  25028562.549 0  25028563.155 0
        32.000 0         2.000 0
-319219515.551 6          .000 0  21825047.542 0          .000 0          .000 0
        40.000 0          .000 0
  -6468672.856 6          .000 0  22744975.225 0          .000 0          .000 0
        36.000 0          .000 0
-180411235.254 6          .000 0  21134701.812 0          .000 0          .000 0
        40.000 0          .000 0
 15 01 01 00 02 23.0000000  0 12G12G14G25G02G29G31G10G24G06S36S20S26
 -45992053.20348 -35357264.16547  20572780.976 0  20572780.117 0  20572779.120 0
        52.000 0        44.000 0
 -21956073.83846 -14014362.92442  24446613.332 0  24446611.134 0  24446610.656 0
        39.000 0        16.000 0
 -37081316.79748 -28689387.87747  20927195.640 0  20927194.760 0  20927197.144 0
        50.000 0        42.000 0
 -33031902.92048 -23306668.10446  21580999.785 0  21580998.271 0  21580995.809 0
        50.000 0        40.000 0
 -16736880.82747 -12894188.66445  22895278.042 0  22895277.241 0  22895277.886 0
        45.000 0        32.000 0
 -12054705.92247  -9192577.78544  23914173.311 0  23914173.331 0  23914172.373 0
        42.000 0        26.000 0
  -7332567.08846  -5467765.01142  24467652.970 0  24467651.905 0  24467653.459 0
        40.000 0        14.000 0
 -34834481.13047 -26845319.45244  23743161.817 0  23743160.782 0  23743163.996 0
        42.000 0        28.000 0
 -30014205.43647 -23329544.61245  22458205.587 0  22458205.108 0  22458207.453 0
        46.000 0        34.000 0
-319220996.314 6          .000 0  21824765.362 0          .000 0          .000 0
        40.000 0          .000 0
  -6470182.229 5          .000 0  22744688.268 0          .000 0          .000 0
        35.000 0          .000 0
-180412667.042 6          .000 0  21134429.850 0          .000 0          .000 0
        40.000 0          .000 0
 15 01 01 00 02 24.0000000  0 12G12G14G25G02G29G31G10G24G06S36S20S26
 -45992374.19648 -35357514.29047  20572719.943 0  20572719.035 0  20572718.028 0
        52.000 0        44.000 0
 -21955319.76446 -14013775.33542  24446756.791 0  24446754.583 0  24446754.183 0
        39.000 0        16.000 0
 -37084364.70648 -28691762.87147  20926615.572 0  20926614.781 0  20926617.174 0
        50.000 0        42.000 0
 -33034275.70548 -23308517.02746  21580548.396 0  21580546.765 0  21580544.294 0
        50.000 0        40.000 0
 -16741520.87047 -12897804.28145  22894394.968 0  22894394.197 0  22894394.890 0
        45.000 0        32.000 0
 -12059000.00447  -9195923.82244  23913356.135 0  23913356.193 0  23913355.207 0
        42.000 0        26.000 0
  -7336666.87146  -5470959.64642  24466872.924 0  24466871.712 0  24466873.314 0
        40.000 0        14.000 0
 -34832322.55347 -26843637.44444  23743572.569 0  23743571.563 0  23743574.786 0
        42.000 0        28.000 0
 -30013802.86047 -23329230.91645  22458282.122 0  22458281.673 0  22458284.076 0
        46.000 0        34.000 0
-319222477.061 6          .000 0  21824483.739 0          .000 0          .000 0
        40.000 0          .000 0
  -6471691.740 6          .000 0  22744400.012 0          .000 0          .000 0
        36.000 0          .000 0
-180414098.802 6          .000 0  21134157.605 0          .000 0          .000 0
        40.000 0          .000 0
 15 01 01 00 02 25.0000000  0 12G12G14G25G02G29G31G10G24G06S36S20S26
 -45992694.73948 -35357764.06347  20572658.871 0  20572658.050 0  20572657.035 0
        52.000 0        44.000 0
 -21954565.36246 -14013187.49042  24446900.123 0  24446898.111 0  24446897.759 0
        39.000 0        16.000 0
 -37087412.19648 -28694137.53947  20926035.709 0  20926034.869 0  20926037.292 0
        50.000 0        42.000 0
 -33036647.96648 -23310365.54246  21580096.998 0  21580095.338 0  21580092.866 0
        50.000 0        40.000 0
 -16746160.70347 -12901419.73345  22893512.012 0  22893511.240 0  22893511.933 0
        45.000 0        32.000 0
 -12063293.73546  -9199269.58844  23912539.144 0  23912539.125 0  23912538.119 0
        41.000 0        26.000 0
  -7340766.30046  -5474154.00742  24466093.014 0  24466091.607 0  24466093.239 0
        40.000 0        14.000 0
 -34830163.82247 -26841955.31744  23743983.536 0  23743982.373 0  23743985.607 0
        42.000 0        28.000 0
 -30013399.77647 -23328916.82445  22458358.687 0  22458358.365 0  22458360.787 0
        46.000 0        34.000 0
-319223957.842 6          .000 0  21824201.403 0          .000 0          .000 0
        40.000 0          .000 0
  -6473201.334 5          .000 0  22744113.847 0          .000 0          .000 0
        35.000 0          .000 0
-180415530.326 6          .000 0  21133885.027 0          .000 0          .000 0
        40.000 0          .000 0
 15 01 01 00 02 26.0000000  0 12G12G14G25G02G29G31G10G24G06S36S20S26
 -45993014.79448 -35358013.45747  20572597.916 0  20572597.135 0  20572596.119 0
        52.000 0        44.000 0
 -21953810.52346 -14012599.30542  24447043.474 0  24447041.736 0  24447041.423 0
        39.000 0        16.000 0
 -37090459.23048 -28696511.85147  20925455.847 0  20925455.056 0  20925457.468 0
        50.000 0        42.000 0
 -33039019.66048 -23312213.61546  21579645.805 0  21579644.027 0  21579641.546 0
        50.000 0        40.000 0
 -16750800.29247 -12905034.99645  22892629.201 0  22892628.322 0  22892629.026 0
        45.000 0        32.000 0
 -12067587.10647  -9202615.07144  23911722.144 0  23911722.085 0  23911721.118 0
        42.000 0        26.000 0
  -7344865.31746  -5477348.04742  24465313.026 0  24465311.658 0  24465313.270 0
        40.000 0        14.000 0
 -34828004.88347 -26840273.02844  23744394.317 0  23744393.213 0  23744396.466 0
        42.000 0        28.000 0
 -30012996.10447 -23328602.27345  22458435.506 0  22458435.184 0  22458437.596 0
        46.000 0        34.000 0
-319225438.617 6          .000 0  21823920.727 0          .000 0          .000 0
        40.000 0          .000 0
  -6474710.924 5          .000 0  22743824.556 0          .000 0          .000 0
        35.000 0          .000 0
-180416961.800 6          .000 0  21133613.319 0          .000 0          .000 0
        40.000 0          .000 0
 15 01 01 00 02 27.0000000  0 12G12G14G25G02G29G31G10G24G06S36S20S26
 -45993334.29248 -35358262.41647  20572537.176 0  20572536.336 0  20572535.310 0
        52.000 0        44.000 0
 -21953055.20246 -14012010.74542  24447187.119 0  24447185.468 0  24447185.155 0
        39.000 0        16.000 0
 -37093505.73248 -28698885.74947  20924876.170 0  20924875.340 0  20924877.752 0
        50.000 0        42.000 0
 -33041390.71548 -23314061.19046  21579194.671 0  21579192.854 0  21579190.353 0
        50.000 0        40.000 0
 -16755439.55447 -12908650.00445  22891746.450 0  22891745.502 0  22891746.157 0
        45.000 0        32.000 0
 -12071880.01447  -9205960.19444  23910905.280 0  23910905.134 0  23910904.215 0
        42.000 0        26.000 0
  -7348963.85746  -5480541.71342  24464533.224 0  24464531.798 0  24464533.400 0
        40.000 0        14.000 0
 -34825845.66847 -26838590.52444  23744805.225 0  23744804.111 0  23744807.374 0
        42.000 0        28.000 0
 -30012591.80747 -23328287.23645  22458512.501 0  22458512.139 0  22458514.513 0
        46.000 0        34.000 0
-319226919.308 6          .000 0  21823638.850 0          .000 0          .000 0
        40.000 0          .000 0
  -6476220.269 5          .000 0  22743536.397 0          .000 0          .000 0
        35.000 0          .000 0
-180418393.287 6          .000 0  21133340.399 0          .000 0          .000 0
        40.000 0          .000 0
 15 01 01 00 02 28.0000000  0 12G12G14G25G02G29G31G10G24G06S36S20S26
 -45993653.19648 -35358510.91347  20572476.524 0  20572475.645 0  20572474.610 0
        52.000 0        44.000 0
 -21952299.38246 -14011421.79542  24447330.890 0  24447329.308 0  24447328.995 0
        39.000 0        16.000 0
 -37096551.67548 -28701259.21147  20924296.688 0  20924295.751 0  20924298.154 0
        50.000 0        42.000 0
 -33043761.11448 -23315908.25446  21578743.624 0  21578741.788 0  21578739.268 0
        50.000 0        40.000 0
 -16760078.48047 -12912264.75045  22890863.874 0  22890862.751 0  22890863.357 0
        45.000 0        32.000 0
 -12076172.45847  -9209304.95544  23910088.387 0  23910088.280 0  23910087.391 0
        42.000 0        26.000 0
  -7353061.90946  -5483734.99942  24463753.773 0  24463752.025 0  24463753.578 0
        40.000 0        14.000 0
 -34823686.17547 -26836907.80444  23745216.065 0  23745215.059 0  23745218.331 0
        42.000 0        28.000 0
 -30012186.84347 -23327971.67945  22458589.544 0  22458589.231 0  22458591.537 0
        46.000 0        34.000 0
-319228399.768 6          .000 0  21823357.490 0          .000 0          .000 0
        40.000 0          .000 0
  -6477729.501 5          .000 0  22743248.972 0          .000 0          .000 0
        35.000 0          .000 0
-180419824.710 6          .000 0  21133066.913 0          .000 0          .000 0
        40.000 0          .000 0
 15 01 01 00 02 29.0000000  0 12G12G14G25G02G29G31G10G24G06S36S20S26
 -45993971.59348 -35358759.01447  20572416.009 0  20572415.042 0  20572414.026 0
        52.000 0        44.000 0
 -21951543.14846 -14010832.52342  24447474.632 0  24447473.187 0  24447472.913 0
        38.000 0        16.000 0
 -37099597.14648 -28703632.30547  20923717.256 0  20923716.259 0  20923718.633 0
        50.000 0        42.000 0
 -33046130.94048 -23317754.87246  21578292.627 0  21578290.819 0  21578288.289 0
        50.000 0        40.000 0
 -16764717.14747 -12915879.29445  22889981.152 0  22889980.077 0  22889980.664 0
        45.000 0        32.000 0
 -12080464.49946  -9212649.40244  23909271.524 0  23909271.524 0  23909270.654 0
        41.000 0        26.000 0
  -7357159.53346  -5486927.95142  24462974.088 0  24462972.339 0  24462973.854 0
        40.000 0        14.000 0
 -34821526.47247 -26835224.92044  23745627.119 0  23745626.055 0  23745629.327 0
        42.000 0        28.000 0
 -30011781.31247 -23327655.68045  22458666.910 0  22458666.421 0  22458668.668 0
        46.000 0        34.000 0
-319229880.186 6          .000 0  21823075.408 0          .000 0          .000 0
        40.000 0          .000 0
  -6479238.808 5          .000 0  22742963.011 0          .000 0          .000 0
        35.000 0          .000 0
-180421256.060 6          .000 0  21132794.589 0          .000 0          .000 0
        40.000 0          .000 0
 15 01 01 00 02 30.0000000  0 12G12G14G25G02G29G31G10G24G06S36S20S26
 -45994289.47748 -35359006.71647  20572355.474 0  20572354.546 0  20572353.550 0
        52.000 0        44.000 0
 -21950786.49746 -14010242.92742  24447618.658 0  24447617.153 0  24447616.929 0
        38.000 0        16.000 0
 -37102642.14948 -28706005.03447  20923137.901 0  20923136.807 0  20923139.191 0
        50.000 0        42.000 0
 -33048500.18548 -23319601.03746  21577841.756 0  21577839.968 0  21577837.429 0
        50.000 0        40.000 0
 -16769355.55147 -12919493.63345  22889098.576 0  22889097.463 0  22889098.029 0
        45.000 0        32.000 0
 -12084756.16647  -9215993.55844  23908454.660 0  23908454.836 0  23908454.035 0
        42.000 0        26.000 0
  -7361256.75846  -5490120.59442  24462194.374 0  24462192.703 0  24462194.217 0
        40.000 0        14.000 0
 -34819366.57047 -26833541.88044  23746038.047 0  23746037.099 0  23746040.362 0
        42.000 0        28.000 0
 -30011375.20347 -23327339.23045  22458744.217 0  22458743.709 0  22458745.917 0
        46.000 0        34.000 0
-319231360.567 6          .000 0  21822793.677 0          .000 0          .000 0
        40.000 0          .000 0
  -6480748.178 6          .000 0  22742675.830 0          .000 0          .000 0
        36.000 0          .000 0
-180422687.396 6          .000 0  21132522.549 0          .000 0          .000 0
        40.000 0          .000 0
 15 01 01 00 02 31.0000000  0 13G12G14G25G02G29G31G10G24G06G20S36S20
                                S26
 -45994606.84648 -35359254.01747  20572295.037 0  20572294.158 0  20572293.161 0
        52.000 0        44.000 0
 -21950029.39546 -14009652.97842  24447762.615 0  24447761.306 0  24447760.905 0
        39.000 0        16.000 0
 -37105686.67448 -28708377.39147  20922558.596 0  20922557.443 0  20922559.836 0
        50.000 0        42.000 0
 -33050868.85048 -23321446.75046  21577391.032 0  21577389.244 0  21577386.685 0
        50.000 0        40.000 0
 -16773993.69547 -12923107.77045  22888216.030 0  22888214.907 0  22888215.395 0
        45.000 0        32.000 0
 -12089047.43646  -9219337.40544  23907638.002 0  23907638.246 0  23907637.513 0
        41.000 0        26.000 0
  -7365353.55846  -5493312.90542  24461414.669 0  24461413.145 0  24461414.659 0
        40.000 0        14.000 0
 -34817206.46847 -26831858.68544  23746449.062 0  23746448.174 0  23746451.426 0
        42.000 0        28.000 0
 -30010968.51447 -23327022.32845  22458821.710 0  22458821.104 0  22458823.283 0
        46.000 0        34.000 0
 -12779553.82945  -1577456.88441  25028494.795 0  25028493.584 0  25028494.971 0
        32.000 0         6.000 0
-319232840.914 6          .000 0  21822510.911 0          .000 0          .000 0
        40.000 0          .000 0
  -6482257.462 6          .000 0  22742389.508 0          .000 0          .000 0
        36.000 0          .000 0
-180424118.824 6          .000 0  21132249.561 0          .000 0          .000 0
        40.000 0          .000 0
 15 01 01 00 02 32.0000000  0 13G12G14G25G02G29G31G10G24G06G20S36S20
                                S26
 -45994923.70848 -35359500.92247  20572234.727 0  20572233.867 0  20572232.861 0
        52.000 0        44.000 0
 -21949271.90246 -14009062.72642  24447906.679 0  24447905.536 0  24447904.960 0
        39.000 0        16.000 0
 -37108730.72848 -28710749.38147  20921979.397 0  20921978.166 0  20921980.569 0
        50.000 0        42.000 0
 -33053236.92548 -23323292.00346  21576940.347 0  21576938.608 0  21576936.058 0
        50.000 0        40.000 0
 -16778631.57947 -12926721.70445  22887333.415 0  22887332.399 0  22887332.829 0
        45.000 0        32.000 0
 -12093338.29246  -9222680.92944  23906821.480 0  23906821.695 0  23906820.972 0
        41.000 0        26.000 0
  -7369449.93746  -5496504.88842  24460634.906 0  24460633.626 0  24460635.170 0
        40.000 0        14.000 0
 -34815046.15047 -26830175.32144  23746859.912 0  23746859.277 0  23746862.520 0
        42.000 0        28.000 0
 -30010561.23247 -23326704.96645  22458899.193 0  22458898.616 0  22458900.775 0
        46.000 0        34.000 0
 -12779590.54945  -1577485.49741  25028487.303 0  25028486.414 0  25028487.928 0
        32.000 0         6.000 0
-319234321.248 6          .000 0  21822229.386 0          .000 0          .000 0
        40.000 0          .000 0
  -6483766.685 6          .000 0  22742101.867 0          .000 0          .000 0
        36.000 0          .000 0
-180425550.444 6          .000 0  21131976.964 0          .000 0          .000 0
        40.000 0          .000 0
 15 01 01 00 02 33.0000000  0 13G12G14G25G02G29G31G10G24G06G20S36S20
                                S26
 -45995240.14148 -35359747.49347  20572174.465 0  20572173.645 0  20572172.639 0
        52.000 0        44.000 0
 -21948514.07446 -14008472.21042  24448050.812 0  24448049.796 0  24448049.210 0
        39.000 0        16.000 0
 -37111774.39048 -28713121.06647  20921400.189 0  20921398.978 0  20921401.371 0
        50.000 0        42.000 0
 -33055604.52248 -23325136.88446  21576489.711 0  21576488.050 0  21576485.539 0
        49.000 0        40.000 0
 -16783269.27847 -12930335.49445  22886450.966 0  22886449.931 0  22886450.283 0
        45.000 0        32.000 0
 -12097628.87346  -9226024.23944  23906005.085 0  23906005.202 0  23906004.489 0
        41.000 0        26.000 0
  -7373546.01246  -5499696.63242  24459855.182 0  24459854.156 0  24459855.739 0
        39.000 0        14.000 0
 -34812885.72347 -26828491.87244  23747270.830 0  23747270.410 0  23747273.653 0
        42.000 0        28.000 0
 -30010153.46147 -23326387.22245  22458977.018 0  22458976.226 0  22458978.356 0
        46.000 0        34.000 0
 -12779626.80745  -1577513.75441  25028480.367 0  25028479.322 0  25028480.856 0
        32.000 0         8.000 0
-319235801.805 6          .000 0  21821948.046 0          .000 0          .000 0
        40.000 0          .000 0
  -6485276.116 5          .000 0  22741814.862 0          .000 0          .000 0
        35.000 0          .000 0
-180426982.137 6          .000 0  21131704.015 0          .000 0          .000 0
        40.000 0          .000 0
 15 01 01 00 02 34.0000000  0 13G12G14G25G02G29G31G10G24G06G20S36S20
                                S26
 -45995556.16648 -35359993.74647  20572114.321 0  20572113.520 0  20572112.504 0
        52.000 0        44.000 0
 -21947755.88946 -14007881.41542  24448195.092 0  24448194.115 0  24448193.519 0
        39.000 0        16.000 0
 -37114817.66848 -28715492.45147  20920821.050 0  20920819.868 0  20920822.251 0
        50.000 0        42.000 0
 -33057971.62348 -23326981.37846  21576039.133 0  21576037.580 0  21576035.099 0
        49.000 0        40.000 0
 -16787906.82147 -12933949.16245  22885568.440 0  22885567.492 0  22885567.765 0
        45.000 0        32.000 0
 -12101919.13746  -9229367.30044  23905188.485 0  23905188.749 0  23905188.114 0
        41.000 0        26.000 0
  -7377641.74046  -5502888.10642  24459075.731 0  24459074.705 0  24459076.366 0
        39.000 0        14.000 0
 -34810725.20147 -26826808.35044  23747681.816 0  23747681.543 0  23747684.776 0
        42.000 0        28.000 0
 -30009745.21147 -23326069.10445  22459054.725 0  22459053.924 0  22459056.025 0
        46.000 0        34.000 0
 -12779662.58445  -1577541.63141  25028473.940 0  25028472.357 0  25028473.959 0
        32.000 0         8.000 0
-319237282.462 6          .000 0  21821666.403 0          .000 0          .000 0
        40.000 0          .000 0
  -6486785.645 5          .000 0  22741526.870 0          .000 0          .000 0
        35.000 0          .000 0
-180428413.734 6          .000 0  21131432.150 0          .000 0          .000 0
        40.000 0          .000 0
 15 01 01 00 02 35.0000000  0 13G12G14G25G02G29G31G10G24G06G20S36S20
                                S26
 -45995871.67848 -35360239.59947  20572054.236 0  20572053.474 0  20572052.458 0
        52.000 0        44.000 0
 -21946997.31246 -14007290.31842  24448339.488 0  24448338.521 0  24448337.955 0
        39.000 0        16.000 0
 -37117860.48648 -28717863.47847  20920242.105 0  20920240.845 0  20920243.219 0
        50.000 0        42.000 0
 -33060338.16948 -23328825.44046  21575588.702 0  21575587.207 0  21575584.765 0
        49.000 0        40.000 0
 -16792544.10247 -12937562.62745  22884686.108 0  22884685.112 0  22884685.375 0
        45.000 0        32.000 0
 -12106209.01446  -9232710.06244  23904372.335 0  23904372.374 0  23904371.817 0
        41.000 0        26.000 0
  -7381737.07046  -5506079.26942  24458296.427 0  24458295.323 0  24458297.062 0
        39.000 0        14.000 0
 -34808564.48747 -26825124.67844  23748092.959 0  23748092.705 0  23748095.958 0
        42.000 0        28.000 0
 -30009336.39647 -23325750.54745  22459132.580 0  22459131.740 0  22459133.801 0
        46.000 0        34.000 0
 -12779697.77545  -1577569.05441  25028467.571 0  25028465.539 0  25028467.268 0
        32.000 0         6.000 0
-319238763.143 6          .000 0  21821384.340 0          .000 0          .000 0
        40.000 0          .000 0
  -6488295.206 5          .000 0  22741238.789 0          .000 0          .000 0
        35.000 0          .000 0
-180429845.276 6          .000 0  21131159.524 0          .000 0          .000 0
        40.000 0          .000 0
 15 01 01 00 02 36.0000000  0 13G12G14G25G02G29G31G10G24G06G20S36S20
                                S26
 -45996186.62148 -35360485.00947  20571994.336 0  20571993.545 0  20571992.529 0
        52.000 0        44.000 0
 -21946238.25646 -14006698.84842  24448484.334 0  24448483.015 0  24448482.478 0
        39.000 0        16.000 0
 -37120902.76748 -28720234.08647  20919663.151 0  20919661.920 0  20919664.284 0
        50.000 0        42.000 0
 -33062704.05948 -23330668.99046  21575138.349 0  21575136.981 0  21575134.549 0
        49.000 0        40.000 0
 -16797181.06647 -12941175.84445  22883803.630 0  22883802.780 0  22883803.024 0
        45.000 0        32.000 0
 -12110498.45646  -9236052.48344  23903555.999 0  23903556.116 0  23903555.608 0
        41.000 0        26.000 0
  -7385831.89746  -5509270.04142  24457516.888 0  24457516.039 0  24457517.914 0
        39.000 0        14.000 0
 -34806403.49247 -26823440.78744  23748504.131 0  23748503.916 0  23748507.198 0
        42.000 0        28.000 0
 -30008926.94347 -23325431.49345  22459210.532 0  22459209.682 0  22459211.704 0
        46.000 0        34.000 0
 -12779732.30245  -1577595.95941  25028461.270 0  25028458.916 0  25028460.655 0
        32.000 0         6.000 0
-319240243.746 6          .000 0  21821102.590 0          .000 0          .000 0
        40.000 0          .000 0
  -6489804.576 5          .000 0  22740952.692 0          .000 0          .000 0
        35.000 0          .000 0
-180431276.681 6          .000 0  21130887.317 0          .000 0          .000 0
        40.000 0          .000 0
 15 01 01 00 02 37.0000000  0 13G12G14G25G02G29G31G10G24G06G20S36S20
                                S26
 -45996501.07348 -35360730.03747  20571934.504 0  20571933.703 0  20571932.707 0
        52.000 0        44.000 0
 -21945478.79846 -14006107.06242  24448629.063 0  24448627.549 0  24448626.992 0
        39.000 0        16.000 0
 -37123944.58648 -28722604.33447  20919084.266 0  20919083.084 0  20919085.438 0
        50.000 0        42.000 0
 -33065069.39948 -23332512.11246  21574688.142 0  21574686.863 0  21574684.421 0
        49.000 0        40.000 0
 -16801817.78247 -12944788.86845  22882921.279 0  22882920.497 0  22882920.673 0
        45.000 0        32.000 0
 -12114787.50346  -9239394.59744  23902739.887 0  23902739.926 0  23902739.467 0
        41.000 0        26.000 0
  -7389926.32546  -5512460.50342  24456737.653 0  24456736.842 0  24456738.825 0
        39.000 0        14.000 0
 -34804242.31347 -26821756.75344  23748915.449 0  23748915.156 0  23748918.487 0
        42.000 0        28.000 0
 -30008516.90247 -23325111.98045  22459288.464 0  22459287.731 0  22459289.704 0
        46.000 0        34.000 0
 -12779766.26245  -1577622.42140  25028455.429 0  25028452.459 0  25028454.129 0
        33.000 0         4.000 0
-319241724.377 6          .000 0  21820820.957 0          .000 0          .000 0
        40.000 0          .000 0
  -6491314.052 5          .000 0  22740665.159 0          .000 0          .000 0
        35.000 0          .000 0
-180432708.097 6          .000 0  21130614.867 0          .000 0          .000 0
        40.000 0          .000 0
 15 01 01 00 02 38.0000000  0 13G12G14G25G02G29G31G10G24G06G20S36S20
                                S26
 -45996814.85648 -35360974.54447  20571874.849 0  20571873.979 0  20571873.003 0
        52.000 0        44.000 0
 -21944718.77546 -14005514.83842  24448773.596 0  24448772.180 0  24448771.603 0
        38.000 0        16.000 0
 -37126985.77148 -28724974.08947  20918505.478 0  20918504.374 0  20918506.718 0
        50.000 0        42.000 0
 -33067433.99548 -23334354.65546  21574238.053 0  21574236.891 0  21574234.449 0
        49.000 0        40.000 0
 -16806454.07647 -12948401.56445  22882039.035 0  22882038.283 0  22882038.410 0
        45.000 0        32.000 0
 -12119076.01446  -9242736.29544  23901923.756 0  23901923.824 0  23901923.375 0
        41.000 0        26.000 0
  -7394020.20146  -5515650.53242  24455958.407 0  24455957.811 0  24455959.726 0
        39.000 0        14.000 0
 -34802080.77847 -26820072.44144  23749326.914 0  23749326.474 0  23749329.854 0
        42.000 0        28.000 0
 -30008106.15147 -23324791.91445  22459366.758 0  22459365.888 0  22459367.832 0
        46.000 0        34.000 0
 -12779799.48545  -1577648.31241  25028449.460 0  25028446.168 0  25028447.712 0
        33.000 0         6.000 0
-319243204.789 6          .000 0  21820539.129 0          .000 0          .000 0
        40.000 0          .000 0
  -6492823.311 5          .000 0  22740377.724 0          .000 0          .000 0
        35.000 0          .000 0
-180434139.504 6          .000 0  21130343.569 0          .000 0          .000 0
        40.000 0          .000 0
 15 01 01 00 02 39.0000000  0 13G12G14G25G02G29G31G10G24G06G20S36S20
                                S26
 -45997128.18748 -35361218.69847  20571815.213 0  20571814.353 0  20571813.386 0
        52.000 0        44.000 0
 -21943958.36846 -14004922.31242  24448918.198 0  24448916.889 0  24448916.352 0
        39.000 0        16.000 0
 -37130026.53948 -28727343.51847  20917926.807 0  20917925.732 0  20917928.067 0
        50.000 0        42.000 0
 -33069798.07148 -23336196.79146  21573788.081 0  21573787.007 0  21573784.574 0
        49.000 0        40.000 0
 -16811090.17547 -12952014.10745  22881156.733 0  22881156.079 0  22881156.186 0
        45.000 0        32.000 0
 -12123364.18346  -9246077.72444  23901107.811 0  23901107.801 0  23901107.352 0
        41.000 0        26.000 0
  -7398113.69546  -5518840.26742  24455179.513 0  24455178.839 0  24455180.705 0
        40.000 0        14.000 0
 -34799919.07147 -26818387.99644  23749738.310 0  23749737.841 0  23749741.251 0
        42.000 0        28.000 0
 -30007694.86947 -23324471.43545  22459444.925 0  22459444.153 0  22459446.058 0
        46.000 0        34.000 0
 -12779832.17145  -1577673.78040  25028443.443 0  25028439.956 0  25028441.352 0
        33.000 0         4.000 0
-319244685.322 6          .000 0  21820256.900 0          .000 0          .000 0
        40.000 0          .000 0
  -6494332.743 5          .000 0  22740090.093 0          .000 0          .000 0
        35.000 0          .000 0
-180435570.948 6          .000 0  21130070.600 0          .000 0          .000 0
        40.000 0          .000 0
 15 01 01 00 02 40.0000000  0 13G12G14G25G02G29G31G10G24G06G20S36S20
                                S26
 -45997440.94648 -35361462.40647  20571755.713 0  20571754.824 0  20571753.877 0
        52.000 0        44.000 0
 -21943197.49446 -14004329.42342  24449063.063 0  24449061.676 0  24449061.168 0
        39.000 0        16.000 0
 -37133066.77948 -28729712.53647  20917348.283 0  20917347.169 0  20917349.523 0
        50.000 0        42.000 0
 -33072161.50548 -23338038.42846  21573338.285 0  21573337.250 0  21573334.827 0
        49.000 0        40.000 0
 -16815725.94047 -12955626.39145  22880274.480 0  22880273.933 0  22880274.030 0
        45.000 0        32.000 0
 -12127651.90346  -9249418.80344  23900291.816 0  23900291.826 0  23900291.406 0
        41.000 0        26.000 0
  -7402206.72146  -5522029.63742  24454400.434 0  24454399.975 0  24454401.860 0
        40.000 0        14.000 0
 -34797757.10747 -26816703.35044  23750149.853 0  23750149.267 0  23750152.657 0
        42.000 0        28.000 0
 -30007282.94847 -23324150.45745  22459523.336 0  22459522.554 0  22459524.410 0
        46.000 0        34.000 0
 -12779864.22945  -1577698.75640  25028437.973 0  25028433.860 0  25028435.198 0
        34.000 0         4.000 0
-319246165.846 6          .000 0  21819975.013 0          .000 0          .000 0
        40.000 0          .000 0
  -6495842.208 5          .000 0  22739803.722 0          .000 0          .000 0
        35.000 0          .000 0
-180437002.344 6          .000 0  21129798.745 0          .000 0          .000 0
        40.000 0          .000 0
 15 01 01 00 02 41.0000000  0 13G12G14G25G02G29G31G10G24G06G20S36S20
                                S26
 -45997753.26448 -35361705.77147  20571696.321 0  20571695.393 0  20571694.456 0
        52.000 0        44.000 0
 -21942436.26846 -14003736.25842  24449207.900 0  24449206.542 0  24449206.073 0
        38.000 0        16.000 0
 -37136106.60648 -28732081.23247  20916769.788 0  20916768.684 0  20916771.058 0
        51.000 0        42.000 0
 -33074524.42448 -23339879.66246  21572888.714 0  21572887.590 0  21572885.178 0
        49.000 0        40.000 0
 -16820361.52347 -12959238.53345  22879392.373 0  22879391.855 0  22879391.953 0
        45.000 0        32.000 0
 -12131939.30147  -9252759.63244  23899476.125 0  23899475.930 0  23899475.519 0
        42.000 0        26.000 0
  -7406299.37946  -5525218.72042  24453621.814 0  24453621.179 0  24453623.064 0
        39.000 0        14.000 0
 -34795595.00247 -26815018.59544  23750561.299 0  23750560.732 0  23750564.083 0
        42.000 0        28.000 0
 -30006870.51047 -23323829.07745  22459601.737 0  22459601.063 0  22459602.889 0
        46.000 0        34.000 0
 -12779895.72745  -1577723.29440  25028432.112 0  25028427.872 0  25028429.210 0
        34.000 0         2.000 0
-319247646.384 6          .000 0  21819693.614 0          .000 0          .000 0
        40.000 0          .000 0
  -6497351.600 6          .000 0  22739516.775 0          .000 0          .000 0
        36.000 0          .000 0
-180438433.850 6          .000 0  21129526.529 0          .000 0          .000 0
        40.000 0          .000 0
 15 01 01 00 02 42.0000000  0 13G12G14G25G02G29G31G10G24G06G20S36S20
                                S26
 -45998065.05448 -35361948.72447  20571636.978 0  20571636.050 0  20571635.132 0
        52.000 0        44.000 0
 -21941674.58846 -14003142.74142  24449352.658 0  24449351.486 0  24449351.046 0
        38.000 0        16.000 0
 -37139145.94648 -28734449.54947  20916191.518 0  20916190.316 0  20916192.680 0
        50.000 0        42.000 0
 -33076886.75448 -23341720.43946  21572439.220 0  21572438.048 0  21572435.645 0
        49.000 0        40.000 0
 -16824996.82447 -12962850.45445  22878510.266 0  22878509.846 0  22878509.934 0
        45.000 0        32.000 0
 -12136226.28547  -9256100.13844  23898660.385 0  23898660.062 0  23898659.769 0
        42.000 0        26.000 0
  -7410391.62446  -5528407.48142  24452843.027 0  24452842.480 0  24452844.336 0
        39.000 0        14.000 0
 -34793432.68747 -26813333.67544  23750973.115 0  23750972.246 0  23750975.567 0
        42.000 0        28.000 0
 -30006457.49947 -23323507.25145  22459680.187 0  22459679.659 0  22459681.496 0
        46.000 0        34.000 0
 -12779926.66745  -1577747.40340  25028426.817 0  25028422.001 0  25028423.330 0
        34.000 0         2.000 0
-319249126.856 6          .000 0  21819411.708 0          .000 0          .000 0
        40.000 0          .000 0
  -6498860.798 5          .000 0  22739230.014 0          .000 0          .000 0
        35.000 0          .000 0
-180439865.167 6          .000 0  21129254.186 0          .000 0          .000 0
        40.000 0          .000 0
 15 01 01 00 02 43.0000000  0 13G12G14G25G02G29G31G10G24G06G20S36S20
                                S26
 -45998376.36848 -35362191.30647  20571577.655 0  20571576.805 0  20571575.896 0
        52.000 0        44.000 0
 -21940912.54346 -14002548.94042  24449497.240 0  24449496.458 0  24449496.087 0
        38.000 0        16.000 0
 -37142184.85248 -28736817.52847  20915613.277 0  20915612.026 0  20915614.390 0
        50.000 0        42.000 0
 -33079248.53648 -23343560.78846  21571989.854 0  21571988.623 0  21571986.220 0
        49.000 0        40.000 0
 -16829631.89947 -12966462.20045  22877628.179 0  22877627.896 0  22877627.964 0
        45.000 0        32.000 0
 -12140512.90347  -9259440.35744  23897844.811 0  23897844.244 0  23897844.088 0
        42.000 0        26.000 0
  -7414483.47946  -5531595.94042  24452064.475 0  24452063.850 0  24452065.677 0
        39.000 0        14.000 0
 -34791270.19247 -26811648.61544  23751384.737 0  23751383.799 0  23751387.081 0
        42.000 0        28.000 0
 -30006043.93247 -23323184.99145  22459758.871 0  22459758.363 0  22459760.219 0
        46.000 0        34.000 0
 -12779957.06845  -1577771.09240  25028421.474 0  25028416.248 0  25028417.566 0
        34.000 0         4.000 0
-319250607.359 6          .000 0  21819129.997 0          .000 0          .000 0
        40.000 0          .000 0
  -6500370.082 5          .000 0  22738942.539 0          .000 0          .000 0
        35.000 0          .000 0
-180441296.476 6          .000 0  21128981.638 0          .000 0          .000 0
        40.000 0          .000 0
 15 01 01 00 02 44.0000000  0 13G12G14G25G02G29G31G10G24G06G20S36S20
                                S26
 -45998687.03648 -35362433.38647  20571518.468 0  20571517.686 0  20571516.778 0
        52.000 0        44.000 0
 -21940149.94546 -14001954.70942  24449642.613 0  24449641.539 0  24449641.246 0
        38.000 0        16.000 0
 -37145223.14748 -28739185.03047  20915035.036 0  20915033.854 0  20915036.227 0
        50.000 0        42.000 0
 -33081609.60248 -23345400.57946  21571540.537 0  21571539.325 0  21571536.922 0
        49.000 0        40.000 0
 -16834266.58247 -12970073.64145  22876746.277 0  22876746.004 0  22876746.062 0
        45.000 0        32.000 0
 -12144799.00247  -9262780.17344  23897029.412 0  23897028.582 0  23897028.435 0
        42.000 0        26.000 0
  -7418574.77346  -5534783.96142  24451286.041 0  24451285.318 0  24451287.115 0
        39.000 0        14.000 0
 -34789107.36247 -26809963.29444  23751796.319 0  23751795.391 0  23751798.644 0
        42.000 0        28.000 0
 -30005629.65747 -23322862.17845  22459837.546 0  22459837.204 0  22459839.090 0
        46.000 0        34.000 0
 -12779986.69745  -1577794.18140  25028416.209 0  25028410.601 0  25028411.901 0
        34.000 0         2.000 0
-319252087.757 6          .000 0  21818848.803 0          .000 0          .000 0
        40.000 0          .000 0
  -6501879.375 6          .000 0  22738656.012 0          .000 0          .000 0
        36.000 0          .000 0
-180442727.658 6          .000 0  21128708.982 0          .000 0          .000 0
        40.000 0          .000 0
 15 01 01 00 02 45.0000000  0 13G12G14G25G02G29G31G10G24G06G20S36S20
                                S26
 -45998997.14948 -35362675.03247  20571459.369 0  20571458.656 0  20571457.767 0
        52.000 0        44.000 0
 -21939386.87646 -14001360.11042  24449787.694 0  24449786.785 0  24449786.502 0
        38.000 0        16.000 0
 -37148260.92248 -28741552.12847  20914456.980 0  20914455.779 0  20914458.162 0
        50.000 0        42.000 0
 -33083970.04648 -23347239.88646  21571091.483 0  21571090.145 0  21571087.771 0
        49.000 0        40.000 0
 -16838900.95847 -12973684.84145  22875864.288 0  22875864.190 0  22875864.209 0
        45.000 0        32.000 0
 -12149084.65047  -9266119.63744  23896214.160 0  23896213.017 0  23896212.881 0
        42.000 0        26.000 0
  -7422665.59646  -5537971.61442  24450507.596 0  24450506.873 0  24450508.641 0
        39.000 0        14.000 0
 -34786944.29747 -26808277.79044  23752207.998 0  23752207.041 0  23752210.265 0
        42.000 0        28.000 0
 -30005214.75647 -23322538.87945  22459916.397 0  22459916.162 0  22459918.067 0
        46.000 0        34.000 0
 -12780015.73645  -1577816.81040  25028410.855 0  25028405.043 0  25028406.303 0
        34.000 0         4.000 0
-319253568.143 6          .000 0  21818566.779 0          .000 0          .000 0
        40.000 0          .000 0
  -6503388.479 5          .000 0  22738369.827 0          .000 0          .000 0
        35.000 0          .000 0
-180444158.934 6          .000 0  21128436.248 0          .000 0          .000 0
        40.000 0          .000 0
 15 01 01 00 02 46.0000000  0 14G12G14G25G02G29G31G03G10G24G06G20S36
                                S20S26
 -45999306.71548 -35362916.25247  20571400.397 0  20571399.733 0  20571398.854 0
        52.000 0        44.000 0
 -21938623.35546 -14000765.15842  24449933.233 0  24449932.120 0  24449931.846 0
        38.000 0        16.000 0
 -37151298.19048 -28743918.82947  20913879.023 0  20913877.811 0  20913880.185 0
        50.000 0        42.000 0
 -33086329.88248 -23349078.71946  21570642.370 0  21570641.062 0  21570638.717 0
        49.000 0        40.000 0
 -16843535.03047 -12977295.80645  22874982.552 0  22874982.415 0  22874982.405 0
        45.000 0        32.000 0
 -12153369.88847  -9269458.78244  23895398.528 0  23895397.531 0  23895397.375 0
        42.000 0        26.000 0
 -12672893.16245     84150.28941  25802037.338 0  25802035.902 0  25802039.477 0
        32.000 0         6.000 0
  -7426756.01346  -5541158.95242  24449729.464 0  24449728.458 0  24449730.236 0
        39.000 0        14.000 0
 -34784780.99147 -26806592.09944  23752619.913 0  23752618.721 0  23752621.905 0
        42.000 0        28.000 0
 -30004799.25047 -23322215.10845  22459995.335 0  22459995.238 0  22459997.152 0
        46.000 0        34.000 0
 -12780044.12945  -1577838.93540  25028405.512 0  25028399.651 0  25028400.853 0
        34.000 0         2.000 0
-319255048.459 6          .000 0  21818285.205 0          .000 0          .000 0
        40.000 0          .000 0
  -6504897.608 5          .000 0  22738081.982 0          .000 0          .000 0
        35.000 0          .000 0
-180445590.140 6          .000 0  21128163.221 0          .000 0          .000 0
        40.000 0          .000 0
 15 01 01 00 02 47.0000000  0 13G12G14G25G02G29G31G10G24G06G20S36S20
                                S26
 -45999615.80248 -35363157.09947  20571341.591 0  20571340.937 0  20571340.048 0
        52.000 0        44.000 0
 -21937859.44346 -14000169.90242  24450078.519 0  24450077.493 0  24450077.181 0
        38.000 0        16.000 0
 -37154335.00548 -28746285.17847  20913301.153 0  20913299.912 0  20913302.296 0
        50.000 0        42.000 0
 -33088689.15448 -23350917.11246  21570193.424 0  21570192.086 0  21570189.751 0
        49.000 0        40.000 0
 -16848168.86847 -12980906.58745  22874100.836 0  22874100.689 0  22874100.611 0
        45.000 0        32.000 0
 -12157654.74147  -9272797.62644  23894582.992 0  23894582.133 0  23894581.947 0
        42.000 0        26.000 0
  -7430845.98746  -5544345.94242  24448951.137 0  24448950.131 0  24448951.909 0
        39.000 0        14.000 0
 -34782617.48047 -26804906.24844  23753031.534 0  23753030.450 0  23753033.605 0
        42.000 0        28.000 0
 -30004383.18047 -23321890.89845  22460074.391 0  22460074.430 0  22460076.345 0
        46.000 0        34.000 0
 -12780071.97445  -1577860.63740  25028399.817 0  25028394.386 0  25028395.529 0
        34.000 0         2.000 0
-319256528.873 6          .000 0  21818004.021 0          .000 0          .000 0
        40.000 0          .000 0
  -6506406.840 5          .000 0  22737793.364 0          .000 0          .000 0
        35.000 0          .000 0
-180447021.262 6          .000 0  21127890.047 0          .000 0          .000 0
        40.000 0          .000 0
 15 01 01 00 02 48.0000000  0 13G12G14G25G02G29G31G10G24G06G20S36S20
                                S26
 -45999924.52448 -35363397.66247  20571282.746 0  20571282.199 0  20571281.301 0
        52.000 0        44.000 0
 -21937095.26046 -13999574.43642  24450223.863 0  24450222.935 0  24450222.574 0
        38.000 0        16.000 0
 -37157371.49548 -28748651.27547  20912723.312 0  20912722.101 0  20912724.465 0
        50.000 0        42.000 0
 -33091048.00048 -23352755.17446  21569744.644 0  21569743.208 0  21569740.873 0
        49.000 0        40.000 0
 -16852802.59247 -12984517.28145  22873219.100 0  22873218.973 0  22873218.827 0
        46.000 0        32.000 0
 -12161939.35347  -9276136.28344  23893767.487 0  23893766.754 0  23893766.578 0
        42.000 0        26.000 0
  -7434935.73046  -5547532.75342  24448172.995 0  24448171.882 0  24448173.630 0
        39.000 0        14.000 0
 -34780453.93447 -26803220.36944  23753442.979 0  23753442.178 0  23753445.333 0
        42.000 0        28.000 0
 -30003966.68247 -23321566.35445  22460153.496 0  22460153.691 0  22460155.606 0
        45.000 0        34.000 0
 -12780099.39645  -1577882.01040  25028394.435 0  25028389.189 0  25028390.283 0
        34.000 0         2.000 0
-319258009.475 6          .000 0  21817722.896 0          .000 0          .000 0
        40.000 0          .000 0
  -6507916.183 6          .000 0  22737506.915 0          .000 0          .000 0
        36.000 0          .000 0
-180448452.631 6          .000 0  21127617.645 0          .000 0          .000 0
        40.000 0          .000 0
 15 01 01 00 02 49.0000000  0 14G12G14G25G02G29G31G03G10G24G06G20S36
                                S20S26
 -46000232.73548 -35363637.82747  20571224.029 0  20571223.540 0  20571222.641 0
        51.000 0        44.000 0
 -21936330.64246 -13998978.63042  24450369.520 0  24450368.377 0  24450368.094 0
        38.000 0        16.000 0
 -37160407.50548 -28751016.99647  20912145.550 0  20912144.388 0  20912146.732 0
        50.000 0        42.000 0
 -33093406.25748 -23354592.77646  21569296.000 0  21569294.457 0  21569292.103 0
        49.000 0        40.000 0
 -16857436.05047 -12988127.76745  22872337.404 0  22872337.277 0  22872337.081 0
        46.000 0        32.000 0
 -12166223.55747  -9279474.62144  23892952.381 0  23892951.473 0  23892951.287 0
        42.000 0        26.000 0
 -12670971.46345     85647.70141  25802402.549 0  25802401.709 0  25802405.030 0
        32.000 0         6.000 0
  -7439025.02346  -5550719.21542  24447395.166 0  24447393.691 0  24447395.420 0
        39.000 0        14.000 0
 -34778290.14947 -26801534.30544  23753854.659 0  23753853.946 0  23753857.072 0
        42.000 0        28.000 0
 -30003549.60247 -23321241.35745  22460232.883 0  22460233.069 0  22460234.993 0
        45.000 0        34.000 0
 -12780126.22445  -1577902.92040  25028388.681 0  25028384.080 0  25028385.155 0
        33.000 0         4.000 0
-319259490.000 6          .000 0  21817440.345 0          .000 0          .000 0
        40.000 0          .000 0
  -6509425.526 5          .000 0  22737218.259 0          .000 0          .000 0
        35.000 0          .000 0
-180449884.008 6          .000 0  21127345.986 0          .000 0          .000 0
        40.000 0          .000 0
 15 01 01 00 02 50.0000000  0 14G12G14G25G02G29G31G03G10G24G06G20S36
                                S20S26
 -46000540.46848 -35363877.61947  20571165.486 0  20571164.988 0  20571164.080 0
        52.000 0        44.000 0
 -21935565.63846 -13998382.52442  24450515.030 0  24450513.916 0  24450513.701 0
        38.000 0        16.000 0
 -37163443.07048 -28753382.37247  20911567.846 0  20911566.723 0  20911569.068 0
        50.000 0        42.000 0
 -33095763.97348 -23356429.95746  21568847.279 0  21568845.814 0  21568843.430 0
        49.000 0        40.000 0
 -16862069.27947 -12991738.07545  22871455.834 0  22871455.619 0  22871455.375 0
        46.000 0        32.000 0
 -12170507.41347  -9282812.68944  23892137.305 0  23892136.231 0  23892136.084 0
        42.000 0        26.000 0
 -12670330.00245     86147.54041  25802524.527 0  25802523.609 0  25802526.999 0
        32.000 0         6.000 0
  -7443113.93546  -5553905.38142  24446617.093 0  24446615.550 0  24446617.259 0
        39.000 0        14.000 0
 -34776126.19047 -26799848.10444  23754266.397 0  23754265.753 0  23754268.840 0
        42.000 0        28.000 0
 -30003131.98047 -23320915.93745  22460312.310 0  22460312.515 0  22460314.489 0
        45.000 0        34.000 0
 -12780152.51845  -1577923.41240  25028382.713 0  25028379.108 0  25028380.153 0
        33.000 0         4.000 0
-319260970.654 6          .000 0  21817157.491 0          .000 0          .000 0
        40.000 0          .000 0
  -6510934.863 5          .000 0  22736930.101 0          .000 0          .000 0
        35.000 0          .000 0
-180451315.357 6          .000 0  21127073.779 0          .000 0          .000 0
        40.000 0          .000 0
 15 01 01 00 02 51.0000000  0 14G12G14G25G02G29G31G03G10G24G06G20S36
                                S20S26
 -46000847.69748 -35364117.01947  20571107.081 0  20571106.524 0  20571105.606 0
        52.000 0        44.000 0
 -21934800.21046 -13997786.08742  24450660.628 0  24450659.544 0  24450659.329 0
        38.000 0        16.000 0
 -37166478.17348 -28755747.38747  20910990.328 0  20910989.166 0  20910991.501 0
        50.000 0        42.000 0
 -33098121.11448 -23358266.69046  21568398.655 0  21568397.278 0  21568394.875 0
        49.000 0        40.000 0
 -16866702.24747 -12995348.17945  22870574.411 0  22870573.971 0  22870573.717 0
        46.000 0        32.000 0
 -12174790.88247  -9286150.45544  23891322.288 0  23891321.086 0  23891320.959 0
        42.000 0        26.000 0
 -12669688.09845     86647.71741  25802646.759 0  25802645.626 0  25802649.065 0
        32.000 0         6.000 0
  -7447202.43546  -5557091.22342  24445838.951 0  24445837.476 0  24445839.157 0
        39.000 0        14.000 0
 -34773962.03847 -26798161.75344  23754678.302 0  23754677.589 0  23754680.656 0
        42.000 0        28.000 0
 -30002713.78247 -23320590.06945  22460391.894 0  22460392.089 0  22460394.072 0
        45.000 0        34.000 0
 -12780178.22245  -1577943.44140  25028377.428 0  25028374.283 0  25028375.279 0
        33.000 0         4.000 0
-319262451.321 6          .000 0  21816876.513 0          .000 0          .000 0
        40.000 0          .000 0
  -6512444.179 6          .000 0  22736641.727 0          .000 0          .000 0
        36.000 0          .000 0
-180452746.733 6          .000 0  21126802.677 0          .000 0          .000 0
        40.000 0          .000 0
 15 01 01 00 02 52.0000000  0 14G12G14G25G02G29G31G03G10G24G06G20S36
                                S20S26
 -46001154.29248 -35364355.92547  20571048.734 0  20571048.187 0  20571047.259 0
        52.000 0        44.000 0
 -21934034.25146 -13997189.23842  24450806.470 0  24450805.298 0  24450805.074 0
        38.000 0        16.000 0
 -37169512.66748 -28758111.92747  20910412.908 0  20910411.746 0  20910414.061 0
        50.000 0        42.000 0
 -33100477.54248 -23360102.86746  21567950.285 0  21567948.878 0  21567946.466 0
        49.000 0        40.000 0
 -16871334.83647 -12998957.98945  22869692.939 0  22869692.402 0  22869692.119 0
        46.000 0        32.000 0
 -12179073.81347  -9289487.80344  23890507.397 0  23890506.079 0  23890505.913 0
        42.000 0        26.000 0
 -12669045.55445     87148.39941  25802768.972 0  25802767.946 0  25802771.356 0
        33.000 0         6.000 0
  -7451290.39446  -5560276.64142  24445061.015 0  24445059.511 0  24445061.171 0
        39.000 0        12.000 0
 -34771797.55347 -26796475.14344  23755090.236 0  23755089.493 0  23755092.541 0
        42.000 0        28.000 0
 -30002294.88947 -23320263.65945  22460471.565 0  22460471.799 0  22460473.743 0
        45.000 0        34.000 0
 -12780203.21045  -1577962.91041  25028372.339 0  25028369.643 0  25028370.551 0
        33.000 0         6.000 0
-319263931.793 6          .000 0  21816594.352 0          .000 0          .000 0
        40.000 0          .000 0
  -6513953.259 5          .000 0  22736355.982 0          .000 0          .000 0
        35.000 0          .000 0
-180454177.765 6          .000 0  21126529.953 0          .000 0          .000 0
        40.000 0          .000 0
 15 01 01 00 02 53.0000000  0 14G12G14G25G02G29G31G03G10G24G06G20S36
                                S20S26
 -46001460.49148 -35364594.52147  20570990.534 0  20570989.919 0  20570988.971 0
        52.000 0        44.000 0
 -21933267.99946 -13996592.15942  24450951.883 0  24450951.033 0  24450950.906 0
        38.000 0        16.000 0
 -37172546.79048 -28760476.17947  20909835.566 0  20909834.384 0  20909836.679 0
        50.000 0        42.000 0
 -33102833.50748 -23361938.68446  21567501.935 0  21567500.547 0  21567498.154 0
        49.000 0        40.000 0
 -16875967.26547 -13002567.67345  22868811.282 0  22868810.871 0  22868810.520 0
        45.000 0        32.000 0
 -12183356.47347  -9292824.94044  23889692.458 0  23889691.130 0  23889690.925 0
        42.000 0        26.000 0
 -12668402.68745     87649.32941  25802891.732 0  25802890.315 0  25802893.695 0
        33.000 0         6.000 0
  -7455378.03646  -5563461.81442  24444283.332 0  24444281.613 0  24444283.274 0
        39.000 0        12.000 0
 -34769632.96347 -26794788.45044  23755502.111 0  23755501.417 0  23755504.446 0
        42.000 0        28.000 0
 -30001875.52647 -23319936.88245  22460551.382 0  22460551.588 0  22460553.531 0
        45.000 0        34.000 0
 -12780227.71745  -1577982.00741  25028367.347 0  25028365.139 0  25028365.921 0
        32.000 0         6.000 0
-319265412.341 6          .000 0  21816311.830 0          .000 0          .000 0
        40.000 0          .000 0
  -6515462.596 5          .000 0  22736069.113 0          .000 0          .000 0
        35.000 0          .000 0
-180455609.028 6          .000 0  21126257.561 0          .000 0          .000 0
        40.000 0          .000 0
 15 01 01 00 02 54.0000000  0 14G12G14G25G02G29G31G03G10G24G06G20S36
                                S20S26
 -46001766.24548 -35364832.77247  20570932.383 0  20570931.748 0  20570930.791 0
        52.000 0        44.000 0
 -21932501.37546 -13995994.79142  24451097.637 0  24451096.856 0  24451096.817 0
        38.000 0        16.000 0
 -37175580.51848 -28762840.12247  20909258.272 0  20909257.081 0  20909259.386 0
        50.000 0        42.000 0
 -33105188.96448 -23363774.10446  21567053.731 0  21567052.324 0  21567049.950 0
        49.000 0        40.000 0
 -16880599.50647 -13006177.21145  22867929.751 0  22867929.370 0  22867928.979 0
        45.000 0        32.000 0
 -12187638.78247  -9296161.80244  23888877.490 0  23888876.239 0  23888876.034 0
        42.000 0        26.000 0
 -12667759.37845     88150.60740  25803014.169 0  25803012.762 0  25803016.152 0
        33.000 0         4.000 0
  -7459465.31846  -5566646.70842  24443505.552 0  24443503.745 0  24443505.474 0
        40.000 0        12.000 0
 -34767468.24547 -26793101.65944  23755914.113 0  23755913.371 0  23755916.379 0
        42.000 0        28.000 0
 -30001455.65747 -23319609.71245  22460631.386 0  22460631.444 0  22460633.437 0
        45.000 0        34.000 0
 -12780251.72745  -1578000.71641  25028361.994 0  25028360.656 0  25028361.398 0
        32.000 0         6.000 0
-319266893.034 6          .000 0  21816030.627 0          .000 0          .000 0
        40.000 0          .000 0
  -6516971.933 5          .000 0  22735781.404 0          .000 0          .000 0
        35.000 0          .000 0
-180457040.541 6          .000 0  21125985.149 0          .000 0          .000 0
        40.000 0          .000 0
 15 01 01 00 02 55.0000000  0 14G12G14G25G02G29G31G03G10G24G06G20S36
                                S20S26
 -46002071.52948 -35365070.65647  20570874.407 0  20570873.665 0  20570872.708 0
        52.000 0        44.000 0
 -21931734.34746 -13995397.10642  24451243.685 0  24451242.864 0  24451242.776 0
        38.000 0        16.000 0
 -37178613.78848 -28765203.71047  20908681.047 0  20908679.875 0  20908682.190 0
        50.000 0        42.000 0
 -33107543.86848 -23365609.09446  21566605.683 0  21566604.208 0  21566601.834 0
        49.000 0        40.000 0
 -16885231.51747 -13009786.57045  22867048.191 0  22867047.850 0  22867047.537 0
        45.000 0        32.000 0
 -12191920.73947  -9299498.39344  23888062.570 0  23888061.408 0  23888061.202 0
        42.000 0        26.000 0
 -12667115.60845     88652.25040  25803136.567 0  25803135.307 0  25803138.716 0
        33.000 0         4.000 0
  -7463552.21246  -5569831.29942  24442728.075 0  24442725.975 0  24442727.762 0
        40.000 0        12.000 0
 -34765303.34147 -26791414.72244  23756326.115 0  23756325.344 0  23756328.342 0
        42.000 0        28.000 0
 -30001035.22947 -23319282.10645  22460711.389 0  22460711.438 0  22460713.460 0
        45.000 0        34.000 0
 -12780275.13345  -1578018.95641  25028357.706 0  25028356.240 0  25028357.002 0
        33.000 0         6.000 0
-319268373.720 6          .000 0  21815748.769 0          .000 0          .000 0
        40.000 0          .000 0
  -6518481.305 6          .000 0  22735495.922 0          .000 0          .000 0
        36.000 0          .000 0
-180458471.915 6          .000 0  21125713.079 0          .000 0          .000 0
        40.000 0          .000 0
 15 01 01 00 02 56.0000000  0 14G12G14G25G02G29G31G03G10G24G06G20S36
                                S20S26
 -46002376.23548 -35365308.08947  20570816.500 0  20570815.680 0  20570814.732 0
        52.000 0        44.000 0
 -21930966.85546 -13994799.06442  24451389.791 0  24451388.951 0  24451388.824 0
        38.000 0        14.000 0
 -37181646.53148 -28767566.88647  20908103.871 0  20908102.767 0  20908105.073 0
        50.000 0        42.000 0
 -33109898.12948 -23367443.58346  21566157.675 0  21566156.219 0  21566153.845 0
        50.000 0        40.000 0
 -16889863.20147 -13013395.67445  22866166.622 0  22866166.397 0  22866166.163 0
        45.000 0        32.000 0
 -12196202.25647  -9302834.63944  23887247.699 0  23887246.654 0  23887246.429 0
        42.000 0        26.000 0
 -12666471.32645     89154.28740  25803259.102 0  25803257.979 0  25803261.446 0
        33.000 0         4.000 0
  -7467638.62246  -5573015.51242  24441950.568 0  24441948.331 0  24441950.119 0
        40.000 0        12.000 0
 -34763138.18447 -26789727.58844  23756737.971 0  23756737.355 0  23756740.335 0
        42.000 0        28.000 0
 -30000614.17847 -23318954.01445  22460791.627 0  22460791.588 0  22460793.590 0
        45.000 0        34.000 0
 -12780297.92845  -1578036.72540  25028353.183 0  25028351.923 0  25028352.743 0
        32.000 0         4.000 0
-319269854.300 6          .000 0  21815467.107 0          .000 0          .000 0
        40.000 0          .000 0
  -6519990.630 6          .000 0  22735208.282 0          .000 0          .000 0
        36.000 0          .000 0
-180459903.172 6          .000 0  21125440.795 0          .000 0          .000 0
        40.000 0          .000 0
 15 01 01 00 02 57.0000000  0 14G12G14G25G02G29G31G03G10G24G06G20S36
                                S20S26
 -46002680.38948 -35365545.09247  20570758.662 0  20570757.812 0  20570756.864 0
        52.000 0        44.000 0
 -21930198.90046 -13994200.65942  24451535.926 0  24451535.037 0  24451534.959 0
        38.000 0        14.000 0
 -37184678.74548 -28769929.64947  20907526.881 0  20907525.757 0  20907528.063 0
        50.000 0        42.000 0
 -33112251.77148 -23369277.59046  21565709.940 0  21565708.347 0  21565705.964 0
        50.000 0        40.000 0
 -16894494.59147 -13017004.54945  22865285.160 0  22865284.974 0  22865284.867 0
        45.000 0        32.000 0
 -12200483.32047  -9306170.53344  23886433.131 0  23886431.988 0  23886431.734 0
        42.000 0        26.000 0
 -12665826.51145     89656.73641  25803381.832 0  25803380.767 0  25803384.245 0
        32.000 0         6.000 0
  -7471724.58046  -5576199.37642  24441173.110 0  24441170.776 0  24441172.553 0
        40.000 0        14.000 0
 -34760972.78547 -26788040.26544  23757150.168 0  23757149.397 0  23757152.366 0
        42.000 0        28.000 0
 -30000192.49847 -23318625.43345  22460871.962 0  22460871.855 0  22460873.838 0
        46.000 0        34.000 0
 -12780320.12445  -1578054.02840  25028349.139 0  25028347.703 0  25028348.611 0
        33.000 0         4.000 0
-319271334.891 6          .000 0  21815185.572 0          .000 0          .000 0
        40.000 0          .000 0
  -6521500.088 6          .000 0  22734921.540 0          .000 0          .000 0
        36.000 0          .000 0
-180461334.338 6          .000 0  21125168.295 0          .000 0          .000 0
        40.000 0          .000 0
 15 01 01 00 02 58.0000000  0 14G12G14G25G02G29G31G03G10G24G06G20S36
                                S20S26
 -46002984.08548 -35365781.73847  20570700.842 0  20570700.022 0  20570699.074 0
        52.000 0        44.000 0
 -21929430.58546 -13993601.97342  24451682.013 0  24451681.202 0  24451681.173 0
        38.000 0        16.000 0
 -37187710.53848 -28772292.08547  20906949.831 0  20906948.806 0  20906951.131 0
        50.000 0        42.000 0
 -33114604.88248 -23371111.18246  21565262.283 0  21565260.603 0  21565258.180 0
        50.000 0        40.000 0
 -16899125.76147 -13020613.25345  22864403.727 0  22864403.600 0  22864403.639 0
        45.000 0        32.000 0
 -12204764.03247  -9309506.15344  23885618.534 0  23885617.410 0  23885617.088 0
        43.000 0        26.000 0
 -12665181.25745     90159.52441  25803504.494 0  25803503.703 0  25803506.966 0
        33.000 0         6.000 0
  -7475810.15046  -5579382.93742  24440395.760 0  24440393.279 0  24440395.017 0
        40.000 0        14.000 0
 -34758807.23147 -26786352.82144  23757562.249 0  23757561.458 0  23757564.427 0
        42.000 0        28.000 0
 -29999770.29047 -23318296.44045  22460952.327 0  22460952.219 0  22460954.163 0
        45.000 0        34.000 0
 -12780341.73345  -1578070.86741  25028345.729 0  25028343.590 0  25028344.538 0
        34.000 0         6.000 0
-319272815.484 6          .000 0  21814903.616 0          .000 0          .000 0
        40.000 0          .000 0
  -6523009.449 5          .000 0  22734634.574 0          .000 0          .000 0
        35.000 0          .000 0
-180462765.492 6          .000 0  21124895.004 0          .000 0          .000 0
        40.000 0          .000 0
