     2.11           OBSERVATION DATA    G (GPS)             RINEX VERSION / TYPE
teqc  2013Mar15     gpsops              20150101 00:28:02UTCPGM / RUN BY / DATE
Linux 2.4.21-27.ELsmp|Opteron|gcc -static|Linux x86_64|=+   COMMENT
BIT 2 OF LLI FLAGS DATA COLLECTED UNDER A/S CONDITION       COMMENT
ABPO                                                        MARKER NAME
33302M001                                                   MARKER NUMBER
GGN                 JPL                                     OBSERVER / AGENCY
ZR520021812         ASHTECH UZ-12       CQ00                REC # / TYPE / VERS
CR6200342009        ASH701945G_M    SCIT                    ANT # / TYPE
  4097216.6805  4429119.0287 -2065771.3676                  APPROX POSITION XYZ
        0.0083        0.0000        0.0000                  ANTENNA: DELTA H/E/N
     1     1                                                WAVELENGTH FACT L1/2
     7    L1    L2    P1    P2    C1    S1    S2            # / TYPES OF OBSERV
     1.0000                                                 INTERVAL
                                                            COMMENT
This data is provided as a public service by NASA/JPL.      COMMENT
No warranty is expressed or implied regarding suitability   COMMENT
for use.  For further information, contact:                 COMMENT
Dave Stowers, NASA/JPL m/s 238-600                          COMMENT
4800 Oak Grove Drive, Pasadena CA 91109 USA                 COMMENT
                                                            COMMENT
 SNR is mapped to RINEX snr flag value [0-9]                COMMENT
  L1 & L2: min(max(int(snr_dBHz/6), 0), 9)                  COMMENT
pseudorange smoothing corrections not applied               COMMENT
  2015     1     1     0     0    0.0000000     GPS         TIME OF FIRST OBS
                                                            END OF HEADER
 15  1  1  0  0  0.0000000  0  9G29G05G15G13G02G24G26G12G21
   4462136.64547   3485958.01546  24437371.1214   24437376.1384   24437371.142
        45.0004         41.0004
 -13027619.87148 -10148154.83048  21567475.3554   21567478.0764   21567474.542
        53.0004         49.0004
 -19238090.62348 -14956923.69248  21738505.1294   21738507.6084   21738504.700
        53.0004         49.0004
   -596221.60447   -445384.67947  23110188.1194   23110190.6564   23110187.425
        47.0004         42.0004
   -890305.71047   -685318.47646  24054010.9214   24054014.8434   24054010.777
        45.0004         40.0004
 -20529545.82849 -15978771.62748  21046287.7634   21046293.1474   21046287.030
        55.0004         50.0004
  -1452182.22548  -1111442.70547  22905625.7124   22905628.5714   22905625.720
        49.0004         45.0004
  -3527846.34147  -2720134.39946  24686931.7354   24686933.2784   24686931.690
        42.0004         37.0004
  -7257133.65247  -5614601.70747  22848170.4034   22848173.4574   22848170.175
        47.0004         42.0004
 15  1  1  0  0  1.0000000  0  9G29G05G15G13G02G24G26G12G21
   4463710.74947   3487184.58946  24437670.3204   24437675.6154   24437670.583
        45.0004         41.0004
 -13026830.00648 -10147539.35348  21567625.1824   21567628.4134   21567624.870
        53.0004         49.0004
 -19238128.05148 -14956952.86148  21738498.0924   21738500.8304   21738497.628
        53.0004         49.0004
   -594242.37547   -443842.42147  23110563.6144   23110567.8914   23110564.005
        47.0004         42.0004
   -886935.13147   -682692.05346  24054652.6104   24054656.0014   24054652.429
        45.0004         40.0004
 -20531447.00749 -15980253.06948  21045926.2374   21045931.4664   21045925.275
        55.0004         50.0004
  -1450689.75448  -1110279.74547  22905910.0324   22905913.4794   22905909.768
        49.0004         45.0004
  -3530306.26347  -2722051.22246  24686463.0874   24686465.1564   24686463.325
        42.0004         37.0004
  -7259158.01247  -5616179.13347  22847785.6074   22847788.3184   22847784.972
        47.0004         42.0004
 15  1  1  0  0  2.0000000  0  9G29G05G15G13G02G24G26G12G21
   4465284.78347   3488411.10846  24437969.2194   24437975.0104   24437969.730
        45.0004         41.0004
 -13026039.79348 -10146923.60248  21567775.6984   21567778.7744   21567775.219
        53.0004         49.0004
 -19238165.45948 -14956982.01148  21738491.2454   21738493.4314   21738490.562
        53.0004         49.0004
   -592263.28047   -442300.27247  23110942.1204   23110943.1324   23110940.549
        47.0004         42.0004
   -883564.59147   -680065.66046  24055293.1154   24055296.3064   24055293.768
        45.0004         40.0004
 -20533347.72449 -15981734.14648  21045564.1634   21045569.6714   21045563.544
        55.0004         50.0004
  -1449197.40848  -1109116.87847  22906193.7164   22906196.7704   22906193.760
        49.0004         45.0004
  -3532766.47647  -2723968.26846  24685994.8794   24685997.7334   24685995.276
        42.0004         37.0004
  -7261181.89947  -5617756.18947  22847401.4464   22847403.3224   22847399.877
        47.0004         42.0004
 15  1  1  0  0  3.0000000  0  9G29G05G15G13G02G24G26G12G21
   4466858.83047   3489637.63746  24438268.8944   24438275.1024   24438269.151
        45.0004         41.0004
 -13025249.21748 -10146307.56748  21567926.2814   21567929.3934   21567925.611
        53.0004         49.0004
 -19238202.81748 -14957011.12048  21738484.0364   21738486.4774   21738483.380
        53.0004         49.0004
   -590284.28947   -440758.20147  23111317.6414   23111320.3134   23111317.239
        47.0004         43.0004
   -880194.05947   -677439.27346  24055934.2284   24055938.1884   24055935.307
        45.0004         40.0004
 -20535247.94649 -15983214.83848  21045202.6824   21045208.1324   21045201.979
        55.0004         50.0004
  -1447705.16948  -1107954.09047  22906477.9954   22906481.3594   22906477.676
        49.0004         45.0004
  -3535226.92747  -2725885.50246  24685526.6484   24685529.2164   24685527.210
        42.0004         37.0004
  -7263205.28347  -5619332.85047  22847015.8494   22847018.7864   22847014.975
        47.0004         42.0004
 15  1  1  0  0  4.0000000  0  9G29G05G15G13G02G24G26G12G21
   4468432.68147   3490864.01346  24438568.6294   24438575.0114   24438568.701
        45.0004         41.0004
 -13024458.43048 -10145691.37248  21568076.4544   21568079.7224   21568076.075
        53.0004         49.0004
 -19238240.25848 -14957040.29448  21738476.6594   21738479.4264   21738476.248
        53.0004         49.0004
   -588305.56247   -439216.34247  23111693.7354   23111696.2164   23111693.799
        47.0004         43.0004
   -876823.67947   -674813.00546  24056576.4534   24056579.6104   24056576.377
        45.0004         40.0004
 -20537147.81249 -15984695.25148  21044841.0334   21044846.6184   21044840.500
        55.0004         50.0004
  -1446213.17948  -1106791.50247  22906761.4314   22906765.8354   22906761.665
        49.0004         45.0004
  -3537687.79147  -2727803.05746  24685058.4344   24685060.5664   24685059.002
        42.0004         37.0004
  -7265228.27247  -5620909.20547  22846629.3574   22846633.8094   22846630.101
        47.0004         42.0004
 15  1  1  0  0  5.0000000  0  9G29G05G15G13G02G24G26G12G21
   4470006.23447   3492090.15746  24438867.4154   24438873.9884   24438867.834
        45.0004         41.0004
 -13023667.57048 -10145075.11548  21568226.8924   21568230.0554   21568226.595
        53.0004         49.0004
 -19238277.93748 -14957069.65448  21738469.5794   21738471.9154   21738469.125
        53.0004         49.0004
   -586327.21247   -437674.77647  23112070.6144   23112073.1094   23112070.212
        47.0004         42.0004
   -873453.59447   -672186.96746  24057217.6274   24057221.7724   24057217.576
        45.0004         40.0004
 -20539047.47649 -15986175.50948  21044479.4994   21044484.9114   21044479.076
        55.0004         50.0004
  -1444721.59048  -1105629.22947  22907044.9734   22907048.7444   22907045.554
        49.0004         45.0004
  -3540149.21147  -2729721.04746  24684589.5004   24684592.0174   24684590.455
        42.0004         37.0004
  -7267251.07347  -5622485.41847  22846245.4514   22846248.7164   22846245.242
        47.0004         42.0004
 15  1  1  0  0  6.0000000  0  9G29G05G15G13G02G24G26G12G21
   4471579.24647   3493315.88046  24439166.8794   24439173.9754   24439166.958
        45.0004         41.0004
 -13022876.86548 -10144458.98348  21568377.5594   21568380.7434   21568376.991
        53.0004         49.0004
 -19238316.07948 -14957099.37648  21738462.1714   21738464.8704   21738461.851
        53.0004         49.0004
   -584349.47447   -436133.67747  23112446.1264   23112448.2354   23112446.512
        47.0004         43.0004
   -870084.06347   -669561.36346  24057858.3864   24057862.9434   24057858.776
        45.0004         40.0004
 -20540947.19549 -15987655.80948  21044118.2334   21044123.8444   21044117.578
        55.0004         50.0004
  -1443230.63948  -1104467.44647  22907329.0794   22907331.8474   22907329.188
        49.0004         45.0004
  -3542611.39547  -2731639.63146  24684121.4524   24684122.6974   24684121.964
        42.0004         37.0004
  -7269273.86647  -5624061.61747  22845859.8584   22845863.5384   22845860.366
        47.0004         42.0004
 15  1  1  0  0  7.0000000  0  9G29G05G15G13G02G24G26G12G21
   4473152.00147   3494541.40346  24439465.7754   24439473.4454   24439465.897
        45.0004         41.0004
 -13022086.02648 -10143842.74248  21568528.1614   21568531.1364   21568527.480
        53.0004         49.0004
 -19238354.38848 -14957129.22548  21738454.7464   21738458.2084   21738454.592
        53.0004         49.0004
   -582372.08547   -434592.85147  23112822.8794   23112827.0764   23112822.749
        47.0004         43.0004
   -866714.75747   -666935.93046  24058499.6544   24058503.5484   24058499.966
        45.0004         40.0004
 -20542846.64749 -15989135.89948  21043756.7994   21043761.9494   21043756.193
        55.0004         50.0004
  -1441740.00748  -1103305.91047  22907613.9484   22907617.1284   22907612.783
        49.0004         45.0004
  -3545074.04547  -2733558.57746  24683653.4124   24683653.9174   24683653.106
        42.0004         37.0004
  -7271296.38547  -5625637.60547  22845475.1914   22845478.0664   22845475.427
        47.0004         42.0004
 15  1  1  0  0  8.0000000  0  9G29G05G15G13G02G24G26G12G21
   4474724.95947   3495767.08546  24439765.4394   24439772.5764   24439765.258
        45.0004         41.0004
 -13021294.61148 -10143226.05448  21568678.6144   21568682.0144   21568678.047
        53.0004         49.0004
 -19238392.44549 -14957158.88148  21738447.9204   21738450.5744   21738447.375
        54.0004         49.0004
   -580394.59547   -433051.94647  23113199.7284   23113201.7964   23113198.932
        47.0004         42.0004
   -863345.24847   -664310.34046  24059141.1844   24059144.9914   24059141.232
        45.0004         40.0004
 -20544745.39049 -15990615.44048  21043395.2594   21043400.7774   21043394.873
        55.0004         50.0004
  -1440249.27648  -1102144.30247  22907896.2904   22907899.7114   22907896.425
        49.0004         45.0004
  -3547536.76447  -2735477.57846  24683184.6814   24683185.5694   24683184.277
        42.0004         37.0004
  -7273318.17947  -5627213.03347  22845090.4104   22845094.5014   22845090.731
        47.0004         42.0004
 15  1  1  0  0  9.0000000  0  9G29G05G15G13G02G24G26G12G21
   4476297.98847   3496992.82146  24440065.0584   24440071.8774   24440064.518
        45.0004         41.0004
 -13020502.76348 -10142609.03148  21568829.1774   21568832.9634   21568828.689
        53.0004         49.0004
 -19238430.35849 -14957188.42148  21738440.5234   21738443.1674   21738440.196
        54.0004         49.0004
   -578417.11847   -431511.05547  23113576.0294   23113578.2314   23113575.229
        47.0004         42.0004
   -859975.65247   -661684.68546  24059782.4024   24059786.3684   24059782.370
        45.0004         40.0004
 -20546643.54949 -15992094.52448  21043034.1414   21043039.4874   21043033.664
        55.0004         50.0004
  -1438758.57948  -1100982.72547  22908180.2054   22908183.6744   22908180.124
        49.0004         45.0004
  -3549999.63747  -2737396.69746  24682716.0254   24682716.2434   24682715.488
        42.0004         37.0004
  -7275339.36447  -5628787.98147  22844706.7354   22844709.0844   22844706.273
        47.0004         42.0004
 15  1  1  0  0 10.0000000  0  9G29G05G15G13G02G24G26G12G21
   4477870.50147   3498218.15446  24440364.2574   24440371.0914   24440363.741
        45.0004         41.0004
 -13019711.03248 -10141992.10048  21568980.1284   21568982.9444   21568979.317
        53.0004         49.0004
 -19238468.69649 -14957218.29648  21738433.0544   21738435.4104   21738432.936
        54.0004         49.0004
   -576440.23047   -429970.63047  23113951.0924   23113953.8404   23113951.266
        47.0004         42.0004
   -856606.57047   -659059.43146  24060422.9504   24060428.1234   24060423.600
        45.0004         40.0004
 -20548541.69349 -15993573.59848  21042673.0194   21042678.2644   21042672.483
        55.0004         50.0004
  -1437268.47348  -1099821.59947  22908464.1114   22908467.4104   22908463.729
        49.0004         45.0004
  -3552463.26547  -2739316.40646  24682247.1934   24682249.4804   24682246.628
        42.0004         37.0004
  -7277360.51047  -5630362.89847  22844321.9944   22844324.3944   22844321.673
        47.0004         42.0004
 15  1  1  0  0 11.0000000  0  9G29G05G15G13G02G24G26G12G21
   4479443.47047   3499443.84446  24440663.7124   24440670.6664   24440663.252
        45.0004         41.0004
 -13018918.46548 -10141374.51248  21569130.8844   21569134.1114   21569130.232
        53.0004         49.0004
 -19238506.51249 -14957247.76248  21738426.4304   21738429.2254   21738425.795
        54.0004         49.0004
   -574462.96047   -428429.89947  23114327.1174   23114331.2764   23114327.602
        47.0004         42.0004
   -853237.01947   -656433.80646  24061064.3244   24061068.9034   24061064.771
        45.0004         40.0004
 -20550438.85549 -15995051.90548  21042311.9204   21042317.2824   21042311.475
        55.0004         50.0004
  -1435777.99548  -1098660.18647  22908746.6264   22908750.5784   22908747.423
        49.0004         45.0004
  -3554926.66147  -2741235.93246  24681777.6254   24681779.8774   24681777.602
        42.0004         37.0004
  -7279380.68847  -5631937.06047  22843936.7074   22843939.6414   22843937.285
        47.0004         42.0004
 15  1  1  0  0 12.0000000  0  9G29G05G15G13G02G24G26G12G21
   4481016.25047   3500669.38646  24440963.2114   24440969.8304   24440962.357
        45.0004         41.0004
 -13018125.71248 -10140756.78548  21569281.4224   21569284.6824   21569281.147
        53.0004         49.0004
 -19238544.44349 -14957277.31848  21738418.7274   21738421.5644   21738418.563
        54.0004         49.0004
   -572485.98247   -426889.39247  23114703.1614   23114706.5444   23114703.819
        47.0004         42.0004
   -849867.66647   -653808.33746  24061705.8854   24061709.4114   24061705.628
        45.0004         40.0004
 -20552335.71149 -15996529.97348  21041951.0364   21041956.2794   21041950.528
        55.0004         50.0004
  -1434287.80348  -1097499.00247  22909031.0634   22909034.2904   22909031.003
        49.0004         45.0004
  -3557390.49147  -2743155.79746  24681308.3834   24681310.3004   24681308.552
        42.0004         37.0004
  -7281400.50647  -5633510.94547  22843553.7224   22843555.9194   22843552.983
        47.0004         42.0004
 15  1  1  0  0 13.0000000  0  9G29G05G15G13G02G24G26G12G21
   4482588.78347   3501894.73746  24441262.7124   24441269.2034   24441261.575
        45.0004         41.0004
 -13017332.81448 -10140138.94248  21569432.3994   21569435.4404   21569432.080
        53.0004         49.0004
 -19238582.53449 -14957307.00048  21738411.3744   21738414.3294   21738411.277
        54.0004         49.0004
   -570509.32447   -425349.13147  23115081.0034   23115083.4664   23115080.034
        47.0004         43.0004
   -846498.53347   -651183.04246  24062347.0524   24062350.8514   24062346.836
        45.0004         40.0004
 -20554232.28949 -15998007.82648  21041590.2214   21041595.2934   21041589.635
        55.0004         50.0004
  -1432797.92348  -1096338.05747  22909314.4864   22909318.1814   22909314.553
        49.0004         45.0004
  -3559854.78147  -2745076.01946  24680839.7144   24680841.1124   24680839.498
        42.0004         37.0004
  -7283420.06347  -5635084.62547  22843168.2914   22843171.9224   22843168.710
        47.0004         42.0004
 15  1  1  0  0 14.0000000  0  9G29G05G15G13G02G24G26G12G21
   4484161.22547   3503120.01546  24441561.6754   24441568.1304   24441560.840
        45.0004         41.0004
 -13016539.62148 -10139520.86948  21569583.0974   21569586.6404   21569583.044
        53.0004         49.0004
 -19238620.63149 -14957336.68248  21738404.2574   21738406.8714   21738404.004
        54.0004         49.0004
   -568532.83247   -423809.01447  23115457.7954   23115460.2034   23115456.182
        47.0004         43.0004
   -843129.46047   -648557.79146  24062988.1934   24062991.3314   24062987.783
        45.0004         40.0004
 -20556128.44249 -15999485.34548  21041229.4084   21041234.5544   21041228.867
        55.0004         50.0004
  -1431308.22348  -1095177.24947  22909598.4194   22909602.1374   22909597.955
        49.0004         45.0004
  -3562319.40347  -2746996.50046  24680371.3334   24680372.5144   24680370.352
        42.0004         37.0004
  -7285439.16647  -5636657.94947  22842783.3174   22842787.2404   22842784.577
        47.0004         42.0004
 15  1  1  0  0 15.0000000  0  9G29G05G15G13G02G24G26G12G21
   4485734.30747   3504345.79546  24441860.9354   24441867.4174   24441860.317
        45.0004         41.0004
 -13015745.44148 -10138902.02748  21569734.7584   21569738.0484   21569734.235
        53.0004         49.0004
 -19238658.04549 -14957365.83648  21738396.9784   21738400.3964   21738396.843
        54.0004         49.0004
   -566555.81147   -422268.48147  23115832.1994   23115836.2184   23115832.452
        47.0004         43.0004
   -839759.79747   -645932.07546  24063630.4534   24063632.6814   24063629.152
        45.0004         40.0004
 -20558023.49849 -16000962.01248  21040868.9444   21040873.8194   21040868.206
        55.0004         50.0004
  -1429818.01548  -1094016.04547  22909881.5504   22909885.0254   22909881.507
        49.0004         45.0004
  -3564783.63147  -2748916.67446  24679902.7204   24679905.1134   24679901.532
        42.0004         37.0004
  -7287457.09847  -5638230.36247  22842400.5384   22842403.3974   22842400.563
        47.0004         42.0004
 15  1  1  0  0 16.0000000  0  9G29G05G15G13G02G24G26G12G21
   4487307.62147   3505571.75446  24442160.2084   24442166.7284   24442159.685
        45.0004         41.0004
 -13014950.59948 -10138282.67048  21569885.7694   21569888.9064   21569885.582
        53.0004         49.0004
 -19238695.11149 -14957394.71848  21738389.9684   21738392.8174   21738389.781
        54.0004         49.0004
   -564578.58547   -420727.79047  23116208.5914   23116212.1934   23116208.730
        47.0004         43.0004
   -836389.85047   -643306.14346  24064271.0734   24064274.8104   24064270.574
        45.0004         40.0004
 -20559917.77249 -16002438.07048  21040508.5544   21040513.5514   21040507.748
        55.0004         50.0004
  -1428327.60648  -1092854.68847  22910165.7424   22910168.3974   22910165.194
        49.0004         45.0004
  -3567247.83847  -2750836.83246  24679433.4654   24679434.9444   24679432.815
        42.0004         37.0004
  -7289474.25247  -5639802.17147  22842016.4204   22842019.5954   22842016.860
        47.0004         42.0004
 15  1  1  0  0 17.0000000  0  9G29G05G15G13G02G24G26G12G21
   4488880.94947   3506797.72246  24442459.9064   24442466.3694   24442459.121
        45.0004         41.0004
 -13014155.38648 -10137663.02448  21570037.0354   21570040.5964   21570036.900
        53.0004         49.0004
 -19238732.11249 -14957423.54948  21738383.0254   21738385.9114   21738382.694
        54.0004         49.0004
   -562601.46947   -419187.18447  23116585.7054   23116587.9974   23116585.049
        47.0004         43.0004
   -833019.89647   -640680.20646  24064912.3604   24064916.8344   24064911.833
        45.0004         40.0004
 -20561811.53649 -16003913.72948  21040147.7304   21040153.1014   21040147.384
        55.0004         50.0004
  -1426837.29748  -1091693.41147  22910448.9844   22910453.1754   22910448.735
        49.0004         45.0004
  -3569712.25747  -2752757.15746  24678963.4254   24678966.5944   24678963.974
        42.0004         37.0004
  -7291490.88447  -5641373.57147  22841633.1734   22841635.5234   22841633.103
        47.0004         42.0004
 15  1  1  0  0 18.0000000  0  9G29G05G15G13G02G24G26G12G21
   4490454.33447   3508023.73646  24442759.4694   24442765.8064   24442758.555
        45.0004         41.0004
 -13013359.73648 -10137043.03848  21570188.4764   21570191.7124   21570188.333
        53.0004         49.0004
 -19238768.98149 -14957452.27748  21738375.9874   21738378.8074   21738375.708
        54.0004         49.0004
   -560624.36547   -417646.58747  23116960.9914   23116964.6314   23116961.353
        47.0004         43.0004
   -829649.89547   -638054.23446  24065553.2874   24065557.4714   24065553.109
        45.0004         40.0004
 -20563704.72449 -16005388.94148  21039787.6904   21039792.9104   21039787.133
        55.0004         50.0004
  -1425347.01848  -1090532.15147  22910732.9554   22910735.8624   22910732.354
        49.0004         45.0004
  -3572176.87047  -2754677.63346  24678493.7704   24678497.6364   24678494.996
        42.0004         37.0004
  -7293506.92747  -5642944.51147  22841248.8834   22841252.5664   22841249.359
        47.0004         42.0004
 15  1  1  0  0 19.0000000  0  9G29G05G15G13G02G24G26G12G21
   4492027.54347   3509249.61346  24443058.9574   24443065.0494   24443058.163
        45.0004         41.0004
 -13012563.87148 -10136422.88548  21570339.9694   21570343.1334   21570339.822
        53.0004         49.0004
 -19238805.94549 -14957481.08248  21738369.3404   21738372.0174   21738368.678
        54.0004         49.0004
   -558647.55447   -416106.20547  23117337.1394   23117341.0544   23117337.471
        47.0004         43.0004
   -826280.03647   -635428.37046  24066193.8354   24066198.3474   24066194.225
        45.0004         40.0004
 -20565597.55649 -16006863.87548  21039427.9194   21039432.6004   21039427.007
        55.0004         50.0004
  -1423856.99448  -1089371.09447  22911015.8504   22911020.0624   22911015.943
        49.0004         45.0004
  -3574641.90147  -2756598.43246  24678024.9864   24678027.8344   24678025.961
        42.0004         37.0004
  -7295522.59847  -5644515.16447  22840865.8644   22840868.9854   22840865.932
        47.0004         42.0004
 15  1  1  0  0 20.0000000  0  9G29G05G15G13G02G24G26G12G21
   4493600.74747   3510475.48646  24443358.3144   24443364.7464   24443357.788
        45.0004         41.0004
 -13011767.61848 -10135802.42848  21570491.4144   21570494.5924   21570491.302
        53.0004         49.0004
 -19238842.85249 -14957509.83948  21738361.8624   21738364.9194   21738361.649
        54.0004         49.0004
   -556670.79647   -414565.87047  23117713.5254   23117716.3514   23117713.544
        47.0004         43.0004
   -822910.18747   -632802.51746  24066834.9234   24066838.9344   24066835.491
        45.0004         40.0004
 -20567489.88249 -16008338.41348  21039067.4234   21039072.4364   21039066.870
        55.0004         50.0004
  -1422367.06148  -1088210.11047  22911299.4474   22911302.9094   22911299.451
        49.0004         45.0004
  -3577107.15947  -2758519.41046  24677556.0404   24677559.4794   24677556.906
        42.0004         37.0004
  -7297537.73247  -5646085.40147  22840481.6304   22840484.6954   22840482.337
        47.0004         42.0004
 15  1  1  0  0 21.0000000  0  9G29G05G15G13G02G24G26G12G21
   4495174.09947   3511701.47346  24443657.8124   24443663.6154   24443657.285
        45.0004         41.0004
 -13010970.83048 -10135181.55548  21570643.0384   21570646.2454   21570642.937
        53.0004         49.0004
 -19238879.51649 -14957538.40848  21738354.8534   21738357.8754   21738354.637
        54.0004         49.0004
   -554693.97947   -413025.49547  23118090.4504   23118094.3214   23118089.778
        47.0004         42.0004
   -819540.16247   -630176.52546  24067476.3784   24067479.8494   24067476.565
        45.0004         40.0004
 -20569381.54549 -16009812.43548  21038707.5484   21038712.5304   21038706.860
        55.0004         50.0004
  -1420877.07148  -1087049.07847  22911583.2414   22911586.9624   22911582.994
        49.0004         45.0004
  -3579572.48247  -2760440.43846  24677086.6804   24677090.6004   24677087.736
        42.0004         37.0004
  -7299552.19347  -5647655.10847  22840099.2644   22840101.1484   22840098.995
        47.0004         42.0004
 15  1  1  0  0 22.0000000  0  9G29G05G15G13G02G24G26G12G21
   4496747.40647   3512927.42746  24443957.6344   24443962.8054   24443956.942
        45.0004         41.0004
 -13010173.70848 -10134560.41948  21570795.0084   21570798.0264   21570794.594
        53.0004         49.0004
 -19238916.16349 -14957566.96248  21738348.2234   21738350.7474   21738347.599
        54.0004         49.0004
   -552717.29047   -411485.21747  23118466.5134   23118470.4914   23118465.930
        47.0004         42.0004
   -816170.19347   -627550.57546  24068118.0354   24068121.7974   24068117.934
        45.0004         40.0004
 -20571272.73249 -16011286.08448  21038347.5934   21038352.4314   21038346.961
        55.0004         50.0004
  -1419387.21948  -1085888.15247  22911866.5504   22911870.0234   22911866.495
        49.0004         45.0004
  -3582038.11547  -2762361.70646  24676617.1844   24676620.5114   24676618.426
        42.0004         37.0004
  -7301566.15747  -5649224.42847  22839716.0064   22839717.9304   22839715.752
        47.0004         42.0004
 15  1  1  0  0 23.0000000  0  9G29G05G15G13G02G24G26G12G21
   4498321.07347   3514153.66046  24444257.0994   24444262.4984   24444256.596
        45.0004         41.0004
 -13009375.85248 -10133938.71348  21570946.7714   21570950.1054   21570946.468
        53.0004         49.0004
 -19238952.37149 -14957595.17548  21738341.3374   21738343.9914   21738340.786
        54.0004         49.0004
   -550740.32847   -409944.72747  23118841.8544   23118844.2754   23118842.156
        47.0004         43.0004
   -812799.85347   -624924.33646  24068759.7484   24068763.0264   24068759.243
        45.0004         40.0004
 -20573163.04549 -16012759.05548  21037987.9864   21037992.8174   21037987.302
        55.0004         50.0004
  -1417897.08748  -1084727.01047  22912150.2304   22912153.9074   22912150.063
        49.0004         45.0004
  -3584503.60647  -2764282.86546  24676147.8114   24676152.2714   24676149.240
        42.0004         37.0004
  -7303579.24247  -5650793.06247  22839332.7174   22839335.3554   22839332.720
        47.0004         42.0004
 15  1  1  0  0 24.0000000  0  9G29G05G15G13G02G24G26G12G21
   4499895.14947   3515380.21246  24444556.4094   24444561.7304   24444556.226
        45.0004         41.0004
 -13008577.20048 -10133316.38748  21571098.6394   21571101.8744   21571098.400
        53.0004         49.0004
 -19238988.09749 -14957623.01348  21738334.3274   21738337.2354   21738334.054
        54.0004         49.0004
   -548763.04947   -408403.99147  23119218.3134   23119223.0254   23119218.436
        47.0004         42.0004
   -809429.08547   -622297.76446  24069400.9394   24069404.9344   24069400.609
        45.0004         40.0004
 -20575052.45549 -16014231.32348  21037628.2794   21037633.3434   21037627.731
        55.0004         50.0004
  -1416406.63248  -1083565.61747  22912433.6354   22912437.2894   22912433.705
        49.0004         45.0004
  -3586968.92247  -2766203.88946  24675679.6764   24675684.3304   24675680.324
        42.0004         37.0004
  -7305591.38147  -5652360.96047  22838950.2174   22838952.5714   22838950.001
        47.0004         42.0004
 15  1  1  0  0 25.0000000  0  9G29G05G15G13G02G24G26G12G21
   4501469.16647   3516606.71846  24444856.2584   24444861.5144   24444856.096
        45.0004         41.0004
 -13007778.21148 -10132693.80048  21571250.7524   21571253.7364   21571250.473
        53.0004         49.0004
 -19239023.80849 -14957650.84148  21738327.4694   21738330.1764   21738327.298
        54.0004         49.0004
   -546785.92447   -406863.38047  23119595.3154   23119596.9424   23119594.871
        47.0004         43.0004
   -806058.38347   -619671.24246  24070042.2754   24070047.3504   24070041.977
        45.0004         40.0004
 -20576941.39649 -16015703.22748  21037268.9374   21037273.8924   21037268.281
        55.0004         50.0004
  -1414916.32148  -1082404.33747  22912717.2034   22912721.5664   22912717.314
        49.0004         45.0004
  -3589434.52147  -2768125.13346  24675210.5724   24675214.4754   24675211.311
        42.0004         37.0004
  -7307603.03947  -5653928.48747  22838566.2584   22838569.8014   22838567.235
        47.0004         42.0004
 15  1  1  0  0 26.0000000  0  9G29G05G15G13G02G24G26G12G21
   4503042.99747   3517833.07746  24445155.3384   24445160.7324   24445155.686
        45.0004         41.0004
 -13006979.04548 -10132071.07448  21571402.2944   21571406.1014   21571402.495
        53.0004         49.0004
 -19239059.63149 -14957678.75648  21738320.6114   21738323.4854   21738320.448
        54.0004         49.0004
   -544809.07647   -405322.98047  23119971.0674   23119974.5454   23119971.083
        47.0004         43.0004
   -802687.85347   -617044.85746  24070684.0624   24070688.3494   24070683.378
        45.0004         40.0004
 -20578830.01349 -16017174.87548  21036909.5854   21036914.6794   21036908.936
        55.0004         50.0004
  -1413426.29848  -1081243.28047  22913000.0964   22913004.1124   22913000.728
        49.0004         45.0004
  -3591900.54147  -2770046.70546  24674741.9284   24674745.2434   24674742.041
        42.0004         37.0004
  -7309614.34747  -5655495.73547  22838183.4784   22838187.2794   22838184.428
        47.0004         42.0004
 15  1  1  0  0 27.0000000  0  9G29G05G15G13G02G24G26G12G21
   4504616.56647   3519059.23346  24445454.9664   24445460.3124   24445455.172
        45.0004         40.0004
 -13006179.73748 -10131448.23648  21571554.8484   21571557.8654   21571554.601
        53.0004         49.0004
 -19239095.63349 -14957706.80948  21738313.5634   21738316.6404   21738313.597
        54.0004         49.0004
   -542832.55247   -403782.83147  23120347.0384   23120350.6084   23120347.201
        47.0004         43.0004
   -799317.57647   -614418.67046  24071325.8324   24071329.6534   24071324.520
        45.0004         40.0004
 -20580718.37949 -16018646.32548  21036550.1254   21036555.0014   21036549.604
        55.0004         50.0004
  -1411936.61548  -1080082.48647  22913283.6664   22913288.0424   22913284.206
        49.0004         45.0004
  -3594367.03847  -2771968.64646  24674271.2684   24674275.2364   24674272.528
        42.0004         37.0004
  -7311625.37647  -5657062.77247  22837801.4624   22837803.2344   22837801.721
        47.0004         42.0004
 15  1  1  0  0 28.0000000  0  9G29G05G15G13G02G24G26G12G21
   4506190.00447   3520285.28646  24445755.1734   24445760.0744   24445754.852
        45.0004         41.0004
 -13005380.19348 -10130825.21448  21571706.9514   21571710.2054   21571706.773
        53.0004         49.0004
 -19239131.70049 -14957734.90948  21738307.1504   21738309.7734   21738306.791
        54.0004         49.0004
   -540856.27547   -402242.87847  23120723.0964   23120725.3454   23120723.324
        47.0004         42.0004
   -795947.43147   -611792.58346  24071966.9994   24071971.3264   24071965.965
        45.0004         40.0004
 -20582606.39449 -16020117.50548  21036190.9544   21036196.3584   21036190.371
        55.0004         50.0004
  -1410447.16948  -1078921.88047  22913568.4244   22913570.3564   22913567.563
        49.0004         45.0004
  -3596833.91247  -2773890.88446  24673802.1614   24673805.1734   24673803.129
        42.0004         37.0004
  -7313636.00347  -5658629.49447  22837418.5654   22837420.9814   22837419.033
        47.0004         42.0004
 15  1  1  0  0 29.0000000  0  9G29G05G15G13G02G24G26G12G21
   4507763.33047   3521511.25346  24446054.5594   24446059.6214   24446054.266
        45.0004         41.0004
 -13004580.36848 -10130201.97448  21571859.2184   21571862.4874   21571858.953
        53.0004         49.0004
 -19239167.78049 -14957763.02548  21738300.0154   21738303.0044   21738299.878
        54.0004         49.0004
   -538880.12947   -400703.02047  23121100.0404   23121103.5374   23121099.390
        47.0004         42.0004
   -792577.36347   -609166.55846  24072607.7154   24072612.2894   24072607.067
        45.0004         40.0004
 -20584493.98249 -16021588.35448  21035831.7174   21035836.5794   21035831.159
        55.0004         50.0004
  -1408957.87648  -1077761.39547  22913850.0244   22913854.5084   22913850.900
        49.0004         45.0004
  -3599301.12647  -2775813.38446  24673332.0234   24673335.3214   24673333.555
        42.0004         37.0004
  -7315646.19947  -5660195.88047  22837035.6554   22837038.4514   22837036.351
        47.0004         42.0004
 15  1  1  0  0 30.0000000  0  9G29G05G15G13G02G24G26G12G21
   4509335.85947   3522736.59646  24446353.9054   24446358.8334   24446353.656
        45.0004         41.0004
 -13003780.95948 -10129579.05948  21572011.0434   21572014.1164   21572011.112
        53.0004         49.0004
 -19239204.59849 -14957791.71348  21738293.2884   21738295.7944   21738292.808
        54.0004         49.0004
   -536904.90947   -399163.87547  23121474.7464   23121477.2834   23121475.336
        47.0004         42.0004
   -789208.10747   -606541.16846  24073248.6284   24073252.4654   24073248.422
        45.0004         40.0004
 -20586381.85349 -16023059.42248  21035472.2844   21035477.4794   21035471.870
        55.0004         50.0004
  -1407469.49648  -1076601.61347  22914134.4244   22914137.5794   22914133.988
        49.0004         45.0004
  -3601769.34847  -2777736.67246  24672862.9954   24672866.3084   24672863.997
        42.0004         37.0004
  -7317656.66047  -5661762.47347  22836654.2234   22836656.2354   22836653.704
        47.0004         42.0004
 15  1  1  0  0 31.0000000  0  9G29G05G15G13G02G24G26G12G21
   4510908.74547   3523962.22046  24446653.1004   24446657.6994   24446652.960
        45.0004         41.0004
 -13002980.81248 -10128955.56748  21572163.7174   21572166.9124   21572163.351
        53.0004         49.0004
 -19239240.97749 -14957820.06148  21738286.3764   21738289.4014   21738285.916
        54.0004         49.0004
   -534929.40247   -397624.52747  23121850.6684   23121854.2374   23121851.307
        47.0004         43.0004
   -785838.47747   -603915.48146  24073889.3584   24073894.0404   24073889.837
        45.0004         40.0004
 -20588268.83849 -16024529.80048  21035113.3094   21035118.2864   21035112.780
        55.0004         50.0004
  -1405980.84248  -1075441.62547  22914417.4094   22914421.6554   22914417.134
        49.0004         45.0004
  -3604237.45747  -2779659.87246  24672395.3594   24672397.2454   24672394.563
        42.0004         37.0004
  -7319666.22347  -5663328.36747  22836271.2034   22836273.9314   22836271.309
        47.0004         42.0004
 15  1  1  0  0 32.0000000  0  9G29G05G15G13G02G24G26G12G21
   4512481.59647   3525187.81546  24446952.0974   24446956.7694   24446952.145
        45.0004         41.0004
 -13002180.30748 -10128331.79748  21572316.1844   21572319.1904   21572315.634
        53.0004         49.0004
 -19239277.31649 -14957848.37548  21738279.3124   21738282.2614   21738279.035
        54.0004         49.0004
   -532954.01147   -396085.26747  23122227.4584   23122229.7534   23122227.163
        47.0004         43.0004
   -782468.87047   -601289.81446  24074530.9834   24074535.1604   24074531.052
        45.0004         40.0004
 -20590155.34049 -16025999.79848  21034754.5804   21034759.3414   21034753.755
        55.0004         50.0004
  -1404492.29248  -1074281.71547  22914701.0064   22914703.7164   22914700.269
        49.0004         45.0004
  -3606705.82547  -2781583.27446  24671925.1474   24671927.6964   24671924.779
        42.0004         37.0004
  -7321675.27447  -5664893.86447  22835888.8174   22835891.4394   22835888.935
        47.0004         42.0004
 15  1  1  0  0 33.0000000  0  9G29G05G15G13G02G24G26G12G21
   4514054.34747   3526413.33246  24447251.8454   24447255.7834   24447251.484
        45.0004         41.0004
 -13001379.52248 -10127707.81048  21572468.1864   21572471.4094   21572467.949
        53.0004         49.0004
 -19239313.67749 -14957876.70948  21738272.4164   21738275.4424   21738272.144
        54.0004         49.0004
   -530978.79447   -394546.13347  23122602.4284   23122605.8504   23122602.873
        47.0004         43.0004
   -779099.36547   -598664.22746  24075172.5444   24075176.7054   24075172.305
        45.0004         40.0004
 -20592041.45049 -16027469.49548  21034395.4434   21034400.4854   21034394.863
        55.0004         50.0004
  -1403003.93548  -1073121.95247  22914983.7244   22914987.2404   22914983.486
        49.0004         45.0004
  -3609174.53947  -2783506.94346  24671454.8374   24671457.0014   24671454.834
        42.0004         37.0004
  -7323683.90947  -5666459.03547  22835506.7234   22835509.5314   22835506.768
        47.0004         42.0004
 15  1  1  0  0 34.0000000  0  9G29G05G15G13G02G24G26G12G21
   4515626.67747   3527638.52146  24447550.9794   24447554.7534   24447550.762
        45.0004         41.0004
 -13000578.77848 -10127083.85148  21572620.7384   21572623.7144   21572620.228
        53.0004         49.0004
 -19239350.39649 -14957905.32148  21738265.3084   21738268.3794   21738265.097
        54.0004         49.0004
   -529004.09647   -393007.40547  23122978.5044   23122981.4154   23122978.458
        47.0004         43.0004
   -775730.27847   -596038.96746  24075813.5624   24075818.1974   24075813.294
        45.0004         40.0004
 -20593927.45949 -16028939.10948  21034036.6784   21034041.5754   21034035.935
        55.0004         50.0004
  -1401516.10448  -1071962.60247  22915268.1524   22915270.4804   22915266.511
        49.0004         45.0004
  -3611643.91147  -2785431.12846  24670984.9554   24670985.8244   24670984.617
        42.0004         37.0004
  -7325692.42847  -5668024.11247  22835124.2884   22835127.7904   22835124.478
        47.0004         42.0004
 15  1  1  0  0 35.0000000  0  9G29G05G15G13G02G24G26G12G21
   4517199.11347   3528863.79446  24447849.9364   24447853.9484   24447849.789
        45.0004         40.0004
 -12999777.52248 -10126459.49748  21572773.2244   21572776.4934   21572772.617
        53.0004         49.0004
 -19239386.90949 -14957933.77148  21738258.4484   21738261.1794   21738258.145
        54.0004         49.0004
   -527029.34047   -391468.63647  23123355.1274   23123357.3644   23123354.213
        47.0004         43.0004
   -772361.04147   -593413.59246  24076454.6304   24076459.5654   24076454.786
        45.0004         40.0004
 -20595812.83949 -16030408.23648  21033677.7504   21033682.8894   21033677.217
        55.0004         50.0004
  -1400028.22248  -1070803.21647  22915549.7934   22915553.2524   22915549.624
        49.0004         45.0004
  -3614113.36747  -2787355.37946  24670515.2274   24670516.5304   24670514.677
        42.0004         37.0004
  -7327700.31247  -5669588.68947  22834741.2884   22834745.6694   22834742.415
        47.0004         42.0004
 15  1  1  0  0 36.0000000  0  9G29G05G15G13G02G24G26G12G21
   4518772.07247   3530089.47446  24448148.9614   24448153.5434   24448149.005
        45.0004         41.0004
 -12998975.37948 -10125834.45148  21572926.0444   21572928.9294   21572925.215
        53.0004         49.0004
 -19239422.84049 -14957961.76948  21738251.6514   21738254.3994   21738251.270
        54.0004         49.0004
   -525054.17947   -389929.56147  23123730.0414   23123733.9474   23123730.122
        47.0004         43.0004
   -768991.30347   -590787.82546  24077096.0584   24077100.3934   24077095.918
        45.0004         40.0004
 -20597697.20349 -16031876.57048  21033319.2464   21033324.1864   21033318.646
        55.0004         50.0004
  -1398539.91748  -1069643.50147  22915832.5454   22915836.9564   22915832.881
        49.0004         45.0004
  -3616582.56547  -2789279.42646  24670044.3604   24670046.4854   24670044.574
        42.0004         37.0004
  -7329707.10247  -5671152.42047  22834360.8214   22834363.4094   22834360.754
        47.0004         42.0004
 15  1  1  0  0 37.0000000  0  9G29G05G15G13G02G24G26G12G21
   4520344.80947   3531314.98146  24448448.3934   24448453.5744   24448448.164
        45.0004         41.0004
 -12998173.04748 -10125209.25548  21573078.3964   21573081.7744   21573077.911
        53.0004         49.0004
 -19239458.90249 -14957989.87048  21738244.9414   21738247.6294   21738244.408
        54.0004         49.0004
   -523079.30747   -388390.69047  23124106.2894   23124107.7464   23124105.975
        47.0004         43.0004
   -765621.73947   -588162.19346  24077737.3164   24077741.2554   24077737.231
        45.0004         40.0004
 -20599581.24949 -16033344.65848  21032960.6364   21032965.7524   21032960.147
        55.0004         50.0004
  -1397051.89948  -1068484.00247  22916117.1584   22916119.9984   22916116.072
        49.0004         44.0004
  -3619052.19547  -2791203.81046  24669574.7704   24669576.0594   24669574.723
        42.0004         37.0004
  -7331713.58447  -5672715.91647  22833979.0264   22833981.6884   22833978.911
        47.0004         42.0004
 15  1  1  0  0 38.0000000  0  9G29G05G15G13G02G24G26G12G21
   4521917.75847   3532540.65346  24448747.4884   24448753.1304   24448747.537
        45.0004         41.0004
 -12997370.14248 -10124583.61448  21573231.2144   21573234.4354   21573230.688
        53.0004         49.0004
 -19239494.69949 -14958017.76248  21738237.9924   21738241.0614   21738237.551
        54.0004         49.0004
   -521104.30147   -386851.72447  23124481.4934   23124484.3324   23124481.689
        47.0004         43.0004
   -762251.99947   -585536.42546  24078378.8224   24078382.4014   24078378.717
        45.0004         40.0004
 -20601464.59549 -16034812.19848  21032602.1034   21032607.2984   21032601.752
        55.0004         50.0004
  -1395563.79348  -1067324.43747  22916398.9064   22916402.7884   22916399.174
        49.0004         44.0004
  -3621521.85447  -2793128.21646  24669104.3634   24669106.1254   24669104.716
        42.0004         37.0004
  -7333719.32947  -5674278.83347  22833596.4094   22833599.3954   22833597.005
        47.0004         42.0004
 15  1  1  0  0 39.0000000  0  9G29G05G15G13G02G24G26G12G21
   4523490.40647   3533766.09046  24449046.4054   24449052.5034   24449046.711
        45.0004         41.0004
 -12996567.13048 -10123957.89148  21573384.4734   21573387.2494   21573383.462
        53.0004         49.0004
 -19239530.69149 -14958045.80748  21738231.1834   21738233.9134   21738230.695
        54.0004         49.0004
   -519129.64947   -385313.03547  23124857.1414   23124859.6194   23124857.398
        47.0004         43.0004
   -758882.51147   -582910.85046  24079019.9434   24079023.7414   24079020.045
        45.0004         40.0004
 -20603347.71549 -16036279.56648  21032243.9934   21032248.9484   21032243.442
        55.0004         50.0004
  -1394076.05648  -1066165.16147  22916683.0404   22916686.5574   22916682.291
        49.0004         45.0004
  -3623992.03847  -2795053.03146  24668634.3354   24668636.1524   24668634.516
        42.0004         37.0004
  -7335724.84947  -5675841.57347  22833214.4124   22833216.6894   22833215.314
        47.0004         42.0004
 15  1  1  0  0 40.0000000  0  9G29G05G15G13G02G24G26G12G21
   4525063.18547   3534991.63046  24449345.5874   24449351.6844   24449345.835
        45.0004         41.0004
 -12995763.60448 -10123331.76748  21573537.0874   21573540.2374   21573536.322
        53.0004         49.0004
 -19239566.49349 -14958073.70348  21738224.4024   21738226.9914   21738223.836
        54.0004         49.0004
   -517154.98347   -383774.33747  23125233.0274   23125236.8404   23125233.192
        47.0004         42.0004
   -755512.89947   -580285.17946  24079660.9884   24079664.5614   24079661.242
        45.0004         40.0004
 -20605230.16649 -16037746.40848  21031885.5664   21031890.6654   21031885.211
        55.0004         50.0004
  -1392588.26948  -1065005.84147  22916965.3964   22916968.8974   22916965.381
        49.0004         45.0004
  -3626462.31547  -2796977.92046  24668165.4614   24668166.5984   24668164.395
        42.0004         37.0004
  -7337729.65647  -5677403.76247  22832832.6274   22832836.8784   22832833.678
        47.0004         42.0004
 15  1  1  0  0 41.0000000  0  9G29G05G15G13G02G24G26G12G21
   4526636.37847   3536217.49446  24449645.2374   24449650.8884   24449645.005
        45.0004         41.0004
 -12994959.28948 -10122705.02748  21573690.0624   21573693.1054   21573689.385
        53.0004         49.0004
 -19239601.80549 -14958101.21948  21738217.4824   21738220.4014   21738217.069
        54.0004         49.0004
   -515179.98647   -382235.37347  23125609.7364   23125612.5434   23125608.989
        47.0004         43.0004
   -752142.86347   -577659.18046  24080302.3274   24080306.3014   24080302.634
        45.0004         40.0004
 -20607111.68549 -16039212.52448  21031527.4454   21031532.7874   21031527.154
        55.0004         50.0004
  -1391100.15348  -1063846.26947  22917249.0304   22917252.3124   22917248.477
        49.0004         45.0004
  -3628932.39647  -2798902.65646  24667695.7224   24667697.6994   24667694.352
        42.0004         37.0004
  -7339733.54847  -5678965.23847  22832452.5834   22832454.9844   22832452.292
        47.0004         42.0004
 15  1  1  0  0 42.0000000  0  9G29G05G15G13G02G24G26G12G21
   4528209.99447   3537443.68746  24449944.4124   24449950.6294   24449944.248
        45.0004         40.0004
 -12994154.16048 -10122077.65348  21573843.4804   21573846.5314   21573842.535
        53.0004         49.0004
 -19239636.59849 -14958128.32948  21738211.1014   21738213.7774   21738210.452
        54.0004         49.0004
   -513204.61247   -380696.12747  23125984.8094   23125987.7974   23125984.721
        47.0004         42.0004
   -748772.39847   -575032.84546  24080943.7814   24080946.7794   24080943.823
        45.0004         40.0004
 -20608992.24349 -16040677.89548  21031169.7874   21031174.7054   21031169.272
        55.0004         50.0004
  -1389611.69248  -1062686.43047  22917531.5704   22917535.2594   22917531.736
        49.0004         45.0004
  -3631402.30747  -2800827.25646  24667224.7494   24667227.3914   24667224.074
        42.0004         37.0004
  -7341736.46047  -5680525.94847  22832070.4224   22832074.3594   22832071.127
        47.0004         42.0004
 15  1  1  0  0 43.0000000  0  9G29G05G15G13G02G24G26G12G21
   4529783.40047   3538669.71746  24450243.3384   24450249.6214   24450243.268
        45.0004         40.0004
 -12993348.85548 -10121450.14648  21573996.3234   21573999.7314   21573995.780
        53.0004         49.0004
 -19239671.51949 -14958155.54148  21738204.6644   21738207.2454   21738203.758
        54.0004         49.0004
   -511229.56047   -379157.12047  23126361.2164   23126364.1524   23126360.506
        47.0004         43.0004
   -745402.13447   -572406.66546  24081584.9164   24081588.3714   24081585.357
        45.0004         40.0004
 -20610872.48949 -16042143.02148  21030811.9194   21030816.8934   21030811.477
        55.0004         50.0004
  -1388123.53148  -1061526.82747  22917815.1734   22917818.5064   22917814.907
        49.0004         45.0004
  -3633872.63247  -2802752.18246  24666755.0824   24666757.4134   24666753.935
        42.0004         37.0004
  -7343739.06647  -5682086.41747  22831690.4724   22831693.0794   22831690.180
        47.0004         42.0004
 15  1  1  0  0 44.0000000  0  9G29G05G15G13G02G24G26G12G21
   4531356.25747   3539895.31646  24450542.3514   24450548.9884   24450542.387
        45.0004         40.0004
 -12992543.69548 -10120822.74948  21574150.1764   21574152.5754   21574148.976
        53.0004         49.0004
 -19239706.92249 -14958183.12948  21738197.3144   21738200.0084   21738197.023
        54.0004         49.0004
   -509255.12147   -377618.60747  23126736.5314   23126739.7654   23126736.226
        47.0004         42.0004
   -742032.39047   -569780.89446  24082225.7424   24082230.3664   24082226.621
        45.0004         40.0004
 -20612752.76949 -16043608.17648  21030454.1704   21030459.3804   21030453.624
        55.0004         50.0004
  -1386636.00048  -1060367.71347  22918098.5664   22918102.1464   22918098.120
        49.0004         45.0004
  -3636343.73847  -2804677.71846  24666284.3174   24666287.0104   24666283.601
        42.0004         37.0004
  -7345741.66147  -5683646.88247  22831308.3124   22831312.0044   22831309.086
        47.0004         42.0004
 15  1  1  0  0 45.0000000  0  9G29G05G15G13G02G24G26G12G21
   4532928.47347   3541120.41646  24450841.2074   24450848.4154   24450841.397
        45.0004         40.0004
 -12991738.79548 -10120195.55448  21574302.8534   21574305.9824   21574302.179
        53.0004         49.0004
 -19239742.87749 -14958211.14448  21738191.0054   21738193.4564   21738190.249
        54.0004         49.0004
   -507281.39347   -376080.63647  23127112.9374   23127114.1234   23127111.660
        47.0004         43.0004
   -738663.28847   -567155.62346  24082866.7974   24082871.8864   24082868.088
        45.0004         40.0004
 -20614633.17349 -16045073.42348  21030096.3144   21030101.4744   21030095.837
        55.0004         50.0004
  -1385149.20448  -1059209.17247  22918381.1474   22918384.6604   22918381.050
        49.0004         45.0004
  -3638815.69747  -2806603.92046  24665813.8044   24665816.7174   24665813.324
        42.0004         37.0004
  -7347744.36447  -5685207.42647  22830927.7594   22830929.7894   22830928.049
        47.0004         42.0004
 15  1  1  0  0 46.0000000  0  9G29G05G15G13G02G24G26G12G21
   4534500.75247   3542345.56746  24451140.0494   24451148.0364   24451140.475
        45.0004         40.0004
 -12990933.45048 -10119568.01148  21574456.4234   21574459.2824   21574455.485
        53.0004         49.0004
 -19239778.69949 -14958239.05648  21738184.0774   21738186.6034   21738183.501
        54.0004         49.0004
   -505307.69447   -374542.68547  23127486.8484   23127491.3324   23127487.220
        47.0004         43.0004
   -735294.12147   -564530.29946  24083508.2044   24083512.8444   24083509.370
        45.0004         40.0004
 -20616512.98149 -16046538.20448  21029738.6734   21029743.8584   21029738.096
        55.0004         50.0004
  -1383662.42448  -1058050.63347  22918664.5294   22918667.9274   22918664.045
        49.0004         45.0004
  -3641287.83347  -2808530.25846  24665343.1534   24665346.5554   24665342.918
        42.0004         37.0004
  -7349746.45547  -5686767.49447  22830548.0324   22830548.8464   22830547.066
        47.0004         42.0004
 15  1  1  0  0 47.0000000  0  9G29G05G15G13G02G24G26G12G21
   4536073.20747   3543570.85646  24451438.8714   24451447.1894   24451439.459
        45.0004         40.0004
 -12990127.53048 -10118940.02048  21574609.4844   21574612.4914   21574608.801
        53.0004         49.0004
 -19239814.27049 -14958266.77248  21738177.1084   21738179.7304   21738176.740
        54.0004         49.0004
   -503333.90947   -373004.67147  23127863.5634   23127865.3304   23127862.934
        47.0004         43.0004
   -731924.76747   -561904.83046  24084149.8754   24084154.1564   24084150.707
        45.0004         40.0004
 -20618392.10849 -16048002.45748  21029380.8834   21029385.9894   21029380.457
        55.0004         50.0004
  -1382175.54948  -1056892.03147  22918947.4214   22918950.3104   22918947.167
        49.0004         44.0004
  -3643760.03647  -2810456.64846  24664872.9834   24664877.1424   24664872.497
        42.0004         37.0004
  -7351747.84047  -5688327.01247  22830165.0874   22830168.1184   22830166.360
        47.0004         42.0004
 15  1  1  0  0 48.0000000  0  9G29G05G15G13G02G24G26G12G21
   4537645.77447   3544796.23146  24451737.8334   24451746.3134   24451738.514
        45.0004         40.0004
 -12989321.09748 -10118311.63248  21574763.0744   21574766.2714   21574762.280
        53.0004         49.0004
 -19239849.62449 -14958294.32248  21738170.3504   21738173.1794   21738169.896
        54.0004         49.0004
   -501360.06847   -371466.61147  23128239.1784   23128240.7974   23128238.465
        47.0004         42.0004
   -728555.26247   -559279.24246  24084790.5164   24084794.9854   24084791.881
        45.0004         40.0004
 -20620270.59449 -16049466.21448  21029023.3944   21029028.6254   21029023.020
        55.0004         50.0004
  -1380688.62948  -1055733.40147  22919230.7684   22919232.5024   22919230.264
        49.0004         45.0004
  -3646232.31247  -2812383.09546  24664402.4444   24664406.9694   24664402.172
        42.0004         37.0004
  -7353748.55347  -5689886.00647  22829784.6364   22829787.2984   22829785.587
        47.0004         42.0004
 15  1  1  0  0 49.0000000  0  9G29G05G15G13G02G24G26G12G21
   4539218.65447   3546021.85446  24452037.4454   24452045.3704   24452037.518
        45.0004         40.0004
 -12988513.96248 -10117682.69448  21574916.5554   21574919.7384   21574915.896
        53.0004         49.0004
 -19239884.59549 -14958321.56848  21738163.9184   21738166.4654   21738163.214
        54.0004         49.0004
   -499385.98047   -369928.35547  23128613.1934   23128618.7454   23128614.095
        47.0004         43.0004
   -725185.45347   -556653.41546  24085431.5154   24085435.5464   24085433.178
        45.0004         40.0004
 -20622148.24649 -16050929.31748  21028666.4124   21028671.4364   21028665.735
        55.0004         50.0004
  -1379201.47948  -1054574.57847  22919513.9214   22919516.7514   22919513.354
        49.0004         44.0004
  -3648704.51047  -2814309.48046  24663932.5644   24663936.3924   24663931.614
        42.0004         37.0004
  -7355748.42547  -5691444.34547  22829404.1964   22829408.1844   22829405.006
        47.0004         42.0004
 15  1  1  0  0 50.0000000  0  9G29G05G15G13G02G24G26G12G21
   4540790.86147   3547246.94946  24452336.3234   24452344.8224   24452336.539
        45.0004         40.0004
 -12987707.11948 -10117053.98848  21575069.9934   21575073.1444   21575069.445
        53.0004         49.0004
 -19239920.17849 -14958349.29648  21738157.0684   21738159.7404   21738156.475
        54.0004         49.0004
   -497412.66647   -368390.71447  23128990.0084   23128992.6294   23128989.632
        47.0004         42.0004
   -721816.30047   -554028.10446  24086073.4234   24086076.8424   24086074.567
        45.0004         40.0004
 -20624026.05849 -16052392.54748  21028308.9384   21028314.0984   21028308.379
        55.0004         50.0004
  -1377715.09348  -1053416.34847  22919796.0974   22919798.8144   22919796.300
        49.0004         45.0004
  -3651177.63347  -2816236.59246  24663461.8224   24663465.6964   24663460.701
        42.0004         37.0004
  -7357748.43247  -5693002.79447  22829024.4094   22829027.2214   22829024.602
        47.0004         42.0004
 15  1  1  0  0 51.0000000  0  9G29G05G15G13G02G24G26G12G21
   4542363.95347   3548472.73846  24452636.2694   24452643.8264   24452635.808
        45.0004         40.0004
 -12986898.98748 -10116424.27248  21575223.8684   21575227.1574   21575223.290
        53.0004         49.0004
 -19239954.77649 -14958376.25448  21738150.5234   21738153.1824   21738149.937
        54.0004         49.0004
   -495438.52747   -366852.42147  23129366.0574   23129368.2984   23129365.249
        47.0004         43.0004
   -718446.24747   -551402.08846  24086714.5294   24086718.2434   24086715.840
        45.0004         40.0004
 -20625902.44949 -16053854.66848  21027951.7854   21027957.2714   21027951.327
        55.0004         50.0004
  -1376227.88948  -1052257.48647  22920078.8064   22920082.7894   22920079.412
        49.0004         45.0004
  -3653650.06947  -2818163.16246  24662991.4684   24662996.1764   24662990.167
        42.0004         37.0004
  -7359746.99847  -5694560.11947  22828642.9024   22828646.3654   22828644.285
        47.0004         42.0004
 15  1  1  0  0 52.0000000  0  9G29G05G15G13G02G24G26G12G21
   4543937.20147   3549698.64646  24452935.6254   24452943.5404   24452935.105
        45.0004         40.0004
 -12986090.33848 -10115794.15948  21575377.9934   21575381.0594   21575377.197
        53.0004         49.0004
 -19239989.16149 -14958403.05248  21738143.8874   21738146.1524   21738143.350
        54.0004         49.0004
   -493464.33747   -365314.08847  23129741.7564   23129742.9984   23129740.838
        47.0004         43.0004
   -715076.03947   -548775.95346  24087355.6704   24087359.3994   24087357.404
        45.0004         40.0004
 -20627778.19249 -16055316.28948  21027594.8964   21027600.2014   21027594.325
        55.0004         50.0004
  -1374740.63148  -1051098.59347  22920361.8434   22920365.4544   22920362.555
        49.0004         45.0004
  -3656122.57347  -2820089.78746  24662521.1764   24662526.0234   24662519.894
        42.0004         37.0004
  -7361744.87447  -5696116.90547  22828263.1824   22828266.0634   22828264.053
        47.0004         42.0004
 15  1  1  0  0 53.0000000  0  9G29G05G15G13G02G24G26G12G21
   4545510.12347   3550924.30046  24453235.1454   24453242.8114   24453234.455
        45.0004         40.0004
 -12985281.61548 -10115163.98448  21575531.8654   21575534.5004   21575531.126
        53.0004         49.0004
 -19240023.78449 -14958430.02748  21738137.1054   21738140.1684   21738136.765
        54.0004         49.0004
   -491490.55047   -363776.07647  23130116.5154   23130119.6074   23130116.579
        47.0004         43.0004
   -711706.15247   -546150.06946  24087996.3414   24088000.4044   24087998.557
        45.0004         40.0004
 -20629653.75049 -16056777.76048  21027237.9404   21027243.2154   21027237.399
        55.0004         50.0004
  -1373253.78448  -1049940.01347  22920645.3674   22920648.3974   22920645.597
        49.0004         45.0004
  -3658595.67247  -2822016.87346  24662050.3044   24662055.1804   24662049.396
        42.0004         37.0004
  -7363742.55147  -5697673.53747  22827883.3154   22827886.9464   22827883.961
        47.0004         42.0004
 15  1  1  0  0 54.0000000  0  9G29G05G15G13G02G24G26G12G21
   4547083.83947   3552150.57446  24453535.0904   24453542.7704   24453534.169
        45.0004         40.0004
 -12984471.70948 -10114532.88948  21575685.9474   21575689.0534   21575685.248
        53.0004         49.0004
 -19240057.53549 -14958456.32648  21738130.8784   21738133.3214   21738130.417
        54.0004         49.0004
   -489516.01347   -362237.47347  23130492.9674   23130495.3734   23130492.324
        47.0004         43.0004
   -708335.45547   -543523.55546  24088638.1184   24088642.0304   24088639.915
        45.0004         40.0004
 -20631527.99549 -16058238.21148  21026881.1874   21026886.5934   21026880.748
        55.0004         50.0004
  -1371766.22148  -1048780.87247  22920928.9354   22920932.0004   22920928.855
        49.0004         45.0004
  -3661068.16147  -2823943.48446  24661579.8104   24661584.7914   24661578.737
        42.0004         37.0004
  -7365738.88847  -5699229.12347  22827503.4094   22827505.7274   22827504.111
        47.0004         42.0004
 15  1  1  0  0 55.0000000  0  9G29G05G15G13G02G24G26G12G21
   4548657.14547   3553376.52746  24453833.9964   24453841.6494   24453833.537
        45.0004         40.0004
 -12983661.82548 -10113901.81248  21575840.4174   21575843.3384   21575839.481
        53.0004         49.0004
 -19240091.62649 -14958482.89348  21738124.6384   21738126.8424   21738123.905
        54.0004         49.0004
   -487542.00747   -360699.28247  23130867.5614   23130872.2724   23130868.079
        47.0004         43.0004
   -704965.17047   -540897.36346  24089280.0834   24089284.0374   24089281.416
        45.0004         40.0004
 -20633402.11549 -16059698.56448  21026524.6054   21026529.9584   21026524.112
        55.0004         50.0004
  -1370279.15648  -1047622.12547  22921211.7534   22921214.9234   22921211.915
        49.0004         45.0004
  -3663541.31147  -2825870.61446  24661109.9654   24661114.2694   24661108.157
        42.0004         37.0004
  -7367735.10047  -5700784.61347  22827123.8024   22827126.0024   22827124.262
        47.0004         42.0004
 15  1  1  0  0 56.0000000  0  9G29G05G15G13G02G24G26G12G21
   4550230.25247   3554602.32446  24454133.9344   24454140.9054   24454133.064
        45.0004         40.0004
 -12982851.75648 -10113270.58948  21575993.9194   21575997.3044   21575993.635
        53.0004         49.0004
 -19240125.83849 -14958509.55248  21738118.0684   21738120.6254   21738117.418
        54.0004         49.0004
   -485568.26847   -359161.30247  23131244.4864   23131245.9434   23131243.626
        47.0004         43.0004
   -701595.07147   -538271.31646  24089921.0034   24089925.3164   24089922.847
        45.0004         40.0004
 -20635275.91249 -16061158.66448  21026168.2414   21026173.2794   21026167.552
        55.0004         50.0004
  -1368792.37448  -1046463.59147  22921494.6124   22921497.8684   22921494.867
        49.0004         45.0004
  -3666014.87347  -2827798.06546  24660638.6064   24660643.4394   24660637.244
        42.0004         37.0004
  -7369730.98347  -5702339.84747  22826743.7954   22826746.9804   22826744.459
        47.0004         42.0004
 15  1  1  0  0 57.0000000  0  9G29G05G15G13G02G24G26G12G21
   4551803.68347   3555828.37646  24454433.6824   24454439.9974   24454432.539
        45.0004         40.0004
 -12982040.98148 -10112638.81448  21576148.4794   21576151.5284   21576147.964
        53.0004         49.0004
 -19240159.65349 -14958535.89948  21738111.3984   21738113.8424   21738111.016
        54.0004         49.0004
   -483594.28347   -357623.12847  23131620.0804   23131623.5214   23131619.382
        47.0004         43.0004
   -698224.64647   -535645.01446  24090562.5624   24090567.2674   24090564.337
        45.0004         40.0004
 -20637148.85449 -16062618.09648  21025811.5124   21025817.0454   21025811.151
        55.0004         50.0004
  -1367305.36048  -1045304.87847  22921777.7864   22921781.6384   22921777.986
        49.0004         45.0004
  -3668488.32947  -2829725.42846  24660167.9224   24660172.1314   24660166.808
        42.0004         37.0004
  -7371725.98847  -5703894.38947  22826363.0654   22826366.7364   22826364.773
        47.0004         42.0004
 15  1  1  0  0 58.0000000  0  9G29G05G15G13G02G24G26G12G21
   4553376.95247   3557054.30146  24454733.4444   24454739.4284   24454731.935
        45.0004         40.0004
 -12981229.99348 -10112006.87848  21576302.7634   21576305.5774   21576302.317
        53.0004         49.0004
 -19240193.56549 -14958562.32748  21738105.2564   21738107.4954   21738104.542
        54.0004         49.0004
   -481620.56047   -356085.17347  23131997.0204   23131998.5104   23131995.089
        47.0004         43.0004
   -694854.37947   -533018.83546  24091203.4344   24091208.1874   24091205.599
        45.0004         40.0004
 -20639021.44449 -16064077.25948  21025455.4254   21025460.5634   21025454.729
        55.0004         50.0004
  -1365818.61148  -1044146.37447  22922060.4234   22922063.7484   22922060.881
        49.0004         45.0004
  -3670962.19947  -2831653.11746  24659697.1544   24659701.0644   24659696.098
        42.0004         37.0004
  -7373720.63747  -5705448.66247  22825984.7334   22825987.1724   22825985.134
        47.0004         42.0004
 15  1  1  0  0 59.0000000  0  9G29G05G15G13G02G24G26G12G21
   4554949.64447   3558279.77546  24455032.6064   24455038.7304   24455031.511
        45.0004         40.0004
 -12980419.18148 -10111375.07448  21576457.1744   21576460.1124   21576456.614
        53.0004         49.0004
 -19240227.97249 -14958589.13448  21738098.1004   21738100.7894   21738098.015
        54.0004         49.0004
   -479647.47647   -354547.70647  23132370.8414   23132374.1954   23132370.702
        47.0004         43.0004
   -691484.68147   -530393.09646  24091844.4614   24091849.2224   24091846.817
        45.0004         40.0004
 -20640894.08549 -16065536.45848  21025098.9694   21025104.3334   21025098.341
        55.0004         50.0004
  -1364332.49348  -1042988.36247  22922343.3314   22922346.4444   22922343.688
        49.0004         45.0004
  -3673436.84347  -2833581.40846  24659225.2854   24659229.3444   24659225.063
        42.0004         37.0004
  -7375715.31247  -5707002.95247  22825605.7154   22825608.4854   22825605.565
        47.0004         42.0004
 15  1  1  0  1  0.0000000  0  9G29G05G15G13G02G24G26G12G21
   4556522.01647   3559504.99946  24455331.9154   24455338.0154   24455331.001
        45.0004         40.0004
 -12979608.30248 -10110743.22348  21576611.6004   21576614.1614   21576610.963
        53.0004         49.0004
 -19240262.61349 -14958616.12748  21738092.0234   21738094.4414   21738091.494
        54.0004         49.0004
   -477674.79047   -353010.54947  23132746.6194   23132748.9694   23132746.036
        47.0004         43.0004
   -688115.29847   -527767.60546  24092485.9204   24092489.9324   24092487.850
        45.0004         40.0004
 -20642766.54149 -16066995.51548  21024742.9194   21024747.7674   21024742.070
        55.0004         50.0004
  -1362846.79348  -1041830.66947  22922624.9714   22922628.9984   22922626.480
        49.0004         45.0004
  -3675912.05447  -2835510.14246  24658754.8064   24658759.2374   24658754.271
        42.0004         37.0004
  -7377709.77647  -5708557.08147  22825225.3264   22825228.1374   22825226.090
        47.0004         42.0004
 15  1  1  0  1  1.0000000  0  9G29G05G15G13G02G24G26G12G21
   4558093.96347   3560729.89146  24455630.9244   24455637.0834   24455630.205
        45.0004         40.0004
 -12978797.47548 -10110111.41248  21576765.8494   21576768.4364   21576765.305
        53.0004         49.0004
 -19240297.61049 -14958643.39948  21738085.2914   21738087.8234   21738084.927
        54.0004         49.0004
   -475702.63347   -351473.80347  23133122.7644   23133123.9874   23133121.456
        47.0004         43.0004
   -684746.33147   -525142.44046  24093127.1904   24093132.2784   24093129.073
        45.0004         40.0004
 -20644638.91849 -16068454.50948  21024386.5364   21024391.6154   21024385.759
        55.0004         50.0004
  -1361361.61148  -1040673.39347  22922908.1044   22922912.7834   22922909.118
        49.0004         45.0004
  -3678387.90847  -2837439.37746  24658283.4634   24658287.4514   24658282.989
        42.0004         37.0004
  -7379704.13347  -5710111.12547  22824845.7704   22824848.4924   22824846.535
        47.0004         42.0004
 15  1  1  0  1  2.0000000  0  9G29G05G15G13G02G24G26G12G21
   4559666.35147   3561955.12946  24455930.4754   24455936.0834   24455929.561
        45.0004         40.0004
 -12977985.80948 -10109478.94248  21576920.0384   21576923.1954   21576919.772
        53.0004         49.0004
 -19240332.10549 -14958670.27648  21738078.6464   21738081.1574   21738078.355
        54.0004         49.0004
   -473730.13347   -349936.78447  23133497.4924   23133499.6484   23133496.988
        47.0004         43.0004
   -681376.92647   -522516.93146  24093767.8794   24093773.6024   24093770.373
        45.0004         40.0004
 -20646510.33449 -16069912.75448  21024030.4254   21024035.6694   21024029.645
        55.0004         50.0004
  -1359876.07748  -1039515.82947  22923191.0484   22923195.2824   22923191.749
        49.0004         45.0004
  -3680863.56247  -2839368.45846  24657812.4594   24657816.4024   24657812.185
        42.0004         37.0004
  -7381697.49847  -5711664.40147  22824467.0054   22824469.4874   22824467.203
        47.0004         42.0004
 15  1  1  0  1  3.0000000  0  9G29G05G15G13G02G24G26G12G21
   4561238.78947   3563180.40546  24456229.5684   24456235.6184   24456229.040
        45.0004         40.0004
 -12977173.70848 -10108846.13648  21577074.7354   21577077.5874   21577074.352
        53.0004         49.0004
 -19240366.46549 -14958697.04848  21738072.3274   21738074.8004   21738071.779
        54.0004         49.0004
   -471757.62547   -348399.75847  23133872.7654   23133874.7904   23133872.433
        47.0004         43.0004
   -678007.44747   -519891.36046  24094409.5274   24094414.2344   24094411.511
        45.0004         40.0004
 -20648381.17649 -16071370.55148  21023674.3884   21023679.5744   21023673.621
        55.0004         50.0004
  -1358390.57448  -1038358.29347  22923473.5174   22923477.1194   22923474.419
        49.0004         45.0004
  -3683339.38447  -2841297.66746  24657341.2254   24657344.9184   24657341.241
        42.0004         37.0004
  -7383690.27547  -5713217.21447  22824088.2154   22824089.1784   22824088.028
        47.0004         42.0004
 15  1  1  0  1  4.0000000  0  9G29G05G15G13G02G24G26G12G21
   4562811.43047   3564405.84046  24456528.5174   24456534.6634   24456528.504
        45.0004         41.0004
 -12976361.02748 -10108212.87848  21577229.2734   21577232.4204   21577229.056
        53.0004         49.0004
 -19240400.54649 -14958723.60348  21738065.6964   21738067.9524   21738065.304
        54.0004         49.0004
   -469785.02547   -346862.67747  23134248.1574   23134251.3874   23134247.933
        47.0004         43.0004
   -674637.76647   -517265.63646  24095050.9474   24095055.2394   24095052.832
        45.0004         40.0004
 -20650251.30249 -16072827.79148  21023318.3824   21023323.4124   21023317.839
        55.0004         50.0004
  -1356904.96448  -1037200.67747  22923756.7484   22923761.0034   22923757.057
        49.0004         45.0004
  -3685815.23247  -2843226.89646  24656870.1214   24656874.1904   24656869.811
        42.0004         37.0004
  -7385682.31847  -5714769.45347  22823708.2964   22823711.4784   22823708.979
        47.0004         42.0004
 15  1  1  0  1  5.0000000  0  9G29G05G15G13G02G24G26G12G21
   4564384.06447   3565631.26946  24456827.9134   24456834.2644   24456827.936
        45.0004         41.0004
 -12975547.94948 -10107579.31448  21577384.0794   21577387.0404   21577383.814
        53.0004         49.0004
 -19240434.54649 -14958750.10348  21738059.3334   21738061.8334   21738058.777
        54.0004         49.0004
   -467812.48947   -345325.64147  23134623.4904   23134626.4324   23134623.344
        47.0004         43.0004
   -671268.07747   -514639.90746  24095692.8414   24095697.1194   24095694.006
        45.0004         40.0004
 -20652120.89449 -16074284.61848  21022962.7754   21022967.8694   21022962.117
        55.0004         50.0004
  -1355419.43448  -1036043.12547  22924039.7854   22924042.4054   22924039.639
        49.0004         45.0004
  -3688291.31547  -2845156.31046  24656398.1274   24656403.4454   24656398.375
        42.0004         37.0004
  -7387673.81047  -5716321.26447  22823329.4804   22823332.6154   22823329.896
        47.0004         42.0004
 15  1  1  0  1  6.0000000  0  9G29G05G15G13G02G24G26G12G21
   4565956.43347   3566856.49146  24457127.3294   24457133.4804   24457127.400
        45.0004         41.0004
 -12974734.74748 -10106945.65048  21577538.9284   21577541.6154   21577538.622
        53.0004         49.0004
 -19240468.73949 -14958776.74548  21738052.7274   21738054.9704   21738052.264
        54.0004         49.0004
   -465840.29747   -343788.86647  23134997.9974   23135000.8224   23134998.838
        47.0004         43.0004
   -667898.63947   -512014.37446  24096333.9394   24096337.7084   24096335.153
        45.0004         40.0004
 -20653990.24649 -16075741.25248  21022606.9474   21022612.1474   21022606.405
        55.0004         50.0004
  -1353934.24848  -1034885.83347  22924321.9924   22924325.1004   22924322.198
        49.0004         45.0004
  -3690767.91447  -2847086.12646  24655926.0804   24655932.9024   24655926.970
        42.0004         37.0004
  -7389665.02647  -5717872.85947  22822950.2244   22822952.2044   22822950.962
        47.0004         42.0004
 15  1  1  0  1  7.0000000  0  9G29G05G15G13G02G24G26G12G21
   4567529.22847   3568082.04646  24457426.8824   24457432.5324   24457426.829
        45.0004         41.0004
 -12973920.73248 -10106311.35048  21577693.7914   21577696.7474   21577693.591
        53.0004         49.0004
 -19240502.42649 -14958802.99348  21738046.4014   21738048.3524   21738045.871
        54.0004         49.0004
   -463867.76647   -342251.82447  23135375.4014   23135377.5914   23135374.425
        47.0004         43.0004
   -664528.78347   -509388.51446  24096975.3484   24096978.7354   24096976.511
        45.0004         40.0004
 -20655858.65249 -16077197.15348  21022251.5844   21022256.6834   21022250.878
        55.0004         50.0004
  -1352448.73048  -1033728.28347  22924604.0414   22924608.9624   22924604.672
        49.0004         45.0004
  -3693244.29747  -2849015.77246  24655454.6784   24655462.0634   24655455.862
        42.0004         37.0004
  -7391655.27747  -5719423.70047  22822572.3164   22822574.5934   22822572.185
        47.0004         42.0004
 15  1  1  0  1  8.0000000  0  9G29G05G15G13G02G24G26G12G21
   4569101.71847   3569307.36146  24457726.1124   24457731.8584   24457726.214
        45.0004         41.0004
 -12973106.63148 -10105676.98748  21577848.9214   21577851.2544   21577848.555
        53.0004         49.0004
 -19240536.34449 -14958829.42348  21738039.7774   21738042.2654   21738039.500
        54.0004         49.0004
   -461895.62247   -340715.09947  23135749.1484   23135752.6564   23135749.725
        47.0004         43.0004
   -661159.21447   -506762.88046  24097616.2784   24097619.9184   24097617.865
        45.0004         40.0004
 -20657726.85349 -16078652.89448  21021895.8924   21021901.0464   21021895.437
        55.0004         50.0004
  -1350963.58648  -1032571.03047  22924887.2344   22924891.5724   22924887.269
        49.0004         45.0004
  -3695721.20347  -2850945.83046  24654983.8794   24654990.2814   24654984.568
        42.0004         37.0004
  -7393645.29447  -5720974.36647  22822191.9334   22822195.9824   22822193.542
        47.0004         42.0004
 15  1  1  0  1  9.0000000  0  9G29G05G15G13G02G24G26G12G21
   4570673.69347   3570532.27446  24458025.3934   24458030.6794   24458025.518
        45.0004         41.0004
 -12972292.65448 -10105042.72048  21578003.7324   21578006.5574   21578003.570
        53.0004         49.0004
 -19240570.70449 -14958856.19548  21738033.0064   21738035.4274   21738033.022
        54.0004         49.0004
   -459924.05547   -339178.81147  23136124.6574   23136126.4224   23136125.100
        47.0004         43.0004
   -657790.14847   -504137.63646  24098257.5024   24098261.3144   24098259.086
        45.0004         40.0004
 -20659595.05549 -16080108.63448  21021540.3974   21021545.5524   21021539.949
        55.0004         50.0004
  -1349479.06548  -1031414.25447  22925169.3054   22925173.2064   22925169.536
        49.0004         45.0004
  -3698198.86147  -2852876.47346  24654512.6104   24654518.5084   24654513.330
        42.0004         37.0004
  -7395635.28947  -5722525.01747  22821813.7344   22821817.8184   22821814.841
        47.0004         42.0004
 15  1  1  0  1 10.0000000  0  9G29G05G15G13G02G24G26G12G21
   4572246.50147   3571757.83946  24458324.6534   24458330.1194   24458324.936
        45.0004         41.0004
 -12971477.46348 -10104407.50548  21578158.7534   21578161.7704   21578158.638
        53.0004         49.0004
 -19240604.14149 -14958882.24848  21738026.9994   21738029.4664   21738026.676
        54.0004         49.0004
   -457951.75847   -337641.95147  23136499.4814   23136502.0724   23136500.382
        47.0004         43.0004
   -654420.24247   -501511.73646  24098898.9194   24098902.0264   24098900.176
        45.0004         40.0004
 -20661461.88649 -16081563.30748  21021185.2494   21021190.0824   21021184.685
        55.0004         50.0004
  -1347993.78548  -1030256.89347  22925452.4304   22925456.5194   22925451.949
        49.0004         45.0004
  -3700675.90747  -2854806.63246  24654041.0654   24654046.9224   24654042.071
        42.0004         37.0004
  -7397623.90147  -5724074.58347  22821435.7484   22821438.1824   22821436.255
        47.0004         42.0004
 15  1  1  0  1 11.0000000  0  9G29G05G15G13G02G24G26G12G21
   4573820.17547   3572984.07946  24458624.5684   24458629.4814   24458624.539
        45.0004         41.0004
 -12970661.01348 -10103771.31048  21578314.3734   21578316.8774   21578313.940
        53.0004         49.0004
 -19240636.64549 -14958907.57948  21738020.6674   21738023.3534   21738020.521
        54.0004         49.0004
   -455978.65647   -336104.47147  23136875.7914   23136878.4214   23136875.788
        47.0004         43.0004
   -651049.46147   -498885.15646  24099539.8494   24099543.2894   24099541.514
        45.0004         40.0004
 -20663327.34749 -16083016.91248  21020830.3854   21020835.4024   21020829.734
        55.0004         50.0004
  -1346507.71548  -1029098.91647  22925735.2804   22925738.9664   22925734.642
        49.0004         45.0004
  -3703152.29347  -2856736.27746  24653568.3074   24653574.3334   24653570.559
        42.0004         37.0004
  -7399611.10347  -5725623.04647  22821058.9594   22821060.6234   22821058.069
        47.0004         42.0004
 15  1  1  0  1 12.0000000  0  9G29G05G15G13G02G24G26G12G21
   4575393.58947   3574210.11446  24458924.2634   24458928.9864   24458924.029
        45.0004         41.0004
 -12969844.44748 -10103135.02648  21578469.6924   21578472.4304   21578469.325
        53.0004         49.0004
 -19240669.32949 -14958933.04848  21738014.5324   21738017.1014   21738014.300
        54.0004         49.0004
   -454005.90747   -334567.26747  23137249.8754   23137253.8774   23137251.160
        47.0004         43.0004
   -647678.93347   -496258.77446  24100181.4654   24100183.9744   24100182.893
        45.0004         40.0004
 -20665192.55149 -16084470.31948  21020475.0134   21020480.1744   21020474.737
        55.0004         50.0004
  -1345021.99348  -1027941.21147  22926018.1834   22926021.6404   22926017.307
        49.0004         45.0004
  -3705629.19147  -2858666.32646  24653097.2834   24653103.5864   24653098.772
        42.0004         37.0004
  -7401598.03447  -5727171.30747  22820680.6834   22820682.3134   22820679.976
        47.0004         42.0004
 15  1  1  0  1 13.0000000  0  9G29G05G15G13G02G24G26G12G21
   4576967.24447   3575436.33746  24459223.1554   24459228.2164   24459223.446
        45.0004         41.0004
 -12969027.23848 -10102498.23848  21578625.1864   21578627.7904   21578624.808
        53.0004         49.0004
 -19240701.68748 -14958958.26148  21738008.4364   21738010.6164   21738008.068
        53.0004         49.0004
   -452032.99647   -333029.92447  23137626.6534   23137628.8424   23137626.598
        47.0004         43.0004
   -644308.14447   -493632.18546  24100822.0334   24100824.6774   24100824.151
        45.0004         40.0004
 -20667056.97749 -16085923.11548  21020120.5144   21020125.3074   21020119.967
        55.0004         50.0004
  -1343536.11648  -1026783.38747  22926299.9714   22926304.7744   22926299.990
        49.0004         45.0004
  -3708106.04047  -2860596.33646  24652626.2014   24652633.3594   24652627.410
        42.0004         37.0004
  -7403584.18847  -5728718.96147  22820302.0854   22820304.0704   22820301.956
        47.0004         42.0004
 15  1  1  0  1 14.0000000  0  9G29G05G15G13G02G24G26G12G21
   4578540.15447   3576661.97846  24459522.3654   24459527.5804   24459522.663
        45.0004         41.0004
 -12968210.38348 -10101861.73148  21578780.6984   21578783.1854   21578780.266
        53.0004         49.0004
 -19240734.71548 -14958983.99848  21738001.8164   21738004.4554   21738001.738
        53.0004         49.0004
   -450060.90147   -331493.22847  23137999.9984   23138003.8984   23138001.749
        47.0004         43.0004
   -640938.09947   -491006.17746  24101464.0814   24101466.7404   24101465.654
        45.0004         40.0004
 -20668921.62949 -16087376.09148  21019765.7794   21019770.7754   21019765.114
        55.0004         50.0004
  -1342051.07348  -1025626.21447  22926582.0694   22926586.6114   22926582.500
        49.0004         45.0004
  -3710583.84747  -2862527.09546  24652155.2614   24652161.8294   24652155.815
        42.0004         37.0004
  -7405570.52247  -5730266.75247  22819923.6964   22819926.4294   22819924.012
        47.0004         42.0004
 15  1  1  0  1 15.0000000  0  9G29G05G15G13G02G24G26G12G21
   4580112.54147   3577887.21246  24459821.8704   24459827.0814   24459821.944
        45.0004         41.0004
 -12967393.66748 -10101225.32848  21578935.7304   21578938.6524   21578935.655
        53.0004         49.0004
 -19240768.20248 -14959010.09348  21737995.6524   21737998.3904   21737995.329
        53.0004         49.0004
   -448089.42447   -329957.01747  23138375.8364   23138378.2684   23138376.932
        47.0004         43.0004
   -637568.57747   -488380.58246  24102104.7124   24102108.6994   24102106.708
        45.0004         40.0004
 -20670786.28749 -16088829.07448  21019410.6894   21019416.0984   21019410.275
        55.0004         50.0004
  -1340566.63148  -1024469.50047  22926865.4644   22926868.1604   22926864.886
        49.0004         45.0004
  -3713062.45047  -2864458.47146  24651684.4614   24651690.0374   24651684.110
        42.0004         37.0004
  -7407556.87547  -5731814.56447  22819545.2374   22819548.1934   22819546.039
        47.0004         42.0004
 15  1  1  0  1 16.0000000  0  9G29G05G15G13G02G24G26G12G21
   4581684.97347   3579112.48046  24460120.8104   24460126.0584   24460121.191
        45.0004         41.0004
 -12966576.52048 -10100588.59048  21579091.6884   21579094.3424   21579091.101
        53.0004         49.0004
 -19240801.54948 -14959036.07748  21737989.3064   21737991.7524   21737989.027
        53.0004         49.0004
   -446117.96047   -328420.81347  23138751.2334   23138752.9064   23138752.034
        47.0004         43.0004
   -634198.99447   -485754.93446  24102745.4434   24102750.4204   24102747.786
        45.0004         40.0004
 -20672650.38749 -16090281.61648  21019056.0404   21019061.0004   21019055.539
        55.0004         50.0004
  -1339082.21548  -1023312.80847  22927147.2044   22927152.3344   22927147.206
        49.0004         45.0004
  -3715541.19447  -2866389.95946  24651213.5314   24651218.5514   24651212.565
        42.0004         37.0004
  -7409542.59547  -5733361.87547  22819167.9344   22819170.1114   22819168.336
        47.0004         42.0004
 15  1  1  0  1 17.0000000  0  9G29G05G15G13G02G24G26G12G21
   4583258.05247   3580338.25646  24460419.8974   24460425.3714   24460420.396
        45.0004         41.0004
 -12965758.33048 -10099951.03848  21579247.2234   21579250.1374   21579246.807
        53.0004         49.0004
 -19240834.15848 -14959061.48348  21737983.2694   21737985.4774   21737982.815
        53.0004         49.0004
   -444145.92447   -326884.17147  23139127.3434   23139128.5074   23139127.181
        47.0004         43.0004
   -630828.75247   -483128.77546  24103386.9484   24103391.4084   24103388.887
        45.0004         40.0004
 -20674513.31349 -16091733.24548  21018701.8734   21018706.8064   21018701.062
        55.0004         50.0004
  -1337597.23848  -1022155.68147  22927430.3814   22927433.9734   22927429.751
        49.0004         45.0004
  -3718019.53147  -2868321.12646  24650741.5834   24650747.2104   24650740.677
        42.0004         37.0004
  -7411527.14047  -5734908.27147  22818789.8914   22818793.4744   22818790.801
        47.0004         42.0004
 15  1  1  0  1 18.0000000  0  9G29G05G15G13G02G24G26G12G21
   4584831.10047   3581564.00546  24460719.2724   24460724.8334   24460719.763
        45.0004         41.0004
 -12964939.78648 -10099313.21148  21579402.6564   21579405.6014   21579402.586
        53.0004         49.0004
 -19240866.74348 -14959086.87748  21737976.8334   21737979.4754   21737976.631
        53.0004         49.0004
   -442174.02947   -325347.62447  23139502.2054   23139504.6474   23139502.386
        47.0004         43.0004
   -627458.54147   -480502.64046  24104028.7294   24104033.3714   24104030.286
        45.0004         40.0004
 -20676375.75949 -16093184.50348  21018347.4514   21018352.3334   21018346.626
        55.0004         50.0004
  -1336112.38648  -1020998.65747  22927712.6034   22927716.4114   22927712.407
        49.0004         45.0004
  -3720498.11247  -2870252.48446  24650269.9344   24650275.3954   24650269.040
        42.0004         37.0004
  -7413511.18147  -5736454.28147  22818412.9514   22818415.4564   22818413.233
        47.0004         42.0004
 15  1  1  0  1 19.0000000  0  9G29G05G15G13G02G24G26G12G21
   4586403.92747   3582789.58246  24461018.1654   24461024.1154   24461018.960
        45.0004         41.0004
 -12964121.07048 -10098675.25248  21579558.7704   21579561.3834   21579558.362
        53.0004         49.0004
 -19240899.45948 -14959112.36948  21737970.8874   21737972.9874   21737970.403
        53.0004         49.0004
   -440202.43147   -323811.31247  23139876.7614   23139880.2034   23139877.611
        47.0004         43.0004
   -624088.53947   -477876.66446  24104670.4574   24104674.7464   24104671.423
        45.0004         40.0004
 -20678237.89549 -16094635.51648  21017992.9484   21017997.6874   21017992.296
        55.0004         50.0004
  -1334627.83448  -1019841.86547  22927995.6034   22927999.2174   22927994.840
        49.0004         45.0004
  -3722977.13047  -2872184.18746  24649798.9284   24649804.5394   24649797.667
        42.0004         37.0004
  -7415494.90947  -5738000.04247  22818034.4964   22818037.8324   22818035.726
        47.0004         42.0004
 15  1  1  0  1 20.0000000  0  9G29G05G15G13G02G24G26G12G21
   4587976.26647   3584014.77846  24461317.4934   24461323.6274   24461318.186
        45.0004         41.0004
 -12963302.44148 -10098037.35948  21579714.4204   21579717.5524   21579714.134
        53.0004         49.0004
 -19240932.59048 -14959138.18548  21737964.3864   21737966.8664   21737964.020
        53.0004         49.0004
   -438231.37647   -322275.42247  23140251.8944   23140254.6884   23140252.591
        47.0004         43.0004
   -620719.01047   -475251.05846  24105310.9164   24105315.4184   24105312.295
        45.0004         40.0004
 -20680099.98849 -16096086.49548  21017638.7464   21017643.5744   21017637.990
        55.0004         50.0004
  -1333143.84548  -1018685.50947  22928277.5724   22928281.3974   22928277.187
        49.0004         45.0004
  -3725456.86647  -2874116.44546  24649327.2804   24649332.9564   24649325.760
        42.0004         37.0004
  -7417478.55347  -5739545.73647  22817657.4214   22817660.6234   22817658.186
        47.0004         42.0004
 15  1  1  0  1 21.0000000  0  9G29G05G15G13G02G24G26G12G21
   4589548.93647   3585240.23446  24461616.7054   24461622.7444   24461617.309
        45.0004         41.0004
 -12962483.10048 -10097398.91148  21579870.4364   21579872.7534   21579870.060
        53.0004         49.0004
 -19240965.31348 -14959163.68148  21737957.9774   21737960.5054   21737957.747
        53.0004         49.0004
   -436260.08947   -320739.35747  23140626.6654   23140629.7384   23140627.515
        47.0004         43.0004
   -617349.14447   -472625.19046  24105953.1814   24105957.1514   24105953.453
        45.0004         40.0004
 -20681961.22549 -16097536.81048  21017284.4884   21017289.4574   21017283.857
        55.0004         50.0004
  -1331659.60748  -1017528.95647  22928559.7574   22928564.1324   22928559.681
        49.0004         45.0004
  -3727936.48147  -2876048.60946  24648855.0374   24648860.7934   24648853.832
        42.0004         37.0004
  -7419461.32047  -5741090.74647  22817281.0324   22817282.8624   22817280.908
        47.0004         42.0004
 15  1  1  0  1 22.0000000  0  9G29G05G15G13G02G24G26G12G21
   4591121.62547   3586465.70446  24461915.8324   24461921.8894   24461916.492
        45.0004         41.0004
 -12961663.33648 -10096760.13448  21580026.4344   21580029.2904   21580026.023
        53.0004         49.0004
 -19240997.92248 -14959189.09148  21737952.0394   21737954.4864   21737951.459
        53.0004         49.0004
   -434288.84147   -319203.31747  23141002.4364   23141005.4804   23141002.517
        47.0004         43.0004
   -613979.23947   -469999.29046  24106595.0294   24106598.4524   24106594.661
        45.0004         40.0004
 -20683821.90949 -16098986.69448  21016930.3834   21016935.2494   21016929.787
        55.0004         50.0004
  -1330175.43348  -1016372.45747  22928843.2644   22928847.1454   22928842.131
        49.0004         45.0004
  -3730416.30847  -2877980.93846  24648382.7604   24648387.8764   24648381.894
        42.0004         37.0004
  -7421443.54847  -5742635.34447  22816904.1224   22816906.7414   22816903.799
        47.0004         42.0004
 15  1  1  0  1 23.0000000  0  9G29G05G15G13G02G24G26G12G21
   4592694.01347   3587690.94146  24462214.9284   24462221.0044   24462215.531
        45.0004         41.0004
 -12960843.50048 -10096121.30048  21580182.4874   21580185.2174   21580181.991
        53.0004         49.0004
 -19241030.77848 -14959214.69448  21737945.9014   21737947.9564   21737945.169
        53.0004         49.0004
   -432318.00747   -317667.60347  23141378.7684   23141380.2924   23141377.500
        47.0004         43.0004
   -610609.64747   -467373.63446  24107235.8554   24107239.1964   24107235.759
        45.0004         40.0004
 -20685682.41049 -16100436.43448  21016576.2784   21016581.2904   21016575.762
        55.0004         50.0004
  -1328691.64848  -1015216.26147  22929125.7374   22929129.8794   22929124.523
        49.0004         45.0004
  -3732896.67447  -2879913.68946  24647909.5374   24647916.0124   24647909.577
        42.0004         37.0004
  -7423425.52247  -5744179.74247  22816525.7004   22816529.9804   22816526.663
        47.0004         42.0004
 15  1  1  0  1 24.0000000  0  9G29G05G15G13G02G24G26G12G21
   4594267.00547   3588916.64946  24462513.8434   24462520.3454   24462514.513
        45.0004         41.0004
 -12960022.65448 -10095481.67848  21580338.5984   21580341.4254   21580338.109
        53.0004         49.0004
 -19241062.94148 -14959239.75448  21737939.6584   21737942.1124   21737939.018
        53.0004         49.0004
   -430346.62547   -316131.45947  23141752.3104   23141756.8074   23141752.407
        47.0004         43.0004
   -607239.42147   -464747.48446  24107877.0864   24107880.0884   24107877.081
        45.0004         40.0004
 -20687541.76749 -16101885.28248  21016222.5964   21016227.4974   21016222.003
        55.0004         50.0004
  -1327207.33748  -1014059.65347  22929408.0404   22929410.9484   22929407.069
        49.0004         45.0004
  -3735376.64247  -2881846.12846  24647437.6334   24647444.0484   24647437.604
        42.0004         37.0004
  -7425406.33747  -5745723.22947  22816149.6974   22816152.3904   22816149.711
        47.0004         42.0004
 15  1  1  0  1 25.0000000  0  9G29G05G15G13G02G24G26G12G21
   4595840.38447   3590142.65846  24462813.1404   24462819.8834   24462813.767
        45.0004         41.0004
 -12959201.03248 -10094841.45348  21580494.8394   21580497.7504   21580494.398
        53.0004         49.0004
 -19241094.63848 -14959264.45348  21737933.3904   21737935.9174   21737932.914
        53.0004         49.0004
   -428374.91747   -314595.06547  23142128.5494   23142130.4694   23142127.623
        47.0004         42.0004
   -603868.80647   -462121.03246  24108517.8354   24108521.4474   24108518.224
        45.0004         40.0004
 -20689400.20449 -16103333.41548  21015869.0554   21015873.8114   21015868.380
        55.0004         50.0004
  -1325722.71448  -1012902.80347  22929690.2464   22929693.4024   22929689.708
        49.0004         45.0004
  -3737856.43747  -2883778.43346  24646965.9464   24646971.9844   24646965.810
        42.0004         37.0004
  -7427386.23247  -5747266.00047  22815773.6164   22815775.2094   22815772.926
        47.0004         42.0004
 15  1  1  0  1 26.0000000  0  9G29G05G15G13G02G24G26G12G21
   4597413.55447   3591368.50346  24463112.5474   24463119.6614   24463113.033
        45.0004         41.0004
 -12958379.23848 -10094201.09648  21580651.2374   21580654.1154   21580650.752
        53.0004         49.0004
 -19241126.47248 -14959289.25848  21737927.4854   21737930.2814   21737926.871
        53.0004         49.0004
   -426403.51747   -313058.90747  23142502.3354   23142504.8054   23142502.723
        47.0004         43.0004
   -600498.40547   -459494.75046  24109160.1194   24109163.4514   24109159.543
        45.0004         40.0004
 -20691258.32049 -16104781.29848  21015515.3484   21015520.2084   21015514.819
        55.0004         50.0004
  -1324238.41248  -1011746.20147  22929972.8354   22929975.9684   22929972.303
        49.0004         45.0004
  -3740336.66647  -2885711.07746  24646494.7684   24646498.9894   24646493.805
        42.0004         37.0004
  -7429365.79147  -5748808.51847  22815395.8744   22815399.6934   22815396.267
        47.0004         42.0004
 15  1  1  0  1 27.0000000  0  9G29G05G15G13G02G24G26G12G21
   4598985.62647   3592593.49346  24463411.9874   24463418.8114   24463412.101
        45.0004         41.0004
 -12957558.14248 -10093561.27948  21580807.7264   21580810.3254   21580806.924
        53.0004         49.0004
 -19241159.31248 -14959314.84648  21737921.2374   21737923.6324   21737920.638
        53.0004         49.0004
   -424433.30447   -311523.67547  23142877.5844   23142881.4924   23142877.686
        47.0004         43.0004
   -597129.07147   -456869.29846  24109800.9604   24109804.2804   24109800.509
        45.0004         40.0004
 -20693116.99649 -16106229.61648  21015161.6004   21015166.5754   21015161.169
        55.0004         50.0004
  -1322755.26148  -1010590.50147  22930254.6814   22930257.9754   22930254.736
        49.0004         45.0004
  -3742818.24347  -2887644.77346  24646022.6574   24646027.0354   24646021.691
        42.0004         37.0004
  -7431345.90647  -5750351.46547  22815018.6614   22815022.0024   22815019.498
        47.0004         42.0004
 15  1  1  0  1 28.0000000  0  9G29G05G15G13G02G24G26G12G21
   4600557.53847   3593818.35846  24463711.3574   24463718.4144   24463711.146
        45.0004         41.0004
 -12956736.80848 -10092921.27848  21580963.8244   21580966.7584   21580963.187
        53.0004         49.0004
 -19241192.22448 -14959340.49448  21737914.8574   21737917.5534   21737914.397
        53.0004         49.0004
   -422463.30247   -309988.61547  23143252.7194   23143254.8994   23143252.633
        47.0004         43.0004
   -593759.90447   -454243.97646  24110442.1014   24110445.7784   24110441.667
        45.0004         40.0004
 -20694975.30249 -16107677.64648  21014808.0344   21014812.8344   21014807.590
        55.0004         50.0004
  -1321272.35348  -1009434.99147  22930536.4894   22930539.9524   22930536.964
        49.0004         45.0004
  -3745300.16147  -2889578.73346  24645550.3244   24645554.7354   24645549.245
        42.0004         37.0004
  -7433325.62047  -5751894.10347  22814642.8074   22814644.8304   22814642.747
        47.0004         42.0004
 15  1  1  0  1 29.0000000  0  9G29G05G15G13G02G24G26G12G21
   4602129.47647   3595043.24446  24464010.1664   24464017.1224   24464009.986
        45.0004         41.0004
 -12955915.06848 -10092280.95748  21581120.2204   21581122.9084   21581119.533
        53.0004         49.0004
 -19241225.05048 -14959366.06948  21737908.5484   21737911.1904   21737908.174
        53.0004         49.0004
   -420493.36047   -308453.58847  23143627.3374   23143631.3264   23143627.393
        47.0004         43.0004
   -590390.70347   -451618.62546  24111082.9134   24111086.0354   24111082.520
        45.0004         40.0004
 -20696833.08649 -16109125.26448  21014454.4094   21014459.3784   21014454.009
        55.0004         50.0004
  -1319789.51048  -1008279.53047  22930819.9074   22930822.7564   22930819.274
        49.0004         45.0004
  -3747782.27347  -2891512.84446  24645078.0204   24645082.6324   24645076.671
        42.0004         37.0004
  -7435304.77847  -5753436.30647  22814266.1624   22814269.2404   22814266.174
        47.0004         42.0004
 15  1  1  0  1 30.0000000  0  9G29G05G15G13G02G24G26G12G21
   4603701.70847   3596268.35946  24464309.3144   24464316.1894   24464308.914
        45.0004         41.0004
 -12955092.61348 -10091640.08748  21581276.3084   21581279.5264   21581276.032
        53.0004         49.0004
 -19241257.48248 -14959391.34248  21737902.4164   21737905.1914   21737902.007
        53.0004         49.0004
   -418523.20747   -306918.40647  23144002.2914   23144006.1364   23144002.351
        47.0004         43.0004
   -587021.18247   -448993.02346  24111723.9324   24111727.2124   24111723.548
        45.0004         40.0004
 -20698690.02949 -16110572.23648  21014100.9204   21014106.0404   21014100.660
        55.0004         50.0004
  -1318306.43748  -1007123.89047  22931101.2894   22931104.5134   22931101.524
        49.0004         45.0004
  -3750264.31847  -2893446.90346  24644605.2504   24644611.3974   24644604.228
        42.0004         37.0004
  -7437283.07747  -5754977.82947  22813889.9054   22813891.6034   22813889.798
        47.0004         42.0004
 15  1  1  0  1 31.0000000  0  9G29G05G15G13G02G24G26G12G21
   4605273.23947   3597492.92746  24464608.3684   24464615.3264   24464608.003
        45.0004         41.0004
 -12954270.49448 -10090999.47548  21581432.9054   21581436.0544   21581432.442
        53.0004         49.0004
 -19241290.55148 -14959417.11248  21737896.2384   21737898.5774   21737895.781
        53.0004         49.0004
   -416553.83247   -305383.83147  23144378.0144   23144380.3734   23144377.190
        47.0004         43.0004
   -583652.37847   -446367.98446  24112364.7834   24112368.9434   24112364.424
        45.0004         40.0004
 -20700547.17549 -16112019.36348  21013747.7664   21013752.6584   21013747.222
        55.0004         50.0004
  -1316824.17348  -1005968.88247  22931383.9894   22931386.8684   22931383.637
        49.0004         45.0004
  -3752747.30047  -2895381.69146  24644132.5404   24644138.2644   24644131.587
        42.0004         37.0004
  -7439261.55447  -5756519.50547  22813512.4804   22813515.6534   22813513.227
        47.0004         42.0004
 15  1  1  0  1 32.0000000  0  9G29G05G15G13G02G24G26G12G21
   4606844.73747   3598717.47146  24464907.8224   24464914.4994   24464907.008
        45.0004         41.0004
 -12953448.00848 -10090358.57548  21581589.6494   21581592.5434   21581589.040
        53.0004         49.0004
 -19241323.57948 -14959442.84448  21737889.8764   21737892.7074   21737889.440
        53.0004         49.0004
   -414584.56147   -303849.32547  23144753.3954   23144753.2484   23144751.934
        47.0004         43.0004
   -580283.57447   -443742.94446  24113006.1144   24113009.6774   24113005.563
        45.0004         40.0004
 -20702403.80149 -16113466.08148  21013394.4194   21013399.4884   21013393.922
        55.0004         50.0004
  -1315342.01648  -1004813.95047  22931665.8484   22931668.2034   22931665.749
        49.0004         45.0004
  -3755230.52347  -2897316.66746  24643659.5584   24643665.2484   24643659.093
        42.0004         37.0004
  -7441239.50247  -5758060.76447  22813136.3774   22813139.2544   22813136.872
        47.0004         42.0004
 15  1  1  0  1 33.0000000  0  9G29G05G15G13G02G24G26G12G21
   4608416.99547   3599942.60846  24465206.7584   24465213.4864   24465206.131
        45.0004         41.0004
 -12952624.36748 -10089716.77848  21581746.5564   21581749.3084   21581745.769
        53.0004         49.0004
 -19241355.75748 -14959467.91848  21737884.0664   21737886.2594   21737883.329
        53.0004         49.0004
   -412614.61447   -302314.30447  23145127.3344   23145129.5024   23145126.926
        47.0004         43.0004
   -576914.03147   -441117.32546  24113647.1604   24113650.8514   24113646.784
        45.0004         40.0004
 -20704259.16349 -16114911.82048  21013041.3834   21013046.2644   21013040.867
        55.0004         50.0004
  -1313859.18748  -1003658.50147  22931947.4154   22931950.6584   22931948.034
        49.0004         45.0004
  -3757713.20847  -2899251.22246  24643188.0124   24643193.7134   24643186.987
        42.0004         37.0004
  -7443216.14747  -5759601.00247  22812760.8374   22812762.9294   22812760.871
        47.0004         42.0004
 15  1  1  0  1 34.0000000  0  9G29G05G15G13G02G24G26G12G21
   4609989.76547   3601168.14546  24465505.7174   24465513.2474   24465505.502
        45.0004         41.0004
 -12951799.82748 -10089074.27848  21581903.2404   21581906.1064   21581902.658
        53.0004         49.0004
 -19241387.35048 -14959492.53548  21737878.0504   21737880.2744   21737877.363
        53.0004         49.0004
   -410644.25047   -300778.96147  23145502.2674   23145504.3654   23145501.913
        47.0004         43.0004
   -573543.96447   -438491.30046  24114288.5884   24114292.4664   24114288.038
        45.0004         40.0004
 -20706113.48849 -16116356.74548  21012688.5454   21012693.5294   21012688.006
        55.0004         50.0004
  -1312375.93048  -1002502.71747  22932230.6504   22932231.8104   22932230.351
        49.0004         45.0004
  -3760195.61047  -2901185.55846  24642716.5204   24642721.7694   24642714.939
        42.0004         37.0004
  -7445191.74147  -5761140.42847  22812384.5264   22812386.4894   22812385.009
        47.0004         42.0004
 15  1  1  0  1 35.0000000  0  9G29G05G15G13G02G24G26G12G21
   4611562.39947   3602393.57546  24465805.1194   24465812.5234   24465804.570
        45.0004         41.0004
 -12950975.00348 -10088431.55748  21582060.0434   21582062.9894   21582059.647
        53.0004         49.0004
 -19241418.96248 -14959517.16848  21737871.6794   21737874.2724   21737871.376
        53.0004         49.0004
   -408674.05747   -299243.74347  23145877.6954   23145877.9124   23145876.807
        47.0004         43.0004
   -570173.98947   -435865.34746  24114930.0224   24114933.7434   24114929.346
        45.0004         40.0004
 -20707967.40549 -16117801.35448  21012335.7014   21012340.4454   21012335.194
        55.0004         50.0004
  -1310892.86948  -1001347.08347  22932512.4084   22932515.6114   22932512.583
        49.0004         45.0004
  -3762678.35547  -2903120.16446  24642243.5834   24642249.8044   24642242.457
        42.0004         37.0004
  -7447166.90647  -5762679.51947  22812009.2044   22812010.6904   22812009.195
        47.0004         42.0004
 15  1  1  0  1 36.0000000  0  9G29G05G15G13G02G24G26G12G21
   4613135.17847   3603619.11746  24466104.6164   24466111.8364   24466103.845
        45.0004         41.0004
 -12950149.65348 -10087788.42948  21582217.3434   21582220.3064   21582216.756
        53.0004         49.0004
 -19241450.37448 -14959541.64448  21737865.9494   21737868.6434   21737865.322
        53.0004         49.0004
   -406703.82947   -297708.50347  23146251.0684   23146253.9864   23146251.761
        47.0004         42.0004
   -566803.87947   -433239.28846  24115571.0874   24115574.3834   24115570.227
        45.0004         40.0004
 -20709820.65049 -16119245.44248  21011983.1354   21011987.8504   21011982.552
        55.0004         50.0004
  -1309409.75948  -1000191.41647  22932794.6094   22932797.3674   22932794.811
        49.0004         45.0004
  -3765161.16347  -2905054.81746  24641770.3434   24641777.6054   24641769.777
        42.0004         37.0004
  -7449141.39147  -5764218.07747  22811633.3194   22811636.0924   22811633.473
        47.0004         42.0004
 15  1  1  0  1 37.0000000  0  9G29G05G15G13G02G24G26G12G21
   4614707.65347   3604844.42346  24466404.3694   24466410.6644   24466403.187
        45.0004         41.0004
 -12949324.20648 -10087145.22248  21582374.3754   21582376.9604   21582373.862
        53.0004         49.0004
 -19241482.01848 -14959566.29848  21737859.4214   21737862.3104   21737859.373
        53.0004         49.0004
   -404733.96447   -296173.53947  23146626.1094   23146629.2904   23146626.704
        47.0004         42.0004
   -563434.07447   -430613.46646  24116211.9254   24116216.1394   24116211.333
        45.0004         40.0004
 -20711673.67749 -16120689.35648  21011630.1904   21011635.4284   21011629.969
        55.0004         50.0004
  -1307927.02748   -999036.03947  22933077.0284   22933079.9574   22933076.977
        49.0004         45.0004
  -3767644.52247  -2906989.89946  24641297.2944   24641305.0844   24641297.105
        42.0004         37.0004
  -7451115.63547  -5765756.44447  22811256.7454   22811260.6684   22811257.891
        47.0004         42.0004
 15  1  1  0  1 38.0000000  0  9G29G05G15G13G02G24G26G12G21
   4616280.06647   3606069.68046  24466703.4014   24466710.2274   24466702.465
        45.0004         41.0004
 -12948498.43348 -10086501.76348  21582531.6184   21582534.3894   21582531.020
        53.0004         49.0004
 -19241513.63748 -14959590.93748  21737853.6964   21737856.3394   21737853.374
        53.0004         49.0004
   -402764.25547   -294638.70747  23147001.9764   23147003.2214   23147001.657
        47.0004         42.0004
   -560064.29947   -427987.66846  24116854.3954   24116857.2044   24116852.662
        45.0004         40.0004
 -20713526.25449 -16122132.92448  21011277.6854   21011282.6884   21011277.333
        55.0004         50.0004
  -1306444.43448   -997880.77747  22933359.2544   22933362.1394   22933359.235
        49.0004         45.0004
  -3770128.14647  -2908925.18646  24640825.3554   24640832.6264   24640824.694
        42.0004         37.0004
  -7453089.38647  -5767294.43247  22810881.6734   22810884.1594   22810882.320
        47.0004         42.0004
 15  1  1  0  1 39.0000000  0  9G29G05G15G13G02G24G26G12G21
   4617852.18447   3607294.70846  24467002.6784   24467009.6904   24467001.698
        45.0004         41.0004
 -12947672.55648 -10085858.22348  21582688.7314   21582691.4424   21582688.138
        53.0004         49.0004
 -19241545.47548 -14959615.74648  21737847.9184   21737850.5164   21737847.355
        53.0004         49.0004
   -400794.89647   -293104.13547  23147376.7594   23147379.2354   23147376.450
        47.0004         43.0004
   -556694.81947   -425362.09746  24117495.9394   24117498.7504   24117493.974
        45.0004         40.0004
 -20715378.61649 -16123576.32448  21010925.4534   21010930.2944   21010924.857
        55.0004         50.0004
  -1304962.22348   -996725.80847  22933640.3364   22933643.8444   22933641.237
        49.0004         45.0004
  -3772612.26747  -2910860.86246  24640353.2104   24640359.0644   24640352.491
        42.0004         37.0004
  -7455062.88447  -5768832.22947  22810506.1894   22810507.8264   22810506.790
        47.0004         42.0004
 15  1  1  0  1 40.0000000  0  9G29G05G15G13G02G24G26G12G21
   4619424.00547   3608519.50246  24467301.8374   24467308.5094   24467300.887
        45.0004         41.0004
 -12946846.60048 -10085214.62248  21582845.7904   21582848.6054   21582845.329
        53.0004         49.0004
 -19241577.52448 -14959640.71948  21737841.7744   21737844.2524   21737841.248
        53.0004         49.0004
   -398825.92647   -291569.88247  23147750.7504   23147753.1714   23147751.213
        47.0004         43.0004
   -553325.65047   -422736.77346  24118136.9864   24118140.0624   24118135.218
        45.0004         40.0004
 -20717230.76749 -16125019.55548  21010572.7284   21010577.8104   21010572.343
        55.0004         50.0004
  -1303480.41448   -995571.15047  22933923.2694   22933926.6624   22933923.170
        49.0004         45.0004
  -3775096.90447  -2912796.94246  24639879.1014   24639886.9694   24639879.874
        42.0004         37.0004
  -7457036.16247  -5770369.84647  22810130.9914   22810134.1764   22810131.319
        47.0004         42.0004
 15  1  1  0  1 41.0000000  0  9G29G05G15G13G02G24G26G12G21
   4620996.04247   3609744.46646  24467600.9784   24467607.1494   24467600.151
        45.0004         41.0004
 -12946020.00648 -10084570.52248  21583003.3684   21583005.9814   21583002.697
        53.0004         49.0004
 -19241609.26848 -14959665.45448  21737835.9654   21737838.0914   21737835.239
        53.0004         49.0004
   -396856.80847   -290035.50447  23148125.9194   23148128.3004   23148126.064
        47.0004         43.0004
   -549956.21347   -420111.23846  24118777.5584   24118780.8954   24118776.303
        45.0004         40.0004
 -20719082.14049 -16126462.18348  21010220.4814   21010225.6464   21010219.965
        55.0004         50.0004
  -1301998.44248   -994416.36547  22934204.5594   22934207.5804   22934205.162
        49.0004         45.0004
  -3777581.56647  -2914733.03646  24639407.1524   24639413.7294   24639407.168
        42.0004         37.0004
  -7459008.63747  -5771906.84247  22809755.5134   22809758.6154   22809755.984
        47.0004         42.0004
 15  1  1  0  1 42.0000000  0  9G29G05G15G13G02G24G26G12G21
   4622568.61447   3610969.84946  24467899.6944   24467906.6244   24467899.503
        45.0004         41.0004
 -12945192.50948 -10083925.71548  21583160.7814   21583163.4764   21583160.209
        53.0004         49.0004
 -19241640.41348 -14959689.71848  21737829.9124   21737832.5914   21737829.440
        53.0004         49.0004
   -394887.24847   -288500.78047  23148500.2744   23148503.4214   23148500.742
        47.0004         43.0004
   -546586.25947   -417485.30046  24119418.7584   24119422.6594   24119417.760
        45.0004         40.0004
 -20720932.46349 -16127903.99148  21009868.4484   21009873.6564   21009867.818
        55.0004         50.0004
  -1300516.03048   -993261.23547  22934487.0794   22934490.1384   22934487.295
        49.0004         45.0004
  -3780065.89047  -2916668.86646  24638934.4314   24638940.0194   24638934.516
        42.0004         37.0004
  -7460980.05447  -5773443.00947  22809380.4804   22809383.0044   22809380.769
        47.0004         42.0004
 15  1  1  0  1 43.0000000  0  9G29G05G15G13G02G24G26G12G21
   4624141.10247   3612195.16446  24468199.2334   24468205.3974   24468198.840
        45.0004         41.0004
 -12944364.68048 -10083280.65548  21583318.1514   21583320.9184   21583317.732
        53.0004         49.0004
 -19241671.55148 -14959713.98848  21737823.7834   21737826.5204   21737823.521
        53.0004         49.0004
   -392917.84047   -286966.18047  23148875.4624   23148877.9944   23148875.599
        47.0004         42.0004
   -543216.36147   -414859.40746  24120060.2004   24120063.9084   24120059.031
        45.0004         40.0004
 -20722782.33749 -16129345.45248  21009516.5884   21009521.3734   21009515.798
        55.0004         50.0004
  -1299033.77048   -992106.23047  22934768.9174   22934772.1204   22934769.292
        49.0004         45.0004
  -3782550.52547  -2918604.94446  24638461.4134   24638466.5954   24638462.033
        42.0004         37.0004
  -7462951.00147  -5774978.81347  22809005.4884   22809007.2464   22809005.740
        47.0004         42.0004
 15  1  1  0  1 44.0000000  0  9G29G05G15G13G02G24G26G12G21
   4625713.50547   3613420.41346  24468498.4414   24468505.0514   24468498.235
        45.0004         41.0004
 -12943536.55448 -10082635.36248  21583475.5424   21583478.4944   21583475.290
        53.0004         49.0004
 -19241702.69648 -14959738.25648  21737818.2874   21737820.3884   21737817.665
        53.0004         49.0004
   -390948.57847   -285431.68647  23149249.0174   23149252.4254   23149250.276
        47.0004         43.0004
   -539846.55447   -412233.58546  24120701.3524   24120705.5494   24120700.272
        45.0004         40.0004
 -20724631.77649 -16130786.57148  21009164.3824   21009169.3884   21009163.834
        55.0004         50.0004
  -1297551.67348   -990951.34847  22935051.3424   22935054.6274   22935051.284
        49.0004         45.0004
  -3785035.45247  -2920541.24646  24637989.0994   24637994.0724   24637989.171
        42.0004         37.0004
  -7464921.49247  -5776514.25647  22808630.0474   22808631.7454   22808630.794
        47.0004         42.0004
 15  1  1  0  1 45.0000000  0  9G29G05G15G13G02G24G26G12G21
   4627285.72547   3614645.52146  24468797.5494   24468804.1744   24468797.551
        45.0004         41.0004
 -12942708.21748 -10081989.90648  21583633.3924   21583636.0374   21583632.942
        53.0004         49.0004
 -19241733.94748 -14959762.60348  21737811.9964   21737814.2194   21737811.681
        53.0004         49.0004
   -388979.59547   -283897.41547  23149624.4374   23149627.5254   23149625.037
        47.0004         42.0004
   -536476.92647   -409607.90046  24121342.0164   24121347.1464   24121341.566
        45.0004         40.0004
 -20726480.89649 -16132227.44448  21008812.4574   21008817.7714   21008811.844
        55.0004         50.0004
  -1296069.86748   -989796.69547  22935333.2224   22935336.2684   22935333.144
        49.0004         45.0004
  -3787520.80447  -2922477.87946  24637515.8274   24637520.4054   24637516.282
        42.0004         37.0004
  -7466891.61447  -5778049.41247  22808255.6544   22808258.1994   22808255.904
        47.0004         42.0004
 15  1  1  0  1 46.0000000  0  9G29G05G15G13G02G24G26G12G21
   4628857.81647   3615870.52546  24469096.7654   24469103.2734   24469096.920
        45.0004         41.0004
 -12941879.61148 -10081344.24048  21583791.3764   21583793.5104   21583790.652
        53.0004         49.0004
 -19241765.22848 -14959786.97748  21737806.0094   21737808.2724   21737805.785
        53.0004         49.0004
   -387010.80647   -282363.29547  23149999.6084   23150001.9434   23149999.399
        47.0004         42.0004
   -533107.40247   -406982.29846  24121983.0664   24121988.1144   24121982.706
        45.0004         40.0004
 -20728329.59949 -16133667.99148  21008460.8394   21008465.8784   21008460.128
        55.0004         50.0004
  -1294588.24048   -988642.18047  22935615.5384   22935618.4614   22935615.069
        49.0004         45.0004
  -3790006.45547  -2924414.74746  24637042.1084   24637047.7064   24637043.551
        42.0004         37.0004
  -7468861.31147  -5779584.23747  22807880.0714   22807883.1384   22807880.957
        47.0004         42.0004
 15  1  1  0  1 47.0000000  0  9G29G05G15G13G02G24G26G12G21
   4630429.71847   3617095.38246  24469396.0084   24469402.7254   24469396.122
        45.0004         41.0004
 -12941050.81248 -10080698.42148  21583948.5984   21583951.7424   21583948.338
        53.0004         49.0004
 -19241796.63148 -14959811.44348  21737799.8034   21737802.6644   21737799.808
        53.0004         49.0004
   -385042.30747   -280829.40147  23150374.4354   23150377.1744   23150373.906
        47.0004         42.0004
   -529738.08247   -404356.85546  24122624.7354   24122629.0934   24122624.131
        45.0004         40.0004
 -20730177.97549 -16135108.28248  21008108.9354   21008114.3254   21008108.336
        55.0004         50.0004
  -1293106.90848   -987487.89647  22935896.3984   22935900.8504   22935896.901
        49.0004         45.0004
  -3792492.55647  -2926351.96546  24636568.3784   24636575.1354   24636570.403
        42.0004         37.0004
  -7470830.66847  -5781118.80247  22807505.1574   22807508.3424   22807506.223
        47.0004         42.0004
 15  1  1  0  1 48.0000000  0  9G29G05G15G13G02G24G26G12G21
   4632001.23547   3618319.94246  24469695.4674   24469701.6314   24469695.366
        45.0004         41.0004
 -12940221.99748 -10080052.59148  21584106.6524   21584109.3104   21584106.049
        53.0004         49.0004
 -19241828.34249 -14959836.15648  21737793.9394   21737796.7024   21737793.783
        54.0004         49.0004
   -383074.23247   -279295.84047  23150748.3354   23150751.2304   23150748.398
        47.0004         42.0004
   -526369.11447   -401731.68646  24123265.6054   24123269.4604   24123265.254
        45.0004         40.0004
 -20732026.18649 -16136548.44748  21007757.1514   21007762.3034   21007756.609
        55.0004         50.0004
  -1291626.02848   -986333.96347  22936178.6494   22936181.4184   22936178.620
        49.0004         45.0004
  -3794979.25947  -2928289.65446  24636095.1874   24636101.4084   24636097.122
        42.0004         37.0004
  -7472799.86047  -5782653.23847  22807130.2934   22807133.7424   22807131.449
        47.0004         42.0004
 15  1  1  0  1 49.0000000  0  9G29G05G15G13G02G24G26G12G21
   4633573.28147   3619544.91246  24469994.7334   24470000.5634   24469994.577
        45.0004         41.0004
 -12939392.24548 -10079406.03048  21584264.2634   21584267.0574   21584264.017
        53.0004         49.0004
 -19241859.43549 -14959860.38148  21737788.1104   21737790.6404   21737787.896
        54.0004         49.0004
   -381105.72447   -277761.94047  23151123.2164   23151125.2844   23151122.897
        47.0004         42.0004
   -522999.60947   -399106.09846  24123906.6614   24123910.4294   24123906.565
        45.0004         40.0004
 -20733873.34749 -16137987.79248  21007405.7194   21007411.1724   21007405.089
        55.0004         50.0004
  -1290144.69548   -985179.67347  22936460.3244   22936464.6594   22936460.535
        49.0004         45.0004
  -3797465.61347  -2930227.07046  24635622.4654   24635628.5084   24635624.033
        42.0004         37.0004
  -7474767.95547  -5784186.82347  22806756.6084   22806758.4754   22806756.942
        47.0004         42.0004
 15  1  1  0  1 50.0000000  0  9G29G05G15G13G02G24G26G12G21
   4635145.23147   3620769.80746  24470293.5354   24470299.5004   24470293.660
        45.0004         41.0004
 -12938562.22648 -10078759.26448  21584422.2234   21584424.7724   21584421.984
        53.0004         49.0004
 -19241890.55349 -14959884.63048  21737782.3634   21737784.6924   21737781.904
        54.0004         49.0004
   -379137.41647   -276228.19347  23151497.4074   23151500.8254   23151497.381
        47.0004         42.0004
   -519630.21447   -396480.59746  24124548.2104   24124551.9554   24124548.004
        45.0004         40.0004
 -20735720.10349 -16139426.82448  21007054.0424   21007059.2014   21007053.634
        55.0004         50.0004
  -1288663.57648   -984025.55347  22936742.4694   22936746.3634   22936742.278
        49.0004         45.0004
  -3799952.31847  -2932164.75946  24635149.9804   24635155.1214   24635150.836
        42.0004         37.0004
  -7476735.62747  -5785720.07547  22806381.8864   22806384.2264   22806382.501
        47.0004         42.0004
 15  1  1  0  1 51.0000000  0  9G29G05G15G13G02G24G26G12G21
   4636717.21547   3621994.72846  24470592.7644   24470598.7944   24470592.765
        45.0004         41.0004
 -12937731.74448 -10078112.13848  21584580.3954   21584583.2484   21584579.973
        53.0004         49.0004
 -19241921.53649 -14959908.77348  21737776.7234   21737778.8054   21737775.982
        54.0004         49.0004
   -377169.11847   -274694.44647  23151871.7564   23151874.9624   23151871.661
        47.0004         42.0004
   -516260.74547   -393855.04046  24125189.7204   24125192.7224   24125189.329
        45.0004         40.0004
 -20737566.27449 -16140865.39848  21006703.1364   21006708.1174   21006702.324
        55.0004         50.0004
  -1287182.45748   -982871.43747  22937024.3114   22937027.7484   22937024.107
        49.0004         45.0004
  -3802439.16547  -2934102.55946  24634677.4584   24634681.5414   24634678.060
        42.0004         37.0004
  -7478702.68847  -5787252.84947  22806007.4514   22806011.1864   22806008.161
        47.0004         42.0004
 15  1  1  0  1 52.0000000  0  9G29G05G15G13G02G24G26G12G21
   4638289.50447   3623219.88846  24470892.0354   24470897.5414   24470892.034
        45.0004         41.0004
 -12936900.57548 -10077464.47348  21584738.2204   21584741.2374   21584738.167
        53.0004         49.0004
 -19241952.16749 -14959932.64248  21737770.2404   21737772.8734   21737770.110
        54.0004         49.0004
   -375200.59747   -273160.53947  23152246.2894   23152249.9944   23152246.193
        47.0004         43.0004
   -512890.97347   -391229.24546  24125831.5574   24125834.2484   24125830.737
        45.0004         40.0004
 -20739411.63349 -16142303.33948  21006351.7494   21006357.1344   21006351.146
        55.0004         50.0004
  -1285701.13948   -981717.16347  22937306.2664   22937309.9724   22937305.929
        49.0004         45.0004
  -3804925.96147  -2936040.31746  24634204.9144   24634209.3384   24634205.179
        42.0004         37.0004
  -7480668.90147  -5788784.96047  22805632.7274   22805635.6704   22805633.925
        47.0004         42.0004
 15  1  1  0  1 53.0000000  0  9G29G05G15G13G02G24G26G12G21
   4639861.68847   3624444.96646  24471191.4804   24471197.0214   24471191.306
        45.0004         41.0004
 -12936069.11648 -10076816.58348  21584896.5914   21584899.2124   21584896.360
        53.0004         49.0004
 -19241982.80549 -14959956.51548  21737764.5994   21737766.9494   21737764.292
        54.0004         49.0004
   -373232.27847   -271626.78847  23152620.4764   23152623.2464   23152620.720
        47.0004         43.0004
   -509521.30747   -388603.53446  24126472.5194   24126475.4644   24126472.169
        45.0004         40.0004
 -20741256.56349 -16143740.94648  21006000.6964   21006005.7034   21006000.039
        55.0004         50.0004
  -1284220.00748   -980563.03547  22937587.3924   22937590.5974   22937587.743
        49.0004         45.0004
  -3807413.05547  -2937978.31246  24633731.5954   24633735.4944   24633732.066
        42.0004         37.0004
  -7482634.68847  -5790316.74547  22805259.4204   22805262.5114   22805259.917
        47.0004         42.0004
 15  1  1  0  1 54.0000000  0  9G29G05G15G13G02G24G26G12G21
   4641433.68447   3625669.89746  24471490.4084   24471496.5174   24471490.352
        45.0004         41.0004
 -12935237.44648 -10076168.52848  21585055.0884   21585057.9734   21585054.644
        53.0004         49.0004
 -19242013.55349 -14959980.47348  21737759.0074   21737761.4644   21737758.407
        54.0004         49.0004
   -371264.21747   -270093.22147  23152995.8194   23152996.5034   23152995.117
        47.0004         42.0004
   -506151.80647   -385977.95146  24127113.7214   24127116.9334   24127113.501
        45.0004         40.0004
 -20743101.16449 -16145178.29648  21005649.7574   21005654.9474   21005649.031
        55.0004         50.0004
  -1282739.13648   -979409.10747  22937869.2464   22937872.8704   22937869.544
        49.0004         45.0004
  -3809900.54847  -2939916.61746  24633257.7344   24633261.1754   24633258.785
        42.0004         37.0004
  -7484600.09447  -5791848.22747  22804885.0244   22804887.8004   22804885.872
        47.0004         42.0004
 15  1  1  0  1 55.0000000  0  9G29G05G15G13G02G24G26G12G21
   4643005.86147   3626894.96846  24471789.4914   24471795.5344   24471789.571
        45.0004         41.0004
 -12934405.20448 -10075520.02848  21585213.5714   21585215.7444   21585212.929
        53.0004         49.0004
 -19242044.02549 -14960004.21748  21737752.7594   21737755.2834   21737752.629
        54.0004         49.0004
   -369296.02547   -268559.57747  23153369.3024   23153373.6564   23153369.534
        47.0004         43.0004
   -502782.10947   -383352.21346  24127754.3004   24127757.5994   24127754.792
        45.0004         40.0004
 -20744945.04949 -16146615.08748  21005298.6564   21005304.0514   21005298.156
        55.0004         50.0004
  -1281258.15848   -978255.09347  22938151.8584   22938155.3264   22938151.342
        49.0004         45.0004
  -3812388.09147  -2941854.95846  24632783.5704   24632787.3654   24632785.301
        42.0004         37.0004
  -7486564.77447  -5793379.14647  22804510.1584   22804515.0594   22804512.018
        47.0004         42.0004
 15  1  1  0  1 56.0000000  0  9G29G05G15G13G02G24G26G12G21
   4644577.87647   3628119.91346  24472088.5704   24472094.4464   24472088.630
        45.0004         41.0004
 -12933572.73148 -10074871.35048  21585371.7694   21585374.4554   21585371.368
        53.0004         49.0004
 -19242074.60049 -14960028.04548  21737747.1934   21737749.7734   21737746.814
        54.0004         49.0004
   -367328.10547   -267026.13047  23153745.5274   23153747.2734   23153744.029
        47.0004         42.0004
   -499412.58047   -380726.60746  24128395.3314   24128398.6564   24128395.998
        45.0004         40.0004
 -20746788.58549 -16148051.61048  21004948.0404   21004953.4984   21004947.290
        55.0004         50.0004
  -1279777.43548   -977101.28847  22938432.7384   22938437.5154   22938433.108
        49.0004         45.0004
  -3814876.02547  -2943793.60446  24632310.3504   24632314.2774   24632312.187
        42.0004         37.0004
  -7488529.06347  -5794909.76047  22804137.9134   22804139.8764   22804138.189
        47.0004         42.0004
 15  1  1  0  1 57.0000000  0  9G29G05G15G13G02G24G26G12G21
   4646149.17347   3629344.29946  24472388.0124   24472392.7564   24472387.600
        45.0004         41.0004
 -12932740.56948 -10074222.91348  21585530.2534   21585532.6584   21585529.748
        53.0004         49.0004
 -19242105.78049 -14960052.34248  21737741.4164   21737743.6964   21737740.819
        54.0004         49.0004
   -365360.93547   -265493.26647  23154118.4464   23154121.6434   23154118.197
        47.0004         42.0004
   -496043.74847   -378101.54746  24129036.3344   24129039.6734   24129037.133
        45.0004         40.0004
 -20748632.28349 -16149488.25748  21004596.9274   21004602.6044   21004596.463
        55.0004         50.0004
  -1278297.49848   -975948.08947  22938714.3694   22938718.9104   22938714.706
        49.0004         45.0004
  -3817364.84947  -2945732.95046  24631837.1094   24631840.6944   24631838.682
        42.0004         37.0004
  -7490493.52447  -5796440.51347  22803763.7824   22803767.3924   22803764.402
        47.0004         42.0004
 15  1  1  0  1 58.0000000  0  9G29G05G15G13G02G24G26G12G21
   4647720.54147   3630568.74046  24472686.9874   24472691.8734   24472686.549
        45.0004         41.0004
 -12931907.95048 -10073574.11848  21585688.6144   21585691.6144   21585688.232
        53.0004         49.0004
 -19242136.83649 -14960076.53648  21737735.2864   21737737.6454   21737734.926
        54.0004         49.0004
   -363393.79747   -263960.42947  23154492.2684   23154495.3214   23154492.359
        47.0004         42.0004
   -492674.83547   -375476.42246  24129677.9224   24129681.3394   24129678.405
        45.0004         40.0004
 -20750475.38149 -16150924.43448  21004246.4544   21004251.6074   21004245.668
        55.0004         50.0004
  -1276817.57048   -974794.89947  22938996.6984   22939001.2284   22938996.254
        49.0004         45.0004
  -3819853.85047  -2947672.42746  24631363.2054   24631367.4034   24631365.142
        42.0004         37.0004
  -7492457.37047  -5797970.78047  22803389.7784   22803393.1614   22803390.658
        47.0004         42.0004
 15  1  1  0  1 59.0000000  0  9G29G05G15G13G02G24G26G12G21
   4649292.15247   3631793.37346  24472985.8274   24472990.8744   24472985.535
        45.0004         41.0004
 -12931074.68148 -10072924.81848  21585847.3664   21585850.0644   21585846.784
        53.0004         49.0004
 -19242167.54649 -14960100.46448  21737729.7504   21737732.1074   21737729.085
        54.0004         49.0004
   -361426.49047   -262427.46247  23154868.0214   23154870.8704   23154866.624
        47.0004         42.0004
   -489305.67047   -372851.10146  24130319.3104   24130322.4994   24130319.628
        45.0004         40.0004
 -20752317.70149 -16152360.00748  21003895.5924   21003901.2374   21003895.046
        55.0004         50.0004
  -1275337.48148   -973641.57747  22939278.4404   22939282.2594   22939277.824
        49.0004         45.0004
  -3822342.81047  -2949611.87546  24630888.6614   24630894.1394   24630891.259
        42.0004         37.0004
  -7494420.40147  -5799500.41347  22803016.3414   22803018.9404   22803017.153
        47.0004         42.0004
 15  1  1  0  2  0.0000000  0  9G29G05G15G13G02G24G26G12G21
   4650863.56547   3633017.84946  24473284.3514   24473289.9824   24473284.424
        45.0004         41.0004
 -12930241.23948 -10072275.38148  21586005.6604   21586008.5684   21586005.378
        53.0004         49.0004
 -19242198.38749 -14960124.49748  21737723.6784   21737725.8344   21737723.173
        54.0004         49.0004
   -359459.47647   -260894.72747  23155242.0364   23155245.0364   23155240.856
        47.0004         42.0004
   -485936.69247   -370225.92646  24130960.5444   24130963.5634   24130960.895
        45.0004         40.0004
 -20754159.70249 -16153795.33148  21003545.5144   21003550.5874   21003544.554
        55.0004         50.0004
  -1273857.68048   -972488.48247  22939560.2944   22939563.1784   22939559.381
        49.0004         45.0004
  -3824832.23347  -2951551.68546  24630416.8974   24630420.5484   24630417.444
        42.0004         37.0004
  -7496383.10247  -5801029.79247  22802643.2414   22802644.5194   22802643.664
        47.0004         42.0004
 15  1  1  0  2  1.0000000  0  9G29G05G15G13G02G24G26G12G21
   4652435.10947   3634242.42746  24473583.3284   24473588.9424   24473583.440
        45.0004         41.0004
 -12929407.23948 -10071625.51148  21586164.5204   21586167.1334   21586164.003
        53.0004         49.0004
 -19242229.00349 -14960148.35048  21737717.8184   21737720.0444   21737717.327
        54.0004         49.0004
   -357492.38447   -259361.93247  23155616.1474   23155616.8984   23155615.005
        47.0004         42.0004
   -482567.56047   -367600.63046  24131601.5724   24131604.7304   24131602.094
        45.0004         40.0004
 -20756001.01849 -16155230.12148  21003194.7214   21003200.1104   21003194.173
        55.0004         50.0004
  -1272377.80348   -971335.32747  22939841.5344   22939844.6864   22939841.005
        49.0004         45.0004
  -3827321.68847  -2953491.52046  24629943.0404   24629946.5724   24629943.547
        42.0004         37.0004
  -7498345.09947  -5802558.61947  22802269.8254   22802272.4774   22802270.368
        47.0004         42.0004
 15  1  1  0  2  3.0000000  0  9G29G05G15G13G02G24G26G12G21
   4655578.65847   3636691.94546  24474181.6304   24474187.7394   24474181.569
        45.0004         40.0004
 -12927737.60948 -10070324.50248  21586482.2894   21586484.5544   21586481.666
        53.0004         49.0004
 -19242289.55949 -14960195.53248  21737706.1254   21737709.1324   21737705.843
        54.0004         49.0004
   -353557.98047   -256296.16247  23156365.1184   23156368.1984   23156363.514
        47.0004         43.0004
   -475828.83947   -362349.68246  24132883.6484   24132887.6174   24132884.647
        45.0004         40.0004
 -20759681.63949 -16158098.13648  21002494.4874   21002499.8734   21002493.820
        55.0004         50.0004
  -1269417.85348   -969028.87647  22940405.1494   22940407.3544   22940404.397
        49.0004         45.0004
  -3832300.82747  -2957371.36446  24628996.2274   24628999.5274   24628996.286
        42.0004         38.0004
  -7502267.00647  -5805614.64347  22801523.4574   22801526.1384   22801523.881
        47.0004         42.0004
 15  1  1  0  2  4.0000000  0  9G29G05G15G13G02G24G26G12G21
   4657150.86947   3637917.04346  24474480.7004   24474487.5124   24474480.787
        45.0004         40.0004
 -12926901.76548 -10069673.19548  21586641.2364   21586644.1374   21586640.695
        53.0004         49.0004
 -19242319.26449 -14960218.68048  21737700.6944   21737702.9354   21737700.126
        54.0004         49.0004
   -351590.44847   -254763.01747  23156738.7084   23156742.3434   23156738.084
        47.0004         42.0004
   -472459.02847   -359723.85746  24133525.1904   24133528.3944   24133525.932
        45.0004         40.0004
 -20761520.71649 -16159531.18548  21002144.4784   21002149.7614   21002143.840
        55.0004         50.0004
  -1267937.55648   -967875.40547  22940686.2864   22940691.2114   22940686.190
        49.0004         45.0004
  -3834790.27047  -2959311.18646  24628523.0184   24628526.2464   24628522.413
        42.0004         38.0004
  -7504226.69647  -5807141.67547  22801150.6474   22801153.9034   22801150.947
        47.0004         42.0004
 15  1  1  0  2  5.0000000  0  9G29G05G15G13G02G24G26G12G21
   4658722.83647   3639141.95246  24474779.6284   24474786.7764   24474779.794
        45.0004         40.0004
 -12926065.76348 -10069021.76648  21586800.6094   21586803.0544   21586799.719
        53.0004         49.0004
 -19242349.14649 -14960241.96548  21737694.8354   21737696.8944   21737694.419
        54.0004         49.0004
   -349623.23247   -253230.12347  23157112.0304   23157116.7544   23157112.436
        47.0004         42.0004
   -469089.44247   -357098.21046  24134166.1144   24134170.0074   24134167.366
        45.0004         40.0004
 -20763359.50249 -16160964.00148  21001794.5054   21001799.7454   21001793.922
        55.0004         50.0004
  -1266457.58548   -966722.17847  22940967.9614   22940970.8814   22940967.938
        49.0004         45.0004
  -3837280.18347  -2961251.37546  24628049.6894   24628052.5544   24628048.621
        42.0004         38.0004
  -7506186.07347  -5808668.46347  22800778.1964   22800781.0534   22800778.025
        47.0004         42.0004
 15  1  1  0  2  6.0000000  0  9G29G05G15G13G02G24G26G12G21
   4660295.06547   3640367.06546  24475079.0894   24475085.8694   24475078.922
        45.0004         40.0004
 -12925229.10648 -10068369.82648  21586959.7034   21586962.2084   21586958.851
        53.0004         49.0004
 -19242378.67649 -14960264.97548  21737688.9624   21737691.8684   21737688.726
        54.0004         49.0004
   -347655.85947   -251697.10447  23157488.2974   23157489.4064   23157487.021
        47.0004         42.0004
   -465719.59147   -354472.35346  24134807.3114   24134811.7024   24134808.771
        45.0004         40.0004
 -20765197.52149 -16162396.22348  21001444.7134   21001450.3574   21001444.137
        55.0004         50.0004
  -1264977.43248   -965568.81047  22941250.4454   22941252.8954   22941249.613
        49.0004         45.0004
  -3839770.03247  -2963191.51546  24627575.5524   24627578.6644   24627574.787
        42.0004         38.0004
  -7508144.65247  -5810194.63247  22800404.6744   22800406.7624   22800405.232
        47.0004         42.0004
 15  1  1  0  2  7.0000000  0  9G29G05G15G13G02G24G26G12G21
   4661867.08947   3641592.01846  24475378.3264   24475384.4784   24475378.063
        45.0004         40.0004
 -12924392.25548 -10067717.73648  21587118.7174   21587121.5614   21587118.146
        53.0004         49.0004
 -19242408.33849 -14960288.08948  21737683.6374   21737686.0054   21737683.042
        54.0004         49.0004
   -345688.73047   -250164.27847  23157862.5514   23157865.9654   23157861.376
        47.0004         42.0004
   -462349.92447   -351846.64046  24135447.9664   24135452.8434   24135450.002
        45.0004         40.0004
 -20767035.21549 -16163828.19448  21001095.2804   21001100.5054   21001094.438
        55.0004         50.0004
  -1263497.54948   -964415.65247  22941531.5174   22941534.0124   22941531.153
        49.0004         45.0004
  -3842260.30347  -2965131.98246  24627101.2454   24627104.7884   24627100.867
        42.0004         38.0004
  -7510102.88447  -5811720.52447  22800031.5594   22800034.6864   22800032.606
        47.0004         42.0004
 15  1  1  0  2  8.0000000  0  9G29G05G15G13G02G24G26G12G21
   4663438.65647   3642816.61546  24475676.6974   24475683.7074   24475677.138
        45.0004         40.0004
 -12923555.45148 -10067065.68248  21587278.0894   21587280.5214   21587277.385
        53.0004         49.0004
 -19242438.36349 -14960311.48948  21737678.0794   21737680.2674   21737677.338
        54.0004         49.0004
   -343722.14147   -248631.86947  23158236.6204   23158239.1154   23158235.766
        47.0004         43.0004
   -458980.70247   -349221.27646  24136089.1704   24136093.3364   24136091.165
        45.0004         40.0004
 -20768872.83449 -16165260.10548  21000745.4324   21000750.8784   21000744.784
        55.0004         50.0004
  -1262018.19548   -963262.91347  22941814.0004   22941816.8774   22941812.723
        49.0004         45.0004
  -3844751.22547  -2967072.95746  24626626.5614   24626629.5284   24626626.783
        42.0004         38.0004
  -7512060.99247  -5813246.32447  22799660.0164   22799662.8084   22799660.066
        47.0004         42.0004
 15  1  1  0  2  9.0000000  0  9G29G05G15G13G02G24G26G12G21
   4665010.82547   3644041.68146  24475976.0474   24475982.9464   24475976.355
        45.0004         40.0004
 -12922717.66148 -10066412.85948  21587437.3624   21587439.8444   21587436.723
        53.0004         49.0004
 -19242467.71149 -14960334.35448  21737671.9904   21737674.5984   21737671.750
        54.0004         49.0004
   -341755.01147   -247099.04547  23158609.9574   23158613.5454   23158609.986
        47.0004         42.0004
   -455610.86947   -346595.43446  24136730.5984   24136735.0484   24136732.531
        45.0004         40.0004
 -20770709.32749 -16166691.13648  21000395.9584   21000401.4784   21000395.340
        55.0004         50.0004
  -1260538.32948   -962109.76847  22942094.8764   22942097.6524   22942094.336
        49.0004         45.0004
  -3847241.78647  -2969013.65346  24626152.7964   24626155.2164   24626152.818
        42.0004         38.0004
  -7514017.96347  -5814771.22647  22799286.8504   22799290.4894   22799287.609
        47.0004         42.0004
 15  1  1  0  2 11.0000000  0  9G29G05G15G13G02G24G26G12G21
   4668154.75547   3646491.49746  24476575.3694   24476581.2084   24476574.824
        45.0004         40.0004
 -12921041.29848 -10065106.59648  21587756.5504   21587758.9184   21587755.677
        53.0004         49.0004
 -19242526.54849 -14960380.19548  21737660.9354   21737663.4634   21737660.461
        54.0004         49.0004
   -337821.41747   -244033.90247  23159359.0944   23159362.5404   23159358.819
        47.0004         42.0004
   -448871.58947   -341344.05046  24138013.8764   24138016.8074   24138014.938
        45.0004         40.0004
 -20774381.12149 -16169552.26948  20999697.2884   20999702.6224   20999696.715
        55.0004         50.0004
  -1257579.24148   -959803.98447  22942657.3474   22942661.4794   22942657.480
        49.0004         45.0004
  -3852223.91547  -2972895.82646  24625203.8934   24625207.9894   24625205.032
        42.0004         38.0004
  -7517930.65547  -5817820.07847  22798542.3904   22798544.7464   22798542.962
        47.0004         42.0004
 15  1  1  0  2 12.0000000  0 10G29G05G15G13G02G24G28G26G12G21
   4669726.73747   3647716.41846  24476874.6004   24476880.0644   24476873.929
        45.0004         40.0004
 -12920202.52848 -10064453.01048  21587915.9944   21587918.6654   21587915.288
        53.0004         49.0004
 -19242555.82949 -14960403.01448  21737655.6574   21737658.0524   21737654.928
        54.0004         49.0004
   -335854.72947   -242501.41647  23159734.1494   23159736.8264   23159733.185
        47.0004         42.0004
   -445501.91147   -338718.32946  24138655.0524   24138657.8594   24138656.124
        45.0004         40.0004
 -20776216.19849 -16170982.20148  20999348.0724   20999353.4504   20999347.508
        55.0004         51.0004
                                                                  24543836.302

  -1256099.79648   -958651.17247  22942938.6914   22942942.2604   22942939.028
        49.0004         45.0004
  -3854715.29447  -2974837.16046  24624729.9894   24624733.2824   24624730.922
        42.0004         38.0004
  -7519886.16447  -5819343.85347  22798169.6924   22798172.9104   22798170.665
        47.0004         42.0004
 15  1  1  0  2 13.0000000  0  9G29G05G15G13G02G24G26G12G21
   4671298.69047   3648941.31646  24477173.7994   24477178.8834   24477173.110
        45.0004         40.0004
 -12919363.36448 -10063799.11848  21588075.7684   21588078.5224   21588074.989
        53.0004         49.0004
 -19242585.04849 -14960425.78248  21737650.0114   21737652.5734   21737649.349
        54.0004         49.0004
   -333888.12547   -240969.00047  23160107.6344   23160110.0584   23160107.606
        47.0004         42.0004
   -442132.25447   -336092.62646  24139295.8324   24139298.4434   24139297.292
        45.0004         40.0004
 -20778050.73749 -16172411.70948  20998998.9614   20999004.4224   20998998.442
        55.0004         51.0004
  -1254620.44548   -957498.43147  22943220.2124   22943224.8154   22943220.529
        49.0004         45.0004
  -3857206.88747  -2976778.65746  24624255.5154   24624258.6814   24624256.559
        42.0004         38.0004
  -7521841.11647  -5820867.18847  22797797.8934   22797800.8684   22797798.643
        47.0004         42.0004
 15  1  1  0  2 14.0000000  0  9G29G05G15G13G02G24G26G12G21
   4672870.78347   3650166.32146  24477472.7584   24477478.1554   24477472.255
        45.0004         40.0004
 -12918523.67948 -10063144.81648  21588235.3194   21588238.3984   21588234.824
        53.0004         49.0004
 -19242614.04649 -14960448.37448  21737644.2704   21737646.7694   21737643.774
        54.0004         49.0004
   -331921.45247   -239436.52647  23160481.9094   23160484.5774   23160482.007
        47.0004         42.0004
   -438762.45047   -333466.80546  24139937.4674   24139940.2994   24139938.455
        45.0004         40.0004
 -20779884.63349 -16173840.71948  20998650.1404   20998655.2974   20998649.530
        55.0004         51.0004
  -1253141.05348   -956345.65847  22943502.4184   22943505.6204   22943502.059
        49.0004         45.0004
  -3859698.56947  -2978720.22346  24623781.5624   24623785.0364   24623782.295
        42.0004         38.0004
  -7523795.40947  -5822390.01747  22797425.5074   22797430.4674   22797426.614
        47.0004         42.0004
 15  1  1  0  2 15.0000000  0  9G29G05G15G13G02G24G26G12G21
   4674443.04347   3651391.45846  24477771.8954   24477776.3464   24477771.300
        45.0004         40.0004
 -12917683.42948 -10062490.07748  21588395.3544   21588398.0994   21588394.695
        53.0004         49.0004
 -19242642.80048 -14960470.78248  21737638.7614   21737641.2334   21737638.368
        53.0004         49.0004
   -329954.69647   -237903.99947  23160855.1734   23160859.8384   23160856.335
        47.0004         42.0004
   -435392.46747   -330840.84546  24140578.8114   24140581.8554   24140579.760
        45.0004         40.0004
 -20781717.83849 -16175269.19048  20998301.0994   20998306.4014   20998300.698
        55.0004         50.0004
  -1251661.57748   -955192.81747  22943783.3084   22943787.1044   22943783.680
        49.0004         45.0004
  -3862190.29947  -2980661.82746  24623307.5184   24623311.0194   24623308.148
        42.0004         38.0004
  -7525748.95847  -5823912.25847  22797054.9004   22797056.5294   22797054.629
        47.0004         42.0004
 15  1  1  0  2 16.0000000  0  9G29G05G15G13G02G24G26G12G21
   4676014.69147   3652616.11846  24478071.3624   24478075.3464   24478070.371
        45.0004         40.0004
 -12916843.38948 -10061835.50048  21588555.2094   21588558.0334   21588554.502
        53.0004         49.0004
 -19242672.08448 -14960493.59948  21737633.4844   21737635.6884   21737632.791
        53.0004         49.0004
   -327988.62047   -236371.99347  23161229.8854   23161231.4284   23161230.506
        47.0004         42.0004
   -432023.09047   -328215.35846  24141220.1504   24141222.7824   24141220.862
        45.0004         40.0004
 -20783551.12749 -16176697.72448  20997952.3194   20997957.5824   20997951.878
        55.0004         51.0004
  -1250182.77348   -954040.50347  22944065.0154   22944068.3994   22944065.102
        49.0004         45.0004
  -3864682.86547  -2982604.08946  24622833.1634   24622837.4134   24622833.549
        42.0004         38.0004
  -7527702.59147  -5825434.57347  22796682.4844   22796684.9404   22796682.843
        47.0004         42.0004
 15  1  1  0  2 17.0000000  0 10G29G05G15G13G02G24G28G26G12G21
   4677586.42147   3653840.84246  24478370.2924   24478374.3404   24478369.534
        45.0004         40.0004
 -12916002.86948 -10061180.55048  21588715.4144   21588717.8614   21588714.451
        53.0004         49.0004
 -19242701.20348 -14960516.28648  21737627.6904   21737630.4714   21737627.307
        53.0004         49.0004
   -326022.57247   -234840.01147  23161604.5284   23161606.0674   23161604.684
        47.0004         42.0004
   -428653.63247   -325589.80846  24141860.6604   24141864.3464   24141861.978
        45.0004         40.0004
 -20785383.80449 -16178125.78448  20997603.7024   20997609.0424   20997603.136
        55.0004         50.0004
                                                                  24544127.105

  -1248703.98848   -952888.20947  22944347.0434   22944350.5084   22944346.438
        49.0004         45.0004
  -3867175.54947  -2984546.43546  24622358.5834   24622362.2794   24622359.167
        42.0004         38.0004
  -7529655.57247  -5826956.38147  22796309.9584   22796314.4844   22796311.330
        47.0004         42.0004
 15  1  1  0  2 18.0000000  0  9G29G05G15G13G02G24G26G12G21
   4679157.18547   3655064.81246  24478668.8024   24478672.9464   24478668.261
        45.0004         40.0004
 -12915162.90848 -10060526.03748  21588874.8444   21588877.4634   21588874.332
        53.0004         49.0004
 -19242731.20448 -14960539.66648  21737621.9804   21737624.3834   21737621.663
        53.0004         49.0004
   -324057.51247   -233308.79047  23161979.0014   23161982.1314   23161978.611
        47.0004         42.0004
   -425285.10947   -322964.98746  24142501.8504   24142505.7344   24142503.125
        45.0004         40.0004
 -20787216.90449 -16179554.17348  20997254.7964   20997260.2794   20997254.337
        55.0004         50.0004
  -1247226.23748   -951736.71247  22944628.3514   22944631.1974   22944627.542
        49.0004         45.0004
  -3869669.41347  -2986489.70346  24621884.5004   24621887.4704   24621884.701
        42.0004         38.0004
  -7531608.95547  -5828478.49447  22795939.8044   22795941.7394   22795939.481
        47.0004         42.0004
 15  1  1  0  2 19.0000000  0  9G29G05G15G13G02G24G26G12G21
   4680728.12747   3656288.92046  24478967.9684   24478972.6674   24478967.361
        45.0004         40.0004
 -12914322.36748 -10059871.07048  21589035.0744   21589037.9134   21589034.333
        53.0004         49.0004
 -19242760.93248 -14960562.82948  21737616.3924   21737618.7904   21737615.979
        53.0004         49.0004
   -322092.37247   -231777.51847  23162352.1024   23162355.1814   23162352.492
        47.0004         42.0004
   -421916.38847   -320340.01346  24143142.9344   24143146.8694   24143144.109
        45.0004         40.0004
 -20789049.30049 -16180982.01448  20996906.1044   20996911.4944   20996905.668
        55.0004         50.0004
  -1245748.37948   -950585.13447  22944908.9524   22944912.4564   22944908.740
        49.0004         45.0004
  -3872163.30647  -2988432.99546  24621409.7994   24621412.9694   24621409.818
        42.0004         38.0004
  -7533561.62447  -5830000.05847  22795567.3414   22795570.7914   22795568.047
        47.0004         42.0004
 15  1  1  0  2 20.0000000  0  9G29G05G15G13G02G24G26G12G21
   4682299.15747   3657513.09946  24479267.0294   24479271.8554   24479266.649
        45.0004         40.0004
 -12913481.33948 -10059215.72348  21589194.9984   21589197.4414   21589194.351
        53.0004         49.0004
 -19242790.51548 -14960585.88248  21737610.5764   21737613.1354   21737610.364
        53.0004         49.0004
   -320127.21647   -230246.22547  23162727.5434   23162729.2594   23162726.400
        47.0004         42.0004
   -418547.58547   -317714.97546  24143783.9664   24143787.7304   24143785.273
        45.0004         40.0004
 -20790881.08149 -16182409.37548  20996557.5384   20996562.8894   20996557.112
        55.0004         51.0004
  -1244270.52848   -949433.56047  22945190.6034   22945193.8884   22945190.016
        49.0004         45.0004
  -3874657.33547  -2990376.38946  24620935.7044   24620938.7114   24620935.252
        42.0004         38.0004
  -7535513.64847  -5831521.10947  22795196.5634   22795198.9254   22795196.552
        47.0004         42.0004
 15  1  1  0  2 21.0000000  0 10G29G05G15G13G02G24G28G26G12G21
   4683870.29747   3658737.36246  24479565.6774   24479570.3154   24479565.586
        45.0004         40.0004
 -12912639.80448 -10058559.98148  21589355.1754   21589357.8434   21589354.545
        53.0004         49.0004
 -19242819.90348 -14960608.77948  21737605.5134   21737607.4664   21737604.825
        53.0004         49.0004
   -318162.01247   -228714.89347  23163100.2014   23163102.3424   23163100.360
        47.0004         42.0004
   -415178.67147   -315089.84646  24144425.5074   24144428.8384   24144426.247
        45.0004         40.0004
 -20792712.21349 -16183836.22848  20996208.8104   20996214.4004   20996208.662
        55.0004         50.0004
                                                                  24544362.575

  -1242792.63848   -948281.95947  22945471.5454   22945474.9724   22945471.225
        49.0004         45.0004
  -3877151.44247  -2992319.84646  24620461.4804   24620464.5334   24620460.758
        42.0004         38.0004
  -7537464.99647  -5833041.63746  22794824.7754   22794827.0544   22794825.205
        47.0004         41.0004
 15  1  1  0  2 22.0000000  0 10G29G05G15G13G02G24G28G26G12G21
   4685441.13347   3659961.38646  24479864.6244   24479869.6234   24479864.518
        45.0004         40.0004
 -12911798.17148 -10057904.16548  21589515.3704   21589517.9364   21589514.706
        53.0004         49.0004
 -19242849.49848 -14960631.84048  21737599.2874   21737602.0374   21737599.150
        53.0004         49.0004
   -316197.21847   -227183.88947  23163474.6604   23163476.9784   23163474.121
        47.0004         43.0004
   -411810.03647   -312464.93746  24145066.3294   24145069.2434   24145067.076
        45.0004         40.0004
 -20794543.11849 -16185262.90948  20995860.9544   20995866.0364   20995860.250
        55.0004         51.0004
                                                                  24544421.742

  -1241315.13248   -947130.66047  22945752.5164   22945755.7194   22945752.244
        49.0004         45.0004
  -3879646.09247  -2994263.72846  24619987.1214   24619990.3854   24619986.318
        42.0004         38.0004
  -7539416.11847  -5834561.99047  22794453.5834   22794458.3904   22794453.891
        47.0004         42.0004
 15  1  1  0  2 23.0000000  0 10G29G05G15G13G02G24G28G26G12G21
   4687012.12747   3661185.53446  24480163.8574   24480168.6784   24480163.569
        45.0004         40.0004
 -12910955.97148 -10057247.90448  21589675.6834   21589678.5004   21589674.985
        53.0004         48.0004
 -19242878.85548 -14960654.71748  21737593.9094   21737596.0914   21737593.546
        53.0004         49.0004
   -314232.29247   -225652.78047  23163848.2404   23163849.8084   23163847.991
        47.0004         42.0004
   -408441.24447   -309839.90746  24145707.1024   24145710.7894   24145708.080
        45.0004         40.0004
 -20796373.32049 -16186689.03948  20995512.2474   20995517.5474   20995512.024
        55.0004         51.0004
                                                                  24544481.153

  -1239837.53948   -945979.28147  22946033.4194   22946037.2554   22946033.396
        49.0004         45.0004
  -3882140.77047  -2996207.63246  24619512.7984   24619516.2124   24619511.712
        42.0004         38.0004
  -7541366.51647  -5836081.77846  22794081.9054   22794083.6714   22794082.698
        47.0004         41.0004
 15  1  1  0  2 24.0000000  0 10G29G05G15G13G02G24G28G26G12G21
   4688582.77947   3662409.41646  24480463.0474   24480467.0684   24480462.512
        45.0004         40.0004
 -12910113.71948 -10056591.60748  21589835.9244   21589838.3434   21589835.278
        53.0004         48.0004
 -19242908.46548 -14960677.79048  21737588.3944   21737590.8834   21737588.020
        53.0004         49.0004
   -312267.83247   -224122.03547  23164221.4114   23164225.4504   23164221.905
        47.0004         42.0004
   -405072.76747   -307215.12446  24146348.4254   24146351.3144   24146348.956
        45.0004         40.0004
 -20798203.34449 -16188115.03148  20995164.2064   20995169.5244   20995163.790
        55.0004         50.0004
                                                                  24544540.428

  -1238360.35948   -944828.23347  22946314.7824   22946317.8374   22946314.498
        49.0004         45.0004
  -3884635.99947  -2998151.96546  24619037.7844   24619040.4664   24619036.827
        42.0004         38.0004
  -7543316.69547  -5837601.40347  22793712.4624   22793713.2134   22793711.415
        46.0004         42.0004
 15  1  1  0  2 25.0000000  0 10G29G05G15G13G02G24G28G26G12G21
   4690153.51347   3663633.36246  24480761.5034   24480766.2544   24480761.429
        45.0004         40.0004
 -12909270.98348 -10055934.93048  21589996.2264   21589999.1574   21589995.738
        53.0004         49.0004
 -19242937.94548 -14960700.76048  21737582.4824   21737584.7024   21737582.382
        53.0004         49.0004
   -310303.33247   -222591.25047  23164595.2864   23164598.5784   23164595.824
        47.0004         42.0004
   -401704.21647   -304590.27946  24146989.7214   24146992.2524   24146990.138
        45.0004         40.0004
 -20800032.77049 -16189540.55548  20994815.8284   20994821.0074   20994815.657
        55.0004         51.0004
                                                                  24544599.814

  -1236883.19748   -943677.19847  22946595.4824   22946599.6244   22946595.491
        49.0004         45.0004
  -3887131.38547  -3000096.42046  24618563.5024   24618565.6984   24618561.948
        42.0004         38.0004
  -7545266.26147  -5839120.54747  22793340.0024   22793343.2124   22793340.483
        46.0004         42.0004
 15  1  1  0  2 26.0000000  0 10G29G05G15G13G02G24G28G26G12G21
   4691724.28047   3664857.33446  24481060.1364   24481065.9224   24481060.442
        45.0004         40.0004
 -12908427.81148 -10055277.91248  21590156.6944   21590159.2254   21590156.181
        53.0004         49.0004
 -19242967.28348 -14960723.61748  21737577.0894   21737579.5594   21737576.801
        53.0004         49.0004
   -308338.90347   -221060.52647  23164969.7994   23164971.1134   23164969.469
        47.0004         42.0004
   -398335.62247   -301965.40646  24147630.5074   24147633.2644   24147630.819
        45.0004         40.0004
 -20801861.60849 -16190965.62448  20994468.0524   20994473.4094   20994467.567
        55.0004         51.0004
                                                                  24544659.245

  -1235406.06648   -942526.18947  22946876.9304   22946880.3484   22946876.544
        49.0004         45.0004
  -3889626.94147  -3002041.00846  24618087.7854   24618090.1194   24618087.120
        42.0004         38.0004
  -7547215.22347  -5840639.22047  22792969.7194   22792972.1024   22792969.642
        46.0004         42.0004
 15  1  1  0  2 27.0000000  0 10G29G05G15G13G02G24G28G26G12G21
   4693295.35647   3666081.54846  24481359.5324   24481365.7014   24481359.386
        45.0004         40.0004
 -12907583.94648 -10054620.35548  21590317.5104   21590319.8384   21590316.776
        53.0004         49.0004
 -19242996.25548 -14960746.19448  21737571.7784   21737573.9364   21737571.304
        53.0004         49.0004
   -306374.22647   -219529.60947  23165343.7044   23165346.8644   23165343.264
        47.0004         42.0004
   -394966.71247   -299340.28446  24148271.1354   24148274.4904   24148271.781
        45.0004         40.0004
 -20803689.61349 -16192390.04248  20994120.3254   20994125.5384   20994119.703
        55.0004         51.0004
                                                                  24544718.792

  -1233928.71948   -941375.00847  22947157.9274   22947160.6064   22947157.648
        49.0004         45.0004
  -3892122.40747  -3003985.52546  24617613.0464   24617615.7774   24617612.289
        42.0004         38.0004
  -7549163.33147  -5842157.22347  22792598.8684   22792600.8984   22792599.007
        46.0004         42.0004
 15  1  1  0  2 28.0000000  0 10G29G05G15G13G02G24G28G26G12G21
   4694866.47447   3667305.79346  24481658.7324   24481663.7904   24481658.271
        45.0004         40.0004
 -12906739.62748 -10053962.44448  21590477.7814   21590480.4914   21590477.465
        53.0004         48.0004
 -19243025.07948 -14960768.65348  21737565.7694   21737568.1094   21737565.776
        53.0004         49.0004
   -304409.58647   -217998.72747  23165717.7144   23165720.0734   23165716.923
        47.0004         42.0004
   -391597.74447   -296715.11546  24148912.4564   24148914.5754   24148912.696
        45.0004         40.0004
 -20805517.04349 -16193814.01348  20993772.2794   20993777.8194   20993771.930
        55.0004         51.0004
                                                                  24544778.600

  -1232451.40148   -940223.85347  22947438.6394   22947443.0864   22947438.725
        49.0004         45.0004
  -3894618.06147  -3005930.19046  24617137.3004   24617141.3194   24617137.373
        42.0004         38.0004
  -7551110.84147  -5843674.76247  22792228.1044   22792230.9504   22792228.408
        46.0004         42.0004
 15  1  1  0  2 29.0000000  0 10G29G05G15G13G02G24G28G26G12G21
   4696437.97947   3668530.34146  24481957.5884   24481963.0644   24481957.291
        45.0004         40.0004
 -12905894.50348 -10053303.91048  21590638.9354   21590641.8744   21590638.284
        53.0004         49.0004
 -19243053.42248 -14960790.74148  21737560.6684   21737562.8544   21737560.530
        53.0004         49.0004
   -302444.62647   -216467.58547  23166091.0924   23166093.8944   23166090.848
        47.0004         42.0004
   -388228.38047   -294089.63746  24149553.6534   24149556.4414   24149553.795
        45.0004         40.0004
 -20807343.51849 -16195237.24248  20993424.8954   20993430.0954   20993424.326
        55.0004         51.0004
                                                                  24544838.561

  -1230973.75948   -939072.44347  22947720.9004   22947723.7994   22947719.896
        49.0004         45.0004
  -3897113.50347  -3007874.68646  24616662.3914   24616667.0024   24616662.445
        42.0004         38.0004
  -7553057.37647  -5845191.54147  22791858.4434   22791860.6474   22791857.895
        46.0004         42.0004
 15  1  1  0  2 30.0000000  0 10G29G05G15G13G02G24G28G26G12G21
   4698009.60747   3669754.98546  24482256.9174   24482262.0604   24482256.396
        45.0004         40.0004
 -12905048.87348 -10052644.97748  21590799.6514   21590802.4954   21590799.243
        53.0004         48.0004
 -19243081.57648 -14960812.67748  21737555.7024   21737558.0654   21737555.188
        53.0004         49.0004
   -300479.62847   -214936.41847  23166464.4054   23166467.3694   23166464.813
        47.0004         42.0004
   -384858.89547   -291464.06546  24150195.1954   24150198.1404   24150194.909
        45.0004         40.0004
 -20809169.37649 -16196659.98648  20993077.3014   20993082.7264   20993076.854
        55.0004         51.0004
                                                                  24544898.589

  -1229496.09448   -937921.01447  22948001.1124   22948004.9884   22948001.066
        49.0004         45.0004
  -3899609.06647  -3009819.27446  24616187.2124   24616192.5244   24616187.799
        42.0004         38.0004
  -7555003.26147  -5846707.81146  22791487.1414   22791489.5764   22791487.601
        46.0004         41.0004
 15  1  1  0  2 31.0000000  0 10G29G05G15G13G02G24G28G26G12G21
   4699581.02447   3670979.46146  24482555.3614   24482560.2504   24482555.363
        45.0004         40.0004
 -12904203.05048 -10051985.89548  21590960.6354   21590963.2914   21590960.201
        53.0004         48.0004
 -19243109.86348 -14960834.72148  21737550.0494   21737552.2194   21737549.842
        53.0004         49.0004
   -298514.90847   -213405.46547  23166839.8714   23166843.1974   23166838.623
        47.0004         42.0004
   -381489.59847   -288838.64246  24150835.9974   24150839.1654   24150835.703
        45.0004         40.0004
 -20810994.90949 -16198082.47948  20992730.0294   20992735.4514   20992729.465
        55.0004         51.0004
                                                                  24544958.840

  -1228018.72448   -936769.81647  22948283.0074   22948285.4464   22948282.232
        49.0004         45.0004
  -3902105.01447  -3011764.16946  24615712.4654   24615717.3264   24615712.624
        43.0004         38.0004
  -7556948.80347  -5848223.81246  22791117.1874   22791120.0014   22791117.378
        46.0004         41.0004
 15  1  1  0  2 32.0000000  0 10G29G05G15G13G02G24G28G26G12G21
   4701152.62247   3672204.08346  24482854.5264   24482859.1564   24482854.300
        45.0004         40.0004
 -12903356.64048 -10051326.35548  21591121.9654   21591124.6074   21591121.276
        53.0004         48.0004
 -19243137.87048 -14960856.54248  21737544.5154   21737546.9104   21737544.467
        53.0004         49.0004
   -296550.08047   -211874.43047  23167212.6314   23167215.1514   23167212.639
        47.0004         43.0004
   -378120.10347   -286213.06346  24151477.0774   24151481.3774   24151476.972
        45.0004         40.0004
 -20812819.71749 -16199504.40548  20992382.3604   20992388.2434   20992382.212
        55.0004         51.0004
                                                                  24545018.961

  -1226541.22048   -935618.51247  22948563.0434   22948566.2684   22948563.400
        49.0004         45.0004
  -3904600.98647  -3013709.08046  24615237.8264   24615242.2674   24615237.607
        42.0004         38.0004
  -7558893.58747  -5849739.23147  22790747.8334   22790749.8494   22790747.295
        46.0004         42.0004
 15  1  1  0  2 33.0000000  0 10G29G05G15G13G02G24G28G26G12G21
   4702724.17547   3673428.67046  24483153.6714   24483158.3924   24483153.330
        45.0004         40.0004
 -12902509.88948 -10050666.54848  21591282.6134   21591285.8434   21591282.425
        53.0004         48.0004
 -19243165.85048 -14960878.34548  21737539.1104   21737541.9274   21737539.191
        53.0004         49.0004
   -294585.36747   -210343.49347  23167586.9694   23167590.4414   23167586.413
        47.0004         42.0004
   -374750.65747   -283587.52246  24152118.3314   24152121.7154   24152118.085
        45.0004         40.0004
 -20814644.06949 -16200925.97748  20992035.4044   20992040.6854   20992035.052
        55.0004         51.0004
                                                                  24545079.088

  -1225063.85648   -934467.32047  22948845.1784   22948848.2824   22948844.513
        49.0004         45.0004
  -3907097.24047  -3015654.21246  24614763.2404   24614766.9584   24614762.598
        43.0004         38.0004
  -7560837.88647  -5851254.27147  22790377.2024   22790378.9644   22790377.475
        46.0004         42.0004
 15  1  1  0  2 34.0000000  0 10G29G05G15G13G02G24G28G26G12G21
   4704295.50147   3674653.07746  24483452.5794   24483457.7334   24483452.459
        45.0004         40.0004
 -12901662.94648 -10050006.59448  21591443.7784   21591446.4314   21591443.622
        53.0004         49.0004
 -19243193.95248 -14960900.24148  21737533.9014   21737536.0424   21737533.812
        53.0004         49.0004
   -292620.94847   -208812.77147  23167961.1324   23167963.8574   23167960.138
        47.0004         43.0004
   -371381.42347   -280962.14346  24152759.9404   24152762.8934   24152759.194
        45.0004         40.0004
 -20816468.10949 -16202347.30648  20991688.1854   20991693.9214   20991687.918
        55.0004         51.0004
                                                                  24545139.533

  -1223586.79748   -933316.36447  22949125.5204   22949129.4114   22949125.562
        49.0004         45.0004
  -3909593.89747  -3017599.65546  24614287.1954   24614291.1624   24614287.439
        43.0004         38.0004
  -7562781.84347  -5852769.04747  22790006.5074   22790009.3244   22790007.651
        46.0004         42.0004
 15  1  1  0  2 35.0000000  0 10G29G05G15G13G02G24G28G26G12G21
   4705867.42747   3675877.95246  24483751.9704   24483757.1414   24483751.471
        45.0004         40.0004
 -12900815.01148 -10049345.86548  21591605.4874   21591608.0224   21591604.973
        53.0004         49.0004
 -19243221.40148 -14960921.62948  21737528.7414   21737531.1004   21737528.509
        53.0004         49.0004
   -290656.02247   -207281.65947  23168334.0164   23168336.8104   23168334.010
        47.0004         43.0004
   -368011.58147   -278336.29246  24153401.2704   24153404.2694   24153400.380
        45.0004         40.0004
 -20818291.02549 -16203767.76048  20991341.7754   20991347.1714   20991341.045
        55.0004         51.0004
                                                                  24545200.181

  -1222109.21748   -932165.00247  22949406.6704   22949411.0334   22949406.709
        49.0004         45.0004
  -3912090.16847  -3019544.79846  24613811.9294   24613816.1784   24613812.611
        43.0004         38.0004
  -7564724.65047  -5854282.92246  22789637.7854   22789639.8834   22789637.872
        46.0004         41.0004
 15  1  1  0  2 36.0000000  0 10G29G05G15G13G02G24G28G26G12G21
   4707439.02747   3677102.57546  24484050.8964   24484056.1894   24484050.574
        44.0004         40.0004
 -12899967.00948 -10048685.08648  21591766.8954   21591769.4864   21591766.383
        53.0004         48.0004
 -19243249.07048 -14960943.19348  21737523.4644   21737525.6724   21737523.203
        53.0004         49.0004
   -288691.50547   -205750.87247  23168707.8374   23168710.0834   23168707.705
        47.0004         42.0004
   -364642.06547   -275710.69746  24154041.7764   24154044.9124   24154041.501
        45.0004         40.0004
 -20820113.73649 -16205188.05548  20990994.5354   20991000.0314   20990994.244
        55.0004         51.0004
                                                                  24545260.871

  -1220632.04248   -931013.96147  22949688.4444   22949691.3174   22949687.890
        49.0004         45.0004
  -3914586.99447  -3021490.37646  24613336.6614   24613341.0644   24613337.528
        43.0004         38.0004
  -7566667.24147  -5855796.62846  22789268.2804   22789270.0724   22789268.310
        46.0004         41.0004
 15  1  1  0  2 37.0000000  0 10G29G05G15G13G02G24G28G26G12G21
   4709010.27647   3678326.92346  24484349.1044   24484354.4544   24484349.408
        44.0004         40.0004
 -12899118.93448 -10048024.25048  21591928.1874   21591930.9384   21591927.760
        53.0004         49.0004
 -19243277.00048 -14960964.95548  21737518.2384   21737520.4824   21737517.869
        53.0004         49.0004
   -286727.39847   -204220.39547  23169081.9864   23169083.9414   23169081.567
        47.0004         42.0004
   -361272.88747   -273085.36646  24154683.7164   24154686.0334   24154682.695
        45.0004         40.0004
 -20821936.25449 -16206608.19848  20990647.9184   20990653.3074   20990647.401
        55.0004         51.0004
                                                                  24545321.454

  -1219155.28648   -929863.24047  22949969.2654   22949973.0734   22949969.057
        49.0004         45.0004
  -3917084.35947  -3023436.37646  24612862.1044   24612866.0864   24612862.368
        43.0004         38.0004
  -7568609.61647  -5857310.16146  22788899.0104   22788901.0994   22788898.662
        46.0004         41.0004
 15  1  1  0  2 38.0000000  0 10G29G05G15G13G02G24G28G26G12G21
   4710581.19647   3679551.01546  24484648.4564   24484653.1544   24484648.246
        44.0004         40.0004
 -12898270.79648 -10047363.36348  21592089.7094   21592092.1404   21592089.084
        53.0004         48.0004
 -19243305.19148 -14960986.92148  21737512.8424   21737515.2594   21737512.447
        53.0004         49.0004
   -284763.67547   -202690.21447  23169455.5794   23169458.3584   23169455.218
        47.0004         42.0004
   -357904.02347   -270460.28046  24155323.7264   24155326.8584   24155323.679
        45.0004         40.0004
 -20823758.57649 -16208028.18848  20990300.9484   20990306.4034   20990300.615
        55.0004         51.0004
                                                                  24545382.044

  -1217678.94148   -928712.83947  22950249.5354   22950254.1804   22950250.088
        49.0004         45.0004
  -3919582.28547  -3025382.81146  24612386.0064   24612390.3624   24612386.863
        43.0004         38.0004
  -7570551.74047  -5858823.50547  22788530.2184   22788530.7454   22788529.258
        46.0004         42.0004
 15  1  1  0  2 39.0000000  0 10G29G05G15G13G02G24G28G26G12G21
   4712152.53547   3680775.43446  24484947.8284   24484952.3674   24484947.232
        44.0004         40.0004
 -12897421.85548 -10046701.84948  21592251.2564   21592253.8184   21592250.618
        53.0004         48.0004
 -19243332.87548 -14961008.49148  21737507.4624   21737509.8464   21737507.142
        53.0004         49.0004
   -282799.63547   -201159.79947  23169829.7704   23169832.0684   23169828.995
        47.0004         42.0004
   -354534.74047   -267834.86546  24155964.4744   24155968.0734   24155964.762
        45.0004         40.0004
 -20825579.95549 -16209447.44348  20989954.4964   20989959.9064   20989953.974
        55.0004         51.0004
                                                                  24545443.110

  -1216202.26748   -927562.18247  22950532.0194   22950535.1214   22950531.128
        49.0004         45.0004
  -3922079.99047  -3027329.07146  24611910.9504   24611915.0644   24611911.300
        43.0004         38.0004
  -7572492.93447  -5860336.12247  22788159.4014   22788161.5944   22788159.966
        46.0004         42.0004
 15  1  1  0  2 40.0000000  0 10G29G05G15G13G02G24G28G26G12G21
   4713723.29747   3681999.40446  24485246.9134   24485251.7684   24485246.200
        44.0004         40.0004
 -12896573.06648 -10046040.45648  21592412.7524   21592415.1224   21592412.157
        53.0004         48.0004
 -19243361.03648 -14961030.43548  21737502.0594   21737504.3994   21737501.808
        53.0004         49.0004
   -280836.21147   -199629.86247  23170203.9294   23170206.5304   23170202.506
        47.0004         42.0004
   -351166.01347   -265209.88546  24156606.1134   24156609.2204   24156605.730
        45.0004         40.0004
 -20827401.33849 -16210866.70548  20989607.7414   20989613.4884   20989607.349
        55.0004         51.0004
                                                                  24545503.494

  -1214726.21548   -926412.01347  22950811.8484   22950816.2544   22950812.107
        49.0004         45.0004
  -3924578.45847  -3029275.93146  24611435.6274   24611440.2844   24611435.964
        43.0004         38.0004
  -7574434.10947  -5861848.72647  22787790.5664   22787792.1664   22787790.595
        46.0004         42.0004
 15  1  1  0  2 41.0000000  0 10G29G05G15G13G02G24G28G26G12G21
   4715294.63747   3683223.82446  24485546.1574   24485551.0854   24485545.048
        44.0004         40.0004
 -12895723.29448 -10045378.29548  21592574.5044   21592577.0074   21592573.920
        53.0004         48.0004
 -19243388.55648 -14961051.87948  21737496.6134   21737498.9344   21737496.495
        53.0004         49.0004
   -278872.28847   -198099.52847  23170577.1314   23170578.9704   23170576.271
        47.0004         42.0004
   -347796.69647   -262584.44446  24157247.3344   24157250.1004   24157246.955
        45.0004         40.0004
 -20829221.62249 -16212285.10648  20989261.2204   20989266.8374   20989260.907
        55.0004         50.0004
   -706746.57259   -556980.23755  24545562.0665   24545563.8355   24545564.323
        55.0004         35.0004
  -1213249.67548   -925261.46247  22951093.2914   22951096.3824   22951093.221
        49.0004         45.0004
  -3927076.57147  -3031222.50746  24610960.4024   24610965.3734   24610960.538
        43.0004         38.0004
  -7576374.15547  -5863360.44947  22787422.2054   22787424.2354   22787421.512
        46.0004         42.0004
 15  1  1  0  2 42.0000000  0 10G29G05G15G13G02G24G28G26G12G21
   4716865.70647   3684448.03146  24485844.4304   24485850.2504   24485844.050
        44.0004         40.0004
 -12894873.41348 -10044716.05248  21592736.0034   21592738.7864   21592735.617
        53.0004         48.0004
 -19243416.26248 -14961073.46748  21737491.3164   21737493.6964   21737491.137
        53.0004         49.0004
   -276908.73047   -196569.48847  23170949.8424   23170953.0664   23170950.001
        47.0004         43.0004
   -344427.66447   -259959.22546  24157888.5924   24157890.9174   24157888.046
        45.0004         40.0004
 -20831041.67849 -16213703.33148  20988915.0294   20988920.2864   20988914.511
        55.0004         51.0004
   -706425.52049   -556730.06845  24545623.3624   24545624.9764   24545625.171
        55.0004         35.0004
  -1211773.50548   -924111.20547  22951374.2194   22951377.3294   22951374.199
        49.0004         45.0004
  -3929575.16647  -3033169.46346  24610484.7814   24610489.6964   24610485.029
        43.0004         38.0004
  -7578313.93747  -5864871.96847  22787052.3924   22787053.5044   22787052.478
        46.0004         42.0004
 15  1  1  0  2 43.0000000  0 10G29G05G15G13G02G24G28G26G12G21
   4718436.73547   3685672.20646  24486143.0144   24486148.9084   24486142.892
        44.0004         39.0004
 -12894023.16748 -10044053.52248  21592897.8374   21592900.4194   21592897.371
        53.0004         48.0004
 -19243443.92548 -14961095.02148  21737486.4644   21737489.0364   21737485.806
        53.0004         49.0004
   -274945.27347   -195039.53047  23171324.1504   23171327.3894   23171323.794
        47.0004         42.0004
   -341058.64447   -257334.01446  24158530.0344   24158532.8974   24158529.229
        45.0004         40.0004
 -20832861.21349 -16215121.14948  20988568.7764   20988574.2714   20988568.208
        55.0004         51.0004
   -706103.93349   -556479.47345  24545683.2784   24545686.6074   24545686.178
        54.0004         35.0004
  -1210297.43248   -922961.01547  22951655.7184   22951658.7094   22951655.178
        49.0004         45.0004
  -3932073.99647  -3035116.60046  24610009.2674   24610013.5064   24610009.700
        43.0004         38.0004
  -7580253.18147  -5866383.06847  22786683.0934   22786684.8344   22786683.322
        46.0004         42.0004
 15  1  1  0  2 44.0000000  0 10G29G05G15G13G02G24G28G26G12G21
   4720007.78247   3686896.39846  24486441.3444   24486448.0794   24486441.829
        44.0004         40.0004
 -12893172.46448 -10043390.63848  21593059.7064   21593062.2094   21593059.204
        53.0004         48.0004
 -19243471.47548 -14961116.48948  21737480.9924   21737483.2864   21737480.543
        53.0004         49.0004
   -272981.85047   -193509.57947  23171697.5714   23171701.2414   23171697.492
        47.0004         42.0004
   -337689.57847   -254708.76946  24159170.6204   24159174.2464   24159170.027
        45.0004         40.0004
 -20834680.18549 -16216538.53048  20988222.4694   20988228.0554   20988222.048
        55.0004         51.0004
   -705781.71749   -556228.39445  24545744.3934   24545747.3594   24545747.456
        54.0004         35.0004
  -1208821.40348   -921810.86647  22951936.0824   22951938.6154   22951936.121
        49.0004         45.0004
  -3934573.00447  -3037063.87746  24609533.8344   24609538.1704   24609534.061
        43.0004         38.0004
  -7582191.83347  -5867893.70047  22786313.3374   22786314.9544   22786314.457
        46.0004         42.0004
 15  1  1  0  2 45.0000000  0 10G29G05G15G13G02G24G28G26G12G21
   4721578.77847   3688120.55146  24486740.2314   24486746.6574   24486740.796
        44.0004         40.0004
 -12892321.44948 -10042727.50848  21593221.6864   21593224.5884   21593221.144
        53.0004         48.0004
 -19243499.01148 -14961137.94548  21737475.9554   21737478.1124   21737475.261
        53.0004         49.0004
   -271018.58347   -191979.75947  23172071.5414   23172074.1464   23172071.293
        47.0004         42.0004
   -334320.58547   -252083.58246  24159811.1394   24159815.3434   24159811.238
        45.0004         40.0004
 -20836498.70649 -16217955.55848  20987876.6734   20987882.1544   20987875.987
        55.0004         50.0004
   -705459.02349   -555976.94545  24545804.3024   24545808.2044   24545808.763
        54.0004         35.0004
  -1207345.52348   -920660.82947  22952216.5254   22952220.1774   22952216.975
        49.0004         45.0004
  -3937072.28347  -3039011.36446  24609058.1924   24609062.6314   24609058.206
        43.0004         38.0004
  -7584130.00247  -5869403.95847  22785946.5084   22785947.2414   22785945.682
        46.0004         42.0004
 15  1  1  0  2 46.0000000  0 10G29G05G15G13G02G24G28G26G12G21
   4723149.35547   3689344.37646  24487039.4734   24487045.5094   24487039.604
        44.0004         40.0004
 -12891470.44048 -10042064.38448  21593383.4154   21593386.4014   21593383.118
        53.0004         48.0004
 -19243526.86648 -14961159.64748  21737470.5364   21737472.7744   21737469.938
        53.0004         49.0004
   -269055.80347   -190450.31947  23172444.7724   23172447.7134   23172444.817
        47.0004         43.0004
   -330951.97847   -249458.69146  24160452.8584   24160456.1974   24160452.290
        45.0004         40.0004
 -20838317.10849 -16219372.49248  20987530.3874   20987536.1474   20987529.931
        55.0004         50.0004
   -705136.14449   -555725.35046  24545866.8964   24545868.6704   24545870.011
        54.0004         36.0004
  -1205870.14248   -919511.17447  22952497.8054   22952501.7014   22952497.741
        49.0004         45.0004
  -3939572.18647  -3040959.33746  24608582.0584   24608586.5334   24608582.222
        43.0004         38.0004
  -7586068.04247  -5870914.11547  22785575.2704   22785578.3934   22785577.007
        46.0004         42.0004
 15  1  1  0  2 47.0000000  0 10G29G05G15G13G02G24G28G26G12G21
   4724719.95547   3690568.22046  24487337.8544   24487344.0024   24487338.408
        44.0004         40.0004
 -12890619.00248 -10041400.92748  21593545.5684   21593548.3104   21593545.099
        53.0004         48.0004
 -19243554.62048 -14961181.27648  21737465.3774   21737467.9084   21737464.625
        53.0004         49.0004
   -267093.05847   -188920.91147  23172818.1304   23172819.9834   23172818.491
        47.0004         42.0004
   -327583.35447   -246833.79246  24161093.8384   24161097.4484   24161093.437
        45.0004         40.0004
 -20840134.92449 -16220788.97448  20987184.5404   20987190.3824   20987183.973
        55.0004         50.0004
   -704812.65849   -555473.27946  24545928.5234   24545929.9954   24545931.150
        54.0004         36.0004
  -1204394.79648   -918361.55947  22952778.7314   22952781.3114   22952778.503
        49.0004         45.0004
  -3942072.27947  -3042907.46046  24608106.1834   24608111.0184   24608106.269
        43.0004         38.0004
  -7588005.47647  -5872423.79747  22785206.6764   22785211.1624   22785208.330
        46.0004         42.0004
 15  1  1  0  2 48.0000000  0 10G29G05G15G13G02G24G28G26G12G21
   4726291.02847   3691792.43446  24487636.7724   24487643.2884   24487637.383
        44.0004         40.0004
 -12889766.68848 -10040736.78648  21593708.0414   21593710.8774   21593707.237
        53.0004         48.0004
 -19243581.82048 -14961202.47048  21737460.2044   21737462.1034   21737459.415
        53.0004         49.0004
   -265129.90347   -187391.17947  23173192.2494   23173196.1024   23173192.181
        47.0004         42.0004
   -324214.23947   -244208.50946  24161735.6234   24161738.6434   24161734.716
        45.0004         40.0004
 -20841951.73949 -16222204.67348  20986839.0474   20986844.4074   20986838.172
        55.0004         50.0004
   -704488.13148   -555220.39446  24545991.0534   24545992.6114   24545992.739
        53.0004         36.0004
  -1202919.05848   -917211.63447  22953059.0444   22953062.4554   22953059.326
        49.0004         45.0004
  -3944572.08847  -3044855.35846  24607630.7574   24607635.4744   24607630.511
        43.0004         38.0004
  -7589941.88347  -5873932.68347  22784839.7004   22784841.9544   22784839.852
        46.0004         42.0004
 15  1  1  0  2 49.0000000  0 10G29G05G15G13G02G24G28G26G12G21
   4727862.14547   3693016.67946  24487936.5204   24487943.5914   24487936.527
        44.0004         40.0004
 -12888913.93548 -10040072.30648  21593869.9734   21593873.0254   21593869.525
        53.0004         48.0004
 -19243608.89148 -14961223.56748  21737454.3854   21737457.3284   21737454.234
        53.0004         49.0004
   -263166.79947   -185861.48947  23173565.8524   23173567.4454   23173565.887
        47.0004         42.0004
   -320845.07847   -241583.19046  24162376.6684   24162379.7134   24162375.832
        45.0004         40.0004
 -20843767.97449 -16223619.92448  20986493.2074   20986498.6924   20986492.583
        55.0004         51.0004
   -704162.99148   -554967.03746  24546053.7034   24546053.5824   24546054.325
        53.0004         36.0004
  -1201443.36748   -916061.75247  22953340.0764   22953342.6664   22953340.138
        49.0004         45.0004
  -3947072.08047  -3046803.40246  24607155.5224   24607159.9014   24607154.899
        43.0004         38.0004
  -7591877.71647  -5875441.12747  22784471.6204   22784473.3494   22784471.519
        46.0004         42.0004
 15  1  1  0  2 50.0000000  0 10G29G05G15G13G02G24G28G26G12G21
   4729433.30147   3694240.95546  24488236.1114   24488242.5324   24488235.610
        44.0004         40.0004
 -12888060.71848 -10039407.46248  21594032.6384   21594035.0584   21594031.874
        53.0004         48.0004
 -19243635.82448 -14961244.54948  21737449.7834   21737452.0564   21737449.011
        53.0004         49.0004
   -261203.71047   -184331.80847  23173940.4324   23173942.4014   23173939.571
        47.0004         43.0004
   -317475.85047   -238957.81746  24163017.5584   24163020.2154   24163017.029
        45.0004         40.0004
 -20845583.61149 -16225034.70448  20986147.8114   20986153.2694   20986147.100
        55.0004         50.0004
   -703837.21648   -554713.18546  24546114.4584   24546115.1674   24546115.833
        53.0004         36.0004
  -1199967.69348   -914911.87347  22953620.3854   22953624.4574   22953620.961
        49.0004         45.0004
  -3949572.21647  -3048751.55846  24606678.8494   24606683.9504   24606678.888
        43.0004         38.0004
  -7593812.91747  -5876949.07347  22784102.9654   22784105.2684   22784103.358
        46.0004         42.0004
 15  1  1  0  2 51.0000000  0 10G29G05G15G13G02G24G28G26G12G21
   4731004.57247   3695465.31946  24488534.8324   24488541.6654   24488534.601
        44.0004         40.0004
 -12887207.02048 -10038742.24148  21594195.2014   21594197.8274   21594194.329
        53.0004         48.0004
 -19243662.58348 -14961265.39948  21737444.8044   21737447.3874   21737443.906
        53.0004         49.0004
   -259240.58947   -182802.11447  23174313.0734   23174315.9814   23174313.299
        47.0004         43.0004
   -314106.52347   -236332.36846  24163658.5644   24163660.9064   24163658.209
        45.0004         40.0004
 -20847398.62049 -16226448.99648  20985802.3824   20985807.9034   20985801.752
        55.0004         50.0004
   -703510.78348   -554458.82146  24546177.6584   24546178.2204   24546177.945
        53.0004         36.0004
  -1198491.98848   -913761.97147  22953901.8854   22953905.3624   22953901.729
        49.0004         45.0004
  -3952072.47547  -3050699.80746  24606203.2284   24606206.9774   24606202.573
        43.0004         38.0004
  -7595747.47547  -5878456.51847  22783735.4464   22783736.2474   22783735.220
        46.0004         42.0004
 15  1  1  0  2 52.0000000  0 10G29G05G15G13G02G24G28G26G12G21
   4732575.66947   3696689.55046  24488833.9214   24488840.0234   24488833.667
        44.0004         40.0004
 -12886353.06148 -10038076.81848  21594357.3044   21594360.0194   21594356.769
        53.0004         48.0004
 -19243689.40548 -14961286.30148  21737439.7314   21737441.9974   21737438.850
        53.0004         49.0004
   -257277.69247   -181272.58547  23174685.8274   23174688.3814   23174687.108
        47.0004         42.0004
   -310737.34547   -233707.04146  24164299.3714   24164302.5464   24164299.315
        45.0004         40.0004
 -20849213.25149 -16227862.99248  20985456.8684   20985462.4224   20985456.427
        55.0004         51.0004
   -703183.92448   -554204.12946  24546239.6284   24546239.7144   24546239.959
        52.0004         36.0004
  -1197016.53148   -912612.26547  22954182.6294   22954185.2294   22954182.407
        49.0004         45.0004
  -3954573.07947  -3052648.32546  24605727.5644   24605731.0854   24605726.282
        43.0004         38.0004
  -7597681.63047  -5879963.64547  22783366.5894   22783367.8444   22783367.183
        46.0004         42.0004
 15  1  1  0  2 53.0000000  0 10G29G05G15G13G02G24G28G26G12G21
   4734146.78347   3697913.79446  24489133.4224   24489139.1704   24489132.631
        44.0004         40.0004
 -12885498.69348 -10037411.07948  21594520.1744   21594522.8224   21594519.336
        53.0004         48.0004
 -19243716.14148 -14961307.13348  21737434.6764   21737436.7024   21737433.848
        53.0004         49.0004
   -255314.86547   -179743.10647  23175060.9934   23175062.8964   23175060.579
        47.0004         43.0004
   -307368.12647   -231081.67546  24164940.2994   24164943.4964   24164940.344
        45.0004         40.0004
 -20851027.33049 -16229276.56048  20985111.7814   20985117.4524   20985111.199
        55.0004         50.0004
   -702856.47348   -553948.97046  24546302.3564   24546303.3954   24546302.310
        52.0004         36.0004
  -1195541.13748   -911462.60747  22954462.9224   22954465.8454   22954463.167
        49.0004         45.0004
  -3957073.88947  -3054597.00646  24605252.0034   24605255.5314   24605250.359
        43.0004         38.0004
  -7599615.21347  -5881470.33647  22782998.5004   22783001.2454   22782999.175
        46.0004         42.0004
 15  1  1  0  2 54.0000000  0 10G29G05G15G13G02G24G28G26G12G21
   4735717.61047   3699137.81546  24489432.6444   24489437.7034   24489431.686
        44.0004         40.0004
 -12884644.21348 -10036745.25048  21594682.5974   21594685.4414   21594681.925
        53.0004         48.0004
 -19243743.07348 -14961328.12048  21737429.6164   21737432.0834   21737428.710
        53.0004         49.0004
   -253352.39747   -178213.91147  23175433.4164   23175437.1434   23175434.150
        47.0004         42.0004
   -303999.20747   -228456.54346  24165581.3854   24165584.5564   24165581.331
        45.0004         40.0004
 -20852841.16249 -16230689.93648  20984766.6554   20984772.0514   20984766.006
        55.0004         50.0004
   -702528.71648   -553693.57246  24546363.4564   24546366.0034   24546364.099
        52.0004         36.0004
  -1194066.11748   -910313.23747  22954743.6874   22954747.5304   22954743.772
        49.0004         45.0004
  -3959575.19647  -3056546.07346  24604776.2504   24604779.5734   24604774.274
        43.0004         38.0004
  -7601548.53047  -5882976.80847  22782631.3604   22782633.9954   22782631.264
        46.0004         42.0004
 15  1  1  0  2 55.0000000  0 10G29G05G15G13G02G24G28G26G12G21
   4737288.38747   3700361.79746  24489731.6454   24489736.4224   24489730.576
        44.0004         40.0004
 -12883789.37648 -10036079.14348  21594845.2594   21594848.0054   21594844.603
        53.0004         48.0004
 -19243769.96748 -14961349.07348  21737424.3774   21737426.5824   21737423.605
        53.0004         49.0004
   -251390.05247   -176684.80947  23175806.7044   23175809.8284   23175807.763
        47.0004         42.0004
   -300630.33547   -225831.45146  24166221.9514   24166225.8754   24166222.426
        45.0004         40.0004
 -20854654.50449 -16232102.92748  20984421.6714   20984427.0184   20984420.945
        55.0004         50.0004
   -702200.46848   -553437.79246  24546425.6024   24546427.2834   24546425.966
        52.0004         36.0004
  -1192591.21848   -909163.97247  22955024.5054   22955028.1384   22955024.337
        49.0004         45.0004
  -3962076.74747  -3058495.33246  24604299.7294   24604303.8954   24604297.965
        43.0004         38.0004
  -7603481.34247  -5884482.89247  22782263.2604   22782266.2624   22782263.373
        46.0004         42.0004
 15  1  1  0  2 56.0000000  0 10G29G05G15G13G02G24G28G26G12G21
   4738859.55747   3701586.08646  24490030.0954   24490035.2994   24490029.559
        44.0004         40.0004
 -12882933.74448 -10035412.41848  21595007.6254   21595010.6004   21595007.442
        53.0004         48.0004
 -19243796.39748 -14961369.66648  21737419.1504   21737421.7524   21737418.601
        53.0004         49.0004
   -249427.38947   -175155.46347  23176179.2864   23176183.7514   23176181.222
        47.0004         43.0004
   -297261.05247   -223206.03946  24166862.8644   24166867.0804   24166863.683
        45.0004         40.0004
 -20856466.92449 -16233515.20348  20984076.9644   20984082.3014   20984076.034
        55.0004         50.0004
   -701871.21148   -553181.22746  24546487.5394   24546490.0104   24546488.586
        52.0004         36.0004
  -1191115.98948   -908014.43947  22955305.2854   22955308.4054   22955304.983
        49.0004         45.0004
  -3964578.13247  -3060444.46046  24603824.2204   24603828.8014   24603821.865
        43.0004         38.0004
  -7605413.18847  -5885988.22647  22781895.6104   22781897.4114   22781895.906
        46.0004         42.0004
 15  1  1  0  2 57.0000000  0 10G29G05G15G13G02G24G28G26G12G21
   4740430.61147   3702810.28346  24490328.4954   24490333.8484   24490328.554
        44.0004         40.0004
 -12882077.82248 -10034745.46648  21595170.9164   21595173.7544   21595170.293
        53.0004         48.0004
 -19243822.85048 -14961390.28048  21737414.0254   21737416.4644   21737413.599
        53.0004         49.0004
   -247464.90147   -173626.24647  23176553.8284   23176556.0404   23176554.733
        47.0004         43.0004
   -293891.86847   -220580.70346  24167504.3684   24167508.2584   24167504.620
        45.0004         40.0004
 -20858278.92249 -16234927.14948  20983731.9034   20983737.4184   20983731.239
        55.0004         50.0004
   -701541.51648   -552924.32146  24546550.1114   24546553.8274   24546551.148
        51.0004         36.0004
  -1189640.96248   -906865.06247  22955585.7994   22955588.6064   22955585.638
        49.0004         45.0004
  -3967079.82047  -3062393.82546  24603347.9134   24603352.3964   24603345.394
        43.0004         38.0004
  -7607344.58947  -5887493.21347  22781527.4634   22781530.6214   22781528.373
        46.0004         42.0004
 15  1  1  0  2 58.0000000  0 10G29G05G15G13G02G24G28G26G12G21
   4742001.71247   3704034.51646  24490627.3994   24490632.9934   24490627.453
        44.0004         40.0004
 -12881221.44248 -10034078.15648  21595333.9144   21595336.8134   21595333.338
        53.0004         48.0004
 -19243849.14348 -14961410.76748  21737408.9534   21737411.2904   21737408.571
        53.0004         49.0004
   -245502.43747   -172097.05747  23176927.0234   23176929.8244   23176928.175
        47.0004         42.0004
   -290522.61747   -217955.31446  24168145.9084   24168149.2544   24168145.869
        45.0004         40.0004
 -20860090.34749 -16236338.64748  20983387.1814   20983392.6114   20983386.566
        55.0004         50.0004
   -701211.20248   -552666.93046  24546612.6304   24546616.4814   24546613.776
        51.0004         36.0004
  -1188165.97248   -905715.72047  22955866.9874   22955870.2624   22955866.323
        49.0004         45.0004
  -3969581.66247  -3064343.30946  24602872.0214   24602876.6664   24602869.174
        43.0004         38.0004
  -7609275.38547  -5888997.73347  22781159.2744   22781163.3004   22781160.964
        46.0004         42.0004
 15  1  1  0  2 59.0000000  0 10G29G05G15G13G02G24G28G26G12G21
   4743572.29547   3705258.34446  24490926.7114   24490932.1044   24490926.358
        44.0004         40.0004
 -12880365.18048 -10033410.93948  21595496.8004   21595499.6104   21595496.364
        53.0004         48.0004
 -19243875.89848 -14961431.61448  21737403.9964   21737406.8174   21737403.516
        53.0004         49.0004
   -243540.57747   -170568.34447  23177301.6724   23177301.8724   23177301.431
        47.0004         42.0004
   -287153.89247   -215330.33446  24168787.1204   24168790.4624   24168786.867
        45.0004         40.0004
 -20861901.75049 -16237750.12848  20983042.2454   20983047.8184   20983041.882
        55.0004         50.0004
   -700880.81248   -552409.48146  24546675.5204   24546677.8054   24546676.177
        51.0004         36.0004
  -1186691.55548   -904566.82647  22956146.9994   22956150.2554   22956146.849
        49.0004         45.0004
  -3972084.22447  -3066293.35546  24602395.6054   24602400.5814   24602393.170
        43.0004         38.0004
  -7611206.13447  -5890502.21547  22780792.3784   22780795.5134   22780793.691
        46.0004         42.0004
 15  1  1  0  3  0.0000000  0 10G29G05G15G13G02G24G28G26G12G21
   4745142.74947   3706482.07546  24491225.0284   24491231.2004   24491225.169
        44.0004         40.0004
 -12879508.63748 -10032743.50548  21595659.6574   21595662.7404   21595659.404
        53.0004         48.0004
 -19243902.67448 -14961452.48048  21737399.1374   21737401.6474   21737398.442
        53.0004         49.0004
   -241578.91247   -169039.77747  23177674.9144   23177676.9854   23177674.809
        47.0004         42.0004
   -283785.27747   -212705.44146  24169428.6224   24169431.2634   24169427.945
        45.0004         40.0004
 -20863712.75049 -16239161.29748  20982698.0794   20982703.1454   20982697.258
        55.0004         50.0004
   -700549.98248   -552151.69346  24546738.9594   24546742.5374   24546739.014
        51.0004         36.0004
  -1185217.35748   -903418.10147  22956427.6144   22956431.2754   22956427.239
        49.0004         45.0004
  -3974587.11147  -3068243.65246  24601919.5524   24601924.6564   24601917.031
        43.0004         38.0004
  -7613136.45147  -5892006.35747  22780426.5834   22780428.0274   22780426.314
        46.0004         42.0004
 15  1  1  0  3  1.0000000  0 10G29G05G15G13G02G24G28G26G12G21
   4746712.76247   3707705.46046  24491524.2624   24491530.3714   24491524.149
        44.0004         40.0004
 -12878652.12548 -10032076.09348  21595822.7154   21595825.4514   21595822.435
        53.0004         48.0004
 -19243929.82448 -14961473.63548  21737393.7344   21737396.2154   21737393.250
        53.0004         49.0004
   -239617.74147   -167511.58847  23178047.5174   23178049.5434   23178047.972
        47.0004         43.0004
   -280417.08647   -210080.87846  24170069.0714   24170072.4784   24170068.890
        45.0004         40.0004
 -20865523.65249 -16240572.38948  20982353.3394   20982358.6914   20982352.634
        55.0004         51.0004
   -700218.98848   -551893.77646  24546802.5964   24546805.0604   24546801.663
        51.0004         36.0004
  -1183743.67648   -902269.77647  22956707.7414   22956711.5584   22956707.599
        49.0004         45.0004
  -3977090.65247  -3070194.46346  24601442.2474   24601448.3134   24601440.508
        43.0004         38.0004
  -7615066.65247  -5893510.40647  22780058.8664   22780060.3274   22780058.932
        46.0004         42.0004
 15  1  1  0  3  2.0000000  0 10G29G05G15G13G02G24G28G26G12G21
   4748283.03447   3708929.04846  24491823.0594   24491829.3394   24491822.997
        44.0004         40.0004
 -12877794.95648 -10031408.16948  21595985.6684   21595988.6864   21595985.545
        53.0004         48.0004
 -19243956.62548 -14961494.51748  21737388.9254   21737391.2174   21737388.201
        53.0004         49.0004
   -237656.41947   -165983.28647  23178419.8084   23178422.4004   23178421.269
        47.0004         43.0004
   -277048.63247   -207456.10946  24170709.7444   24170714.0174   24170709.743
        45.0004         40.0004
 -20867333.76049 -16241982.86048  20982008.9254   20982014.4294   20982008.212
        55.0004         50.0004
   -699887.19448   -551635.23546  24546865.4504   24546868.8424   24546864.742
        50.0004         36.0004
  -1182269.80548   -901121.30247  22956988.3914   22956991.5504   22956988.037
        49.0004         45.0004
  -3979594.15247  -3072145.23946  24600966.1274   24600971.3264   24600963.977
        43.0004         38.0004
  -7616996.05347  -5895013.83347  22779690.6024   22779693.4244   22779691.815
        46.0004         42.0004
 15  1  1  0  3  3.0000000  0 10G29G05G15G13G02G24G28G26G12G21
   4749853.79147   3710153.01446  24492121.6044   24492127.9004   24492121.995
        44.0004         40.0004
 -12876936.90148 -10030739.55548  21596149.2134   21596151.9204   21596148.853
        53.0004         48.0004
 -19243982.86148 -14961514.96048  21737383.8314   21737386.4114   21737383.248
        53.0004         49.0004
   -235694.64847   -164454.63847  23178794.4344   23178796.3114   23178794.494
        47.0004         42.0004
   -273679.67347   -204830.94646  24171351.2734   24171354.4274   24171350.865
        45.0004         40.0004
 -20869142.84749 -16243392.53848  20981664.7544   20981669.8894   20981663.948
        55.0004         50.0004
   -699554.33148   -551375.85946  24546930.3974   24546931.2114   24546927.941
        50.0004         36.0004
  -1180795.52848   -899972.51547  22957269.3334   22957272.0934   22957268.549
        49.0004         45.0004
  -3982097.35747  -3074095.78346  24600490.4984   24600494.8064   24600487.972
        43.0004         38.0004
  -7618924.38147  -5896516.42547  22779323.5174   22779326.7154   22779324.767
        46.0004         42.0004
 15  1  1  0  3  4.0000000  0 10G29G05G15G13G02G24G28G26G12G21
   4751424.64247   3711377.05446  24492420.2314   24492426.5974   24492420.851
        44.0004         40.0004
 -12876078.31948 -10030070.53248  21596312.5834   21596315.4474   21596312.353
        53.0004         48.0004
 -19244008.88248 -14961535.23548  21737378.9154   21737381.4364   21737378.295
        53.0004         49.0004
   -233732.86347   -162925.97147  23179166.9194   23179169.1604   23179167.726
        47.0004         42.0004
   -270310.60647   -202205.70346  24171992.4034   24171996.5594   24171992.029
        45.0004         40.0004
 -20870951.27949 -16244801.70548  20981320.4994   20981325.6184   20981319.872
        55.0004         50.0004
   -699220.77948   -551115.94246  24546993.3834   24546993.8704   24546991.501
        50.0004         36.0004
  -1179321.21748   -898823.70547  22957549.3154   22957552.0684   22957549.153
        49.0004         45.0004
  -3984600.66147  -3076046.40346  24600013.8094   24600018.0814   24600011.922
        43.0004         38.0004
  -7620852.06647  -5898018.51747  22778958.3514   22778960.7544   22778957.820
        46.0004         42.0004
 15  1  1  0  3  5.0000000  0 10G29G05G15G13G02G24G28G26G12G21
   4752995.15047   3712600.82446  24492719.7514   24492725.1484   24492719.665
        44.0004         40.0004
 -12875219.70248 -10029401.48348  21596475.8184   21596478.6964   21596475.823
        53.0004         48.0004
 -19244035.19048 -14961555.73448  21737373.5304   21737376.3104   21737373.261
        53.0004         49.0004
   -231771.48747   -161397.62947  23179540.5464   23179541.7534   23179540.946
        47.0004         43.0004
   -266941.88747   -199580.72746  24172632.9134   24172636.9444   24172633.279
        45.0004         40.0004
 -20872759.54649 -16246210.74548  20980976.2464   20980981.5464   20980975.867
        55.0004         50.0004
   -698886.98948   -550855.84946  24547057.2524   24547058.4954   24547055.202
        50.0004         36.0004
  -1177847.34248   -897675.23147  22957829.7444   22957833.4894   22957829.619
        49.0004         45.0004
  -3987104.53247  -3077997.46746  24599537.2054   24599542.0034   24599535.525
        43.0004         38.0004
  -7622779.54547  -5899520.44647  22778590.6784   22778592.3754   22778591.090
        46.0004         42.0004
 15  1  1  0  3  6.0000000  0 10G29G05G15G13G02G24G28G26G12G21
   4754565.45847   3713824.43946  24493018.2394   24493024.8004   24493018.432
        44.0004         40.0004
 -12874360.87548 -10028732.26648  21596639.6104   21596642.1304   21596639.280
        53.0004         48.0004
 -19244061.62148 -14961576.32848  21737369.1904   21737371.2814   21737368.273
        53.0004         49.0004
   -229810.40247   -159869.51347  23179913.9684   23179915.8624   23179913.964
        47.0004         42.0004
   -263573.35547   -196955.89946  24173274.2844   24173278.3074   24173274.460
        45.0004         40.0004
 -20874567.47449 -16247619.51748  20980632.4114   20980637.6754   20980631.818
        55.0004         50.0004
   -698552.83148   -550595.46446  24547121.1544   24547121.7134   24547118.411
        50.0004         36.0004
  -1176373.73448   -896526.95847  22958110.2104   22958113.8734   22958109.938
        49.0004         45.0004
  -3989608.77947  -3079948.82646  24599060.7084   24599065.3394   24599059.285
        43.0004         38.0004
  -7624706.65447  -5901022.08647  22778224.3094   22778225.8984   22778224.405
        46.0004         42.0004
 15  1  1  0  3  7.0000000  0 10G29G05G15G13G02G24G28G26G12G21
   4756136.00247   3715048.23946  24493317.7814   24493324.1184   24493317.266
        44.0004         40.0004
 -12873501.40348 -10028062.54748  21596802.8994   21596805.9704   21596802.871
        53.0004         48.0004
 -19244087.70248 -14961596.65048  21737363.6554   21737366.5264   21737363.409
        53.0004         49.0004
   -227849.14347   -158341.25747  23180287.7124   23180290.0184   23180287.090
        47.0004         42.0004
   -260204.55547   -194330.86246  24173915.0164   24173918.6734   24173915.452
        45.0004         40.0004
 -20876374.61149 -16249027.67448  20980288.7764   20980293.6734   20980287.903
        55.0004         50.0004
   -698217.84748   -550334.43846  24547183.7904   24547185.9474   24547181.914
        50.0004         36.0004
  -1174899.96548   -895378.56847  22958390.3774   22958394.6584   22958390.322
        49.0004         45.0004
  -3992113.01247  -3081900.17446  24598583.6224   24598588.7444   24598583.025
        43.0004         38.0004
  -7626632.96647  -5902523.10847  22777857.3104   22777859.7704   22777857.878
        46.0004         42.0004
 15  1  1  0  3  8.0000000  0 10G29G05G15G13G02G24G28G26G12G21
   4757706.46747   3716271.97646  24493616.4184   24493623.5274   24493616.228
        44.0004         40.0004
 -12872641.60648 -10027392.57748  21596966.4334   21596969.6254   21596966.550
        53.0004         48.0004
 -19244113.80248 -14961616.98948  21737358.8654   21737361.3544   21737358.503
        53.0004         49.0004
   -225888.02347   -156813.10747  23180661.2584   23180662.2594   23180660.128
        47.0004         43.0004
   -256835.84647   -191705.89646  24174555.3054   24174558.9524   24174556.400
        45.0004         40.0004
 -20878181.29649 -16250435.48248  20979944.5604   20979949.7024   20979944.087
        55.0004         50.0004
   -697882.34548   -550073.00846  24547248.1614   24547249.4894   24547245.880
        49.0004         36.0004
  -1173426.33548   -894230.28547  22958671.0564   22958674.5174   22958670.760
        49.0004         45.0004
  -3994617.53547  -3083851.74646  24598106.8784   24598111.6194   24598106.440
        43.0004         38.0004
  -7628558.78947  -5904023.75247  22777490.8494   22777492.7744   22777491.324
        46.0004         42.0004
 15  1  1  0  3  9.0000000  0 10G29G05G15G13G02G24G28G26G12G21
   4759276.88247   3717495.67646  24493915.2294   24493922.1784   24493914.946
        44.0004         40.0004
 -12871781.46048 -10026722.33348  21597130.3294   21597132.8804   21597130.288
        53.0004         48.0004
 -19244139.85248 -14961637.28548  21737353.9394   21737356.8014   21737353.534
        53.0004         49.0004
   -223927.05447   -155285.08947  23181032.3074   23181035.4744   23181033.032
        47.0004         42.0004
   -253467.15347   -189080.94346  24175196.9174   24175199.9104   24175197.347
        45.0004         40.0004
 -20879987.49849 -16251842.90948  20979600.8854   20979605.9674   20979600.408
        55.0004         50.0004
   -697546.34848   -549811.19146  24547311.2844   24547312.8544   24547309.557
        49.0004         36.0004
  -1171952.84548   -893082.10747  22958950.8884   22958954.2504   22958951.156
        49.0004         45.0004
  -3997122.32147  -3085803.52346  24597630.4444   24597635.3364   24597630.031
        43.0004         38.0004
  -7630484.12147  -5905524.01047  22777125.2344   22777126.9384   22777124.896
        46.0004         42.0004
 15  1  1  0  3 10.0000000  0 10G29G05G15G13G02G24G28G26G12G21
   4760847.23747   3718719.32946  24494214.5984   24494220.3754   24494213.726
        44.0004         40.0004
 -12870920.94748 -10026051.80348  21597293.9814   21597296.8534   21597294.046
        53.0004         48.0004
 -19244165.86448 -14961657.55548  21737349.1884   21737351.7754   21737348.628
        53.0004         49.0004
   -221966.17447   -153757.13547  23181406.7484   23181408.2354   23181405.986
        47.0004         42.0004
   -250098.50647   -186456.02646  24175837.8734   24175841.4984   24175838.532
        45.0004         40.0004
 -20881793.18649 -16253249.93848  20979257.1844   20979262.4034   20979256.755
        55.0004         50.0004
   -697209.81748   -549548.96346  24547376.0554   24547377.1784   24547373.882
        49.0004         36.0004
  -1170479.46848   -891934.02747  22959231.5054   22959234.8884   22959231.457
        49.0004         45.0004
  -3999627.33547  -3087755.47946  24597153.2254   24597159.2884   24597153.862
        43.0004         38.0004
  -7632408.93147  -5907023.86347  22776758.3844   22776760.8524   22776758.446
        46.0004         42.0004
 15  1  1  0  3 11.0000000  0 10G29G05G15G13G02G24G28G26G12G21
   4762417.16647   3719942.64846  24494513.0634   24494519.3204   24494512.421
        44.0004         40.0004
 -12870060.46348 -10025381.29848  21597457.7794   21597460.3674   21597457.819
        53.0004         48.0004
 -19244192.22048 -14961678.09248  21737343.8044   21737346.6064   21737343.603
        53.0004         49.0004
   -220005.81347   -152229.58047  23181778.5304   23181782.6224   23181778.918
        47.0004         42.0004
   -246730.29647   -183831.45046  24176479.0944   24176483.2234   24176479.566
        45.0004         40.0004
 -20883598.75849 -16254656.87848  20978913.7754   20978919.0854   20978913.148
        55.0004         50.0004
   -696873.13748   -549286.61846  24547440.3734   24547440.9124   24547437.803
        49.0004         36.0004
  -1169006.60348   -890786.34147  22959511.7924   22959515.4914   22959511.801
        49.0004         45.0004
  -4002132.98447  -3089707.92946  24596676.5274   24596682.5944   24596677.415
        43.0004         38.0004
  -7634333.62947  -5908523.62747  22776391.6544   22776394.4034   22776392.253
        46.0004         42.0004
 15  1  1  0  3 12.0000000  0 10G29G05G15G13G02G24G28G26G12G21
   4763986.80147   3721165.73946  24494811.5434   24494817.9824   24494811.183
        44.0004         40.0004
 -12869199.88048 -10024710.71548  21597621.7134   21597624.1744   21597621.632
        53.0004         48.0004
 -19244218.80948 -14961698.80948  21737338.8494   21737341.4354   21737338.554
        53.0004         49.0004
   -218045.84747   -150702.32747  23182151.4344   23182153.4634   23182151.759
        47.0004         42.0004
   -243362.37247   -181207.09646  24177120.2204   24177124.3504   24177120.496
        45.0004         40.0004
 -20885404.09949 -16256063.63448  20978570.1864   20978575.2824   20978569.553
        55.0004         50.0004
   -696536.17348   -549024.04846  24547503.3424   24547506.1824   24547501.899
        49.0004         36.0004
  -1167534.11148   -889638.94347  22959792.3374   22959795.7044   22959791.985
        49.0004         45.0004
  -4004639.14247  -3091660.77746  24596199.7834   24596205.3824   24596200.621
        43.0004         38.0004
  -7636258.06147  -5910023.18047  22776025.9844   22776028.5124   22776026.185
        46.0004         42.0004
 15  1  1  0  3 13.0000000  0 10G29G05G15G13G02G24G28G26G12G21
   4765556.79047   3722389.10746  24495110.3704   24495116.6814   24495109.810
        44.0004         40.0004
 -12868338.52048 -10024039.52648  21597785.3704   21597788.1854   21597785.558
        53.0004         48.0004
 -19244244.91848 -14961719.15448  21737333.8374   21737336.6974   21737333.631
        53.0004         49.0004
   -216085.52647   -149174.79447  23182524.9004   23182528.6314   23182524.681
        47.0004         42.0004
   -239994.06347   -178582.44246  24177761.6264   24177765.1304   24177761.234
        45.0004         40.0004
 -20887208.54649 -16257469.69748  20978226.6964   20978232.0244   20978226.187
        55.0004         50.0004
   -696198.29248   -548760.76646  24547567.0634   24547570.5844   24547566.730
        48.0004         36.0004
  -1166061.34148   -888491.32947  22960072.2674   22960075.2234   22960072.294
        49.0004         44.0004
  -4007145.14747  -3093613.50346  24595723.3394   24595728.2714   24595723.800
        43.0004         38.0004
  -7638181.57147  -5911522.01447  22775659.6454   22775662.2244   22775660.079
        46.0004         42.0004
 15  1  1  0  3 14.0000000  0 10G29G05G15G13G02G24G28G26G12G21
   4767126.91047   3723612.57846  24495408.9444   24495415.1004   24495408.503
        44.0004         40.0004
 -12867476.62248 -10023367.91748  21597949.7584   21597951.8934   21597949.598
        53.0004         48.0004
 -19244270.82348 -14961739.33648  21737328.9734   21737331.8824   21737328.732
        53.0004         49.0004
   -214125.16847   -147647.24647  23182897.5274   23182899.8324   23182897.485
        47.0004         42.0004
   -236625.61247   -175957.67846  24178402.4314   24178406.3164   24178402.400
        45.0004         40.0004
 -20889012.32249 -16258875.23248  20977883.5214   20977888.8104   20977882.986
        55.0004         50.0004
   -695859.64048   -548496.87846  24547631.6894   24547635.4314   24547631.353
        48.0004         36.0004
  -1164588.49648   -887343.65447  22960353.0944   22960356.1224   22960352.603
        49.0004         45.0004
  -4009651.21047  -3095566.27546  24595246.6944   24595251.3654   24595246.773
        43.0004         38.0004
  -7640104.37447  -5913020.29547  22775293.1624   22775296.6984   22775294.093
        47.0004         42.0004
 15  1  1  0  3 15.0000000  0 10G29G05G15G13G02G24G28G26G12G21
   4768697.25147   3724836.22146  24495707.4054   24495713.9924   24495707.154
        44.0004         40.0004
 -12866614.10448 -10022695.82648  21598113.4624   21598116.2364   21598113.711
        53.0004         48.0004
 -19244296.40948 -14961759.27548  21737323.6814   21737326.8264   21737323.881
        53.0004         49.0004
   -212164.68247   -146119.59247  23183271.1224   23183274.3254   23183270.251
        47.0004         42.0004
   -233256.93647   -173332.73846  24179043.0324   24179047.1824   24179043.688
        45.0004         40.0004
 -20890815.34349 -16260280.18648  20977540.3494   20977545.6184   20977539.858
        55.0004         50.0004
   -695520.23148   -548232.40446  24547696.2044   24547698.9134   24547695.997
        48.0004         36.0004
  -1163115.52348   -886195.88747  22960633.3184   22960636.2604   22960632.948
        49.0004         45.0004
  -4012157.28347  -3097519.05746  24594770.5244   24594774.4384   24594770.022
        43.0004         38.0004
  -7642026.39847  -5914517.97547  22774927.7854   22774931.2444   22774928.319
        46.0004         42.0004
 15  1  1  0  3 16.0000000  0 10G29G05G15G13G02G24G28G26G12G21
   4770266.89647   3726059.32346  24496005.8484   24496012.2114   24496005.687
        44.0004         40.0004
 -12865751.88548 -10022023.96848  21598277.8044   21598280.2314   21598277.724
        53.0004         48.0004
 -19244322.62648 -14961779.70448  21737319.0794   21737321.7984   21737318.906
        53.0004         49.0004
   -210204.95547   -144592.54147  23183643.7954   23183646.6634   23183642.980
        47.0004         42.0004
   -229888.95647   -170708.34046  24179684.3764   24179688.1224   24179684.861
        45.0004         40.0004
 -20892618.51849 -16261685.25648  20977197.4134   20977202.3524   20977196.702
        55.0004         50.0004
   -695180.94748   -547968.03046  24547762.0394   24547764.0764   24547760.873
        48.0004         36.0004
  -1161643.33948   -885048.73047  22960913.3424   22960917.4234   22960913.113
        49.0004         45.0004
  -4014664.24947  -3099472.53546  24594293.0374   24594297.1854   24594293.112
        43.0004         38.0004
  -7643948.57447  -5916015.78347  22774563.0634   22774564.2454   22774562.610
        47.0004         42.0004
 15  1  1  0  3 17.0000000  0 10G29G05G15G13G02G24G28G26G12G21
   4771837.36447   3727283.06646  24496305.1024   24496311.5574   24496304.585
        44.0004         40.0004
 -12864888.42148 -10021351.13948  21598442.1864   21598444.4444   21598441.999
        53.0004         48.0004
 -19244347.91448 -14961799.40848  21737314.3104   21737317.0564   21737314.133
        53.0004         49.0004
   -208244.46747   -143064.88647  23184017.3354   23184019.6244   23184016.166
        47.0004         42.0004
   -226520.12047   -168083.27446  24180325.5284   24180328.6454   24180325.732
        45.0004         40.0004
 -20894420.31949 -16263089.25748  20976854.4744   20976859.5414   20976853.808
        55.0004         50.0004
   -694840.23348   -547702.53646  24547827.2544   24547828.3294   24547825.824
        48.0004         36.0004
  -1160170.38248   -883900.96947  22961194.5694   22961196.3044   22961193.529
        49.0004         45.0004
  -4017170.58447  -3101425.52046  24593815.4874   24593820.2354   24593816.384
        43.0004         38.0004
  -7645869.35047  -5917512.49047  22774195.6854   22774199.0044   22774197.154
        47.0004         42.0004
 15  1  1  0  3 18.0000000  0 10G29G05G15G13G02G24G28G26G12G21
   4773408.22447   3728507.11546  24496604.2174   24496610.5634   24496603.439
        44.0004         40.0004
 -12864024.15548 -10020677.68748  21598606.5804   21598609.4034   21598606.425
        53.0004         48.0004
 -19244372.72348 -14961818.73948  21737309.5774   21737312.2354   21737309.381
        53.0004         49.0004
   -206283.67247   -141536.98847  23184390.8464   23184393.5184   23184389.365
        47.0004         42.0004
   -223150.89247   -165457.90146  24180966.5744   24180969.3394   24180966.780
        45.0004         40.0004
 -20896221.20549 -16264492.54348  20976511.9624   20976516.9274   20976511.094
        55.0004         50.0004
   -694498.55047   -547436.28946  24547893.4544   24547893.5504   24547890.791
        47.0004         36.0004
  -1158697.11448   -882752.97147  22961474.1544   22961477.9554   22961473.870
        49.0004         45.0004
  -4019676.71847  -3103378.35046  24593338.3164   24593343.6894   24593339.819
        43.0004         38.0004
  -7647789.16147  -5919008.44947  22773830.1734   22773834.0144   22773831.822
        47.0004         42.0004
 15  1  1  0  3 19.0000000  0 10G29G05G15G13G02G24G28G26G12G21
   4774978.64247   3729730.81746  24496902.9894   24496909.1564   24496902.207
        44.0004         40.0004
 -12863159.92248 -10020004.25848  21598771.2814   21598773.4924   21598770.832
        53.0004         48.0004
 -19244397.88348 -14961838.34348  21737304.7504   21737307.6314   21737304.559
        53.0004         49.0004
   -204323.37947   -140009.49047  23184762.9884   23184766.2724   23184762.333
        47.0004         42.0004
   -219782.09647   -162832.86846  24181607.5174   24181610.5334   24181607.751
        45.0004         40.0004
 -20898021.99449 -16265895.75348  20976169.0054   20976174.3174   20976168.397
        55.0004         50.0004
   -694156.75247   -547169.95145  24547958.8214   24547959.4364   24547955.983
        47.0004         35.0004
  -1157224.34548   -881605.35247  22961754.0404   22961757.7214   22961754.146
        49.0004         45.0004
  -4022183.51447  -3105331.69646  24592861.9984   24592866.3914   24592863.006
        43.0004         38.0004
  -7649708.86547  -5920504.31847  22773465.6444   22773468.4534   22773466.516
        47.0004         42.0004
 15  1  1  0  3 20.0000000  0 10G29G05G15G13G02G24G28G26G12G21
   4776549.03747   3730954.50346  24497201.7274   24497207.9914   24497201.011
        44.0004         40.0004
 -12862295.31748 -10019330.53948  21598935.5704   21598938.2544   21598935.334
        53.0004         48.0004
 -19244423.00848 -14961857.91748  21737300.1434   21737302.7914   21737299.778
        53.0004         49.0004
   -202363.17447   -138482.05847  23185136.1904   23185138.1314   23185135.371
        47.0004         42.0004
   -216413.32447   -160207.85046  24182248.4824   24182252.6614   24182249.030
        45.0004         40.0004
 -20899822.27949 -16267298.57348  20975826.3754   20975831.7904   20975825.837
        55.0004         50.0004
   -693814.35547   -546903.14746  24548023.1434   24548025.2754   24548021.334
        47.0004         36.0004
  -1155751.69148   -880457.83447  22962034.9484   22962039.0424   22962034.455
        49.0004         44.0004
  -4024690.55247  -3107285.22946  24592384.5354   24592388.8794   24592386.060
        43.0004         38.0004
  -7651628.03747  -5921999.77747  22773101.9974   22773103.1844   22773101.255
        47.0004         42.0004
 15  1  1  0  3 21.0000000  0 10G29G05G15G13G02G24G28G26G12G21
   4778119.59147   3732178.31346  24497499.8464   24497507.4484   24497499.776
        44.0004         40.0004
 -12861430.15048 -10018656.38348  21599100.3434   21599102.8094   21599099.990
        53.0004         48.0004
 -19244447.87448 -14961877.29348  21737295.1444   21737298.0344   21737295.092
        53.0004         49.0004
   -200402.89747   -136954.56947  23185509.4774   23185513.3694   23185508.452
        47.0004         42.0004
   -213044.38047   -157582.70046  24182889.3004   24182893.0144   24182890.180
        45.0004         40.0004
 -20901621.87449 -16268700.85348  20975483.9864   20975489.2964   20975483.345
        55.0004         50.0004
   -693471.23847   -546635.78346  24548088.5904   24548091.5894   24548086.754
        47.0004         36.0004
  -1154278.95248   -879310.24247  22962314.7164   22962318.3234   22962314.768
        49.0004         45.0004
  -4027197.64947  -3109238.81046  24591908.0454   24591911.7344   24591909.045
        43.0004         38.0004
  -7653546.48047  -5923494.66747  22772735.5044   22772738.9024   22772736.174
        47.0004         42.0004
 15  1  1  0  3 22.0000000  0 10G29G05G15G13G02G24G28G26G12G21
   4779690.05247   3733402.04946  24497798.5904   24497806.3184   24497798.591
        44.0004         40.0004
 -12860564.65148 -10017981.97048  21599264.6624   21599267.3894   21599264.716
        53.0004         48.0004
 -19244472.74348 -14961896.67248  21737290.6534   21737293.5714   21737290.336
        53.0004         49.0004
   -198442.74747   -135427.18547  23185881.4064   23185884.4784   23185881.456
        47.0004         42.0004
   -209675.51147   -154957.60946  24183530.3364   24183534.1994   24183531.219
        45.0004         40.0004
 -20903421.00149 -16270102.76948  20975141.6804   20975146.7154   20975140.973
        55.0004         50.0004
   -693127.61247   -546368.02046  24548153.2684   24548155.8114   24548152.040
        47.0004         36.0004
  -1152806.35548   -878162.76647  22962594.9474   22962598.6764   22962595.015
        49.0004         45.0004
  -4029704.98947  -3111192.57946  24591430.9114   24591434.2744   24591431.916
        43.0004         38.0004
  -7655464.44047  -5924989.17847  22772370.3554   22772372.3984   22772371.224
        47.0004         42.0004
 15  1  1  0  3 23.0000000  0 10G29G05G15G13G02G24G28G26G12G21
   4781260.34347   3734625.65346  24498097.7024   24498104.7834   24498097.376
        44.0004         40.0004
 -12859698.92248 -10017307.37648  21599429.7004   21599432.1754   21599429.454
        53.0004         48.0004
 -19244497.70148 -14961916.11548  21737285.7854   21737288.1304   21737285.590
        53.0004         49.0004
   -196482.86947   -133900.00447  23186255.1934   23186256.2244   23186254.297
        47.0004         43.0004
   -206306.81647   -152332.65546  24184171.5494   24184175.4734   24184172.438
        45.0004         40.0004
 -20905219.75849 -16271504.39648  20974799.3244   20974804.5634   20974798.651
        55.0004         50.0004
   -692783.61047   -546099.96546  24548218.0894   24548219.8764   24548217.489
        47.0004         36.0004
  -1151334.01748   -877015.49047  22962874.9224   22962878.0164   22962875.292
        49.0004         45.0004
  -4032212.70047  -3113146.63846  24590953.6974   24590957.2204   24590954.816
        43.0004         38.0004
  -7657382.01647  -5926483.39547  22772005.4134   22772008.1904   22772006.401
        47.0004         42.0004
 15  1  1  0  3 24.0000000  0 10G29G05G15G13G02G24G28G26G12G21
   4782830.73747   3735849.33846  24498397.1764   24498404.3494   24498396.217
        44.0004         40.0004
 -12858832.68248 -10016632.38548  21599594.6324   21599597.3274   21599594.232
        53.0004         48.0004
 -19244522.44648 -14961935.39848  21737280.6704   21737283.9144   21737280.895
        53.0004         49.0004
   -194522.94047   -132372.78647  23186627.9454   23186632.4964   23186627.394
        47.0004         42.0004
   -202938.00347   -149707.60846  24184812.8084   24184816.1324   24184813.543
        45.0004         40.0004
 -20907017.86349 -16272905.51648  20974457.0774   20974462.1444   20974456.429
        55.0004         50.0004
   -692438.90447   -545831.36246  24548282.1464   24548284.5674   24548283.137
        46.0004         36.0004
  -1149861.64048   -875868.18247  22963155.7134   22963157.7614   22963155.528
        49.0004         45.0004
  -4034720.55847  -3115100.81246  24590476.5774   24590480.6484   24590477.830
        43.0004         38.0004
  -7659298.91747  -5927977.07847  22771640.4114   22771643.3144   22771641.616
        47.0004         42.0004
 15  1  1  0  3 25.0000000  0 10G29G05G15G13G02G24G28G26G12G21
   4784401.01147   3737072.93046  24498696.1064   24498703.2474   24498695.134
        44.0004         40.0004
 -12857966.14248 -10015957.15948  21599759.0814   21599761.7374   21599759.149
        53.0004         48.0004
 -19244547.23448 -14961954.71648  21737276.4054   21737278.7864   21737276.214
        53.0004         49.0004
   -192563.20847   -130845.72047  23186999.2974   23187004.1004   23187000.326
        47.0004         42.0004
   -199569.28647   -147082.63646  24185454.0584   24185457.2404   24185454.760
        45.0004         40.0004
 -20908815.53649 -16274306.30148  20974115.1254   20974120.1754   20974114.301
        55.0004         50.0004
   -692093.74147   -545562.40346  24548347.4494   24548351.2454   24548348.889
        46.0004         36.0004
  -1148389.45048   -874721.02147  22963436.3854   22963438.8524   22963435.787
        49.0004         45.0004
  -4037228.67947  -3117055.18846  24589999.9214   24590003.5134   24590000.661
        43.0004         39.0004
  -7661215.37147  -5929470.41947  22771276.7704   22771278.9434   22771276.838
        47.0004         42.0004
 15  1  1  0  3 26.0000000  0 10G29G05G15G13G02G24G28G26G12G21
   4785970.84447   3738296.17846  24498994.8964   24499001.3734   24498993.960
        44.0004         40.0004
 -12857099.64548 -10015281.96748  21599924.2144   21599926.6014   21599923.927
        53.0004         48.0004
 -19244572.39048 -14961974.31648  21737271.6404   21737274.4014   21737271.337
        53.0004         49.0004
   -190603.96647   -129319.04147  23187373.7534   23187375.6104   23187373.161
        47.0004         42.0004
   -196201.01147   -144458.00946  24186094.8024   24186097.8714   24186095.700
        45.0004         40.0004
 -20910613.11149 -16275707.00848  20973773.0074   20973778.2994   20973772.251
        55.0004         50.0004
   -691748.42347   -545293.32146  24548413.0644   24548416.6074   24548414.643
        46.0004         36.0004
  -1146917.77748   -873574.26247  22963716.2114   22963718.3184   22963715.829
        49.0004         45.0004
  -4039737.46647  -3119010.08746  24589521.8224   24589526.5564   24589523.209
        43.0004         38.0004
  -7663131.70547  -5930963.66847  22770911.5874   22770914.4634   22770912.218
        47.0004         42.0004
 15  1  1  0  3 27.0000000  0 10G29G05G15G13G02G24G28G26G12G21
   4787540.60347   3739519.36746  24499292.9384   24499300.0634   24499292.560
        44.0004         40.0004
 -12856232.82748 -10014606.52448  21600089.3164   21600091.9144   21600088.829
        53.0004         48.0004
 -19244597.53348 -14961993.90648  21737267.1114   21737269.4904   21737266.532
        53.0004         49.0004
   -188644.89047   -127792.48247  23187747.5394   23187749.4174   23187746.055
        47.0004         43.0004
   -192832.81047   -141833.43946  24186735.9914   24186738.5434   24186736.674
        45.0004         40.0004
 -20912410.24049 -16277107.36848  20973430.9194   20973436.2104   20973430.201
        55.0004         50.0004
   -691402.62647   -545023.87346  24548478.9864   24548482.4224   24548480.306
        46.0004         36.0004
  -1145446.26948   -872427.63247  22963996.1994   22963999.0794   22963995.909
        49.0004         45.0004
  -4042246.51247  -3120965.18846  24589043.6644   24589048.8154   24589045.592
        43.0004         39.0004
  -7665047.54647  -5932456.53447  22770547.2124   22770549.7224   22770547.618
        47.0004         42.0004
 15  1  1  0  3 28.0000000  0 10G29G05G15G13G02G24G28G26G12G21
   4789109.68247   3740742.02646  24499591.5644   24499598.7634   24499591.167
        44.0004         40.0004
 -12855366.27148 -10013931.28548  21600254.2344   21600256.7404   21600253.606
        53.0004         48.0004
 -19244623.24948 -14962013.94348  21737261.5984   21737264.4614   21737261.616
        53.0004         49.0004
   -186686.54247   -126266.50347  23188119.8714   23188121.1404   23188118.809
        47.0004         42.0004
   -189465.25647   -139209.37546  24187376.5824   24187379.2324   24187377.501
        45.0004         40.0004
 -20914207.49249 -16278507.82248  20973088.8624   20973094.2254   20973088.186
        55.0004         50.0004
   -691056.88447   -544754.46546  24548544.8304   24548547.1954   24548546.119
        46.0004         36.0004
  -1143975.51148   -871281.58447  22964275.4804   22964278.7614   22964275.748
        49.0004         45.0004
  -4044756.44147  -3122920.97946  24588566.0474   24588571.3414   24588567.964
        43.0004         39.0004
  -7666963.50247  -5933949.48647  22770181.9034   22770185.5794   22770183.137
        47.0004         42.0004
 15  1  1  0  3 29.0000000  0 10G29G05G15G13G02G24G28G26G12G21
   4790678.74547   3741964.67246  24499890.6544   24499896.6894   24499889.716
        44.0004         40.0004
 -12854499.32648 -10013255.74548  21600418.9634   21600421.7544   21600418.514
        53.0004         48.0004
 -19244648.91548 -14962033.94248  21737257.2764   21737259.5234   21737256.740
        53.0004         49.0004
   -184728.28947   -124740.59747  23188491.0524   23188494.7574   23188491.439
        47.0004         42.0004
   -186097.71947   -136585.32346  24188017.9414   24188020.9904   24188018.242
        45.0004         40.0004
 -20916004.23049 -16279907.87848  20972747.0844   20972752.2624   20972746.296
        55.0004         50.0004
   -690710.62047   -544484.64946  24548610.7144   24548613.4494   24548612.340
        46.0004         36.0004
  -1142504.85548   -870135.62347  22964555.3384   22964558.2794   22964555.619
        49.0004         45.0004
  -4047266.58047  -3124876.93246  24588087.8234   24588093.3114   24588090.338
        43.0004         39.0004
  -7668878.91547  -5935442.01147  22769817.5504   22769820.6024   22769818.549
        47.0004         42.0004
 15  1  1  0  3 30.0000000  0 10G29G05G15G13G02G24G28G26G12G21
   4792248.21447   3743187.63446  24500189.1584   24500195.6554   24500188.399
        44.0004         40.0004
 -12853631.56148 -10012579.56448  21600584.3324   21600586.6994   21600583.617
        53.0004         48.0004
 -19244674.06648 -14962053.53748  21737252.2194   21737255.2624   21737251.841
        53.0004         49.0004
   -182769.70647   -123214.43047  23188865.9294   23188867.3354   23188864.088
        47.0004         42.0004
   -182729.76047   -133960.94346  24188658.6684   24188661.8134   24188659.133
        45.0004         40.0004
 -20917800.01549 -16281307.19048  20972405.3434   20972410.6504   20972404.549
        55.0004         50.0004
   -690363.32847   -544214.02846  24548676.7974   24548680.4664   24548678.668
        45.0004         36.0004
  -1141033.83448   -868989.37347  22964834.9284   22964839.2634   22964835.502
        49.0004         45.0004
  -4049776.50547  -3126832.71746  24587610.6764   24587616.2434   24587612.425
        43.0004         39.0004
  -7670793.34847  -5936933.77447  22769453.5684   22769456.0554   22769454.284
        47.0004         42.0004
 15  1  1  0  3 31.0000000  0 10G29G05G15G13G02G24G28G26G12G21
   4793818.37247   3744411.13746  24500487.4634   24500494.6404   24500487.259
        44.0004         40.0004
 -12852762.71948 -10011902.54248  21600749.6094   21600751.9794   21600748.926
        53.0004         48.0004
 -19244698.47948 -14962072.56048  21737247.5744   21737250.2774   21737247.072
        53.0004         49.0004
   -180810.52447   -121687.78947  23189237.3794   23189240.8434   23189237.057
        47.0004         43.0004
   -179361.12347   -131336.03146  24189300.3684   24189302.9634   24189300.267
        45.0004         40.0004
 -20919594.58349 -16282705.55348  20972063.6514   20972069.2434   20972063.020
        55.0004         50.0004
   -690014.80147   -543942.44846  24548743.6504   24548745.1814   24548744.738
        45.0004         36.0004
  -1139562.23248   -867842.66847  22965115.9214   22965119.0654   22965115.514
        49.0004         45.0004
  -4052285.96447  -3128788.13746  24587132.8664   24587137.9904   24587134.641
        43.0004         39.0004
  -7672706.54947  -5938424.58047  22769089.1714   22769093.1144   22769090.204
        47.0004         42.0004
 15  1  1  0  3 32.0000000  0 10G29G05G15G13G02G24G28G26G12G21
   4795388.85647   3745634.89046  24500786.3674   24500792.6744   24500786.151
        44.0004         40.0004
 -12851893.10948 -10011224.92548  21600914.9874   21600917.5514   21600914.320
        53.0004         48.0004
 -19244722.44148 -14962091.23148  21737242.8614   21737245.7484   21737242.393
        53.0004         49.0004
   -178851.06047   -120160.93547  23189609.8394   23189614.0364   23189610.118
        47.0004         42.0004
   -175992.10947   -128710.82746  24189940.9894   24189944.8934   24189941.579
        45.0004         40.0004
 -20921388.24749 -16284103.21348  20971722.5134   20971727.8574   20971721.588
        55.0004         50.0004
   -689665.33947   -543670.14046  24548811.3314   24548810.7834   24548811.221
        45.0004         36.0004
  -1138090.33448   -866695.73747  22965395.8374   22965398.8244   22965395.649
        49.0004         45.0004
  -4054795.28247  -3130743.44846  24586656.3734   24586659.9254   24586656.891
        43.0004         39.0004
  -7674618.82447  -5939914.66447  22768725.5204   22768728.5144   22768726.228
        47.0004         42.0004
 15  1  1  0  3 33.0000000  0 10G29G05G15G13G02G24G28G26G12G21
   4796958.72947   3746858.16646  24501085.1274   24501090.7434   24501084.870
        44.0004         40.0004
 -12851023.69748 -10010547.46348  21601080.4704   21601082.7974   21601079.696
        53.0004         48.0004
 -19244746.91148 -14962110.30248  21737238.6884   21737241.0074   21737237.758
        53.0004         49.0004
   -176892.25047   -118634.59347  23189982.6364   23189985.7254   23189982.883
        47.0004         42.0004
   -172623.68547   -126086.08546  24190581.5104   24190585.4584   24190582.602
        45.0004         40.0004
 -20923181.97949 -16285500.92848  20971381.2514   20971386.3694   20971380.262
        55.0004         50.0004
   -689315.87347   -543397.82546  24548878.4534   24548877.3584   24548877.569
        45.0004         36.0004
  -1136619.11748   -865549.33647  22965676.1244   22965679.4034   22965675.610
        49.0004         45.0004
  -4057305.40147  -3132699.38446  24586179.4444   24586182.7524   24586179.303
        43.0004         39.0004
  -7676531.13347  -5941404.78047  22768361.8574   22768365.3184   22768362.243
        47.0004         42.0004
 15  1  1  0  3 34.0000000  0 10G29G05G15G13G02G24G28G26G12G21
   4798527.72647   3748080.76146  24501383.9514   24501389.8014   24501383.504
        44.0004         40.0004
 -12850154.77248 -10009870.37948  21601245.4964   21601248.1854   21601245.014
        53.0004         48.0004
 -19244772.19548 -14962129.99948  21737233.2604   21737236.0034   21737232.877
        53.0004         49.0004
   -174934.44747   -117109.02747  23190355.8004   23190359.6274   23190355.505
        47.0004         42.0004
   -169256.16247   -123462.04446  24191222.5344   24191226.3194   24191223.678
        45.0004         40.0004
 -20924976.06549 -16286898.91448  20971039.4334   20971044.9414   20971038.890
        55.0004         50.0004
   -688966.73347   -543125.76746  24548944.8884   24548944.3344   24548944.260
        45.0004         36.0004
  -1135148.87648   -864403.69147  22965955.8494   22965958.8564   22965955.295
        49.0004         45.0004
  -4059816.63847  -3134656.19346  24585701.5644   24585705.6684   24585701.489
        43.0004         39.0004
  -7678443.79347  -5942895.16347  22767997.8874   22767999.8774   22767998.332
        47.0004         42.0004
 15  1  1  0  3 35.0000000  0 10G29G05G15G13G02G24G28G26G12G21
   4800096.88547   3749303.48346  24501682.7414   24501688.7794   24501682.087
        44.0004         40.0004
 -12849285.27748 -10009192.85048  21601411.3254   21601414.0074   21601410.396
        53.0004         48.0004
 -19244797.24048 -14962149.51348  21737228.6104   21737231.3334   21737228.051
        53.0004         49.0004
   -172976.55647   -115583.39647  23190728.5614   23190730.1994   23190728.161
        47.0004         42.0004
   -165888.45847   -120837.86146  24191862.3074   24191866.8514   24191864.607
        45.0004         40.0004
 -20926769.45249 -16288296.35748  20970698.3904   20970704.0394   20970697.618
        55.0004         50.0004
   -688616.87147   -542853.14646  24549011.1234   24549010.6164   24549010.824
        45.0004         36.0004
  -1133678.55248   -863257.98747  22966235.4274   22966238.1044   22966235.002
        49.0004         45.0004
  -4062327.90147  -3136613.01946  24585223.9414   24585228.0694   24585223.751
        43.0004         39.0004
  -7680355.71547  -5944384.97547  22767634.8094   22767636.1654   22767634.634
        47.0004         42.0004
 15  1  1  0  3 36.0000000  0 10G29G05G15G13G02G24G28G26G12G21
   4801665.95047   3750526.13446  24501981.2924   24501987.3714   24501980.502
        44.0004         40.0004
 -12848415.47648 -10008515.08148  21601576.5654   21601579.6464   21601575.913
        53.0004         48.0004
 -19244822.28748 -14962169.02948  21737223.7184   21737226.5994   21737223.234
        53.0004         49.0004
   -171018.82247   -114057.90347  23191100.8034   23191103.2724   23191100.869
        47.0004         42.0004
   -162520.84547   -118213.74846  24192503.1374   24192507.2884   24192505.204
        45.0004         40.0004
 -20928562.40149 -16289693.45948  20970357.2084   20970362.4714   20970356.453
        55.0004         50.0004
   -688266.50947   -542580.13246  24549078.8134   24549077.2644   24549077.514
        45.0004         36.0004
  -1132208.39848   -862112.40647  22966515.4184   22966518.7184   22966514.684
        49.0004         45.0004
  -4064839.45747  -3138570.07546  24584745.8274   24584750.1484   24584745.783
        43.0004         39.0004
  -7682267.17347  -5945874.42347  22767269.3114   22767273.2544   22767270.724
        47.0004         42.0004
 15  1  1  0  3 37.0000000  0 10G29G05G15G13G02G24G28G26G12G21
   4803235.44347   3751749.11746  24502279.6764   24502285.8624   24502279.201
        44.0004         40.0004
 -12847544.81248 -10007836.64048  21601742.5334   21601744.9984   21601741.494
        53.0004         48.0004
 -19244846.81848 -14962188.14148  21737219.5074   21737222.0624   21737218.578
        53.0004         49.0004
   -169060.70847   -112532.08947  23191473.0354   23191475.6854   23191473.567
        47.0004         42.0004
   -159152.79547   -115589.29446  24193144.4004   24193148.1924   24193146.172
        45.0004         40.0004
 -20930354.35149 -16291089.78348  20970015.9474   20970021.6284   20970015.418
        55.0004         50.0004
   -687915.12047   -542306.32046  24549145.8314   24549144.4394   24549144.594
        44.0004         36.0004
  -1130737.86148   -860966.53147  22966793.9414   22966797.3044   22966794.486
        49.0004         45.0004
  -4067350.76947  -3140526.93946  24584267.5354   24584271.9514   24584267.780
        43.0004         39.0004
  -7684177.61347  -5947363.07147  22766905.6834   22766909.2194   22766907.148
        47.0004         42.0004
 15  1  1  0  3 38.0000000  0 10G29G05G15G13G02G24G28G26G12G21
   4804805.15647   3752972.27046  24502579.1634   24502584.6644   24502577.995
        44.0004         40.0004
 -12846673.53048 -10007157.72048  21601908.0714   21601910.8724   21601907.297
        53.0004         48.0004
 -19244871.03748 -14962207.01348  21737214.4474   21737217.3814   21737213.942
        53.0004         49.0004
   -167102.44847   -111006.16947  23191846.9174   23191850.2474   23191846.233
        47.0004         42.0004
   -155784.50647   -112964.65646  24193785.1834   24193788.6464   24193786.857
        45.0004         40.0004
 -20932145.56249 -16292485.53348  20969675.5314   20969680.7464   20969674.596
        55.0004         50.0004
   -687562.93747   -542031.89146  24549210.9954   24549212.2564   24549211.016
        44.0004         36.0004
  -1129267.19448   -859820.55447  22967073.7934   22967077.6154   22967074.220
        49.0004         44.0004
  -4069862.08447  -3142483.80746  24583789.1814   24583794.2534   24583789.625
        43.0004         39.0004
  -7686087.27747  -5948851.12347  22766543.4524   22766546.2794   22766543.604
        47.0004         42.0004
 15  1  1  0  3 39.0000000  0 10G29G05G15G13G02G24G28G26G12G21
   4806375.70547   3754196.07746  24502877.3754   24502883.4384   24502876.767
        44.0004         39.0004
 -12845801.01448 -10006477.83848  21602074.0954   21602076.9834   21602073.392
        53.0004         48.0004
 -19244894.34048 -14962225.17148  21737210.2664   21737213.1494   21737209.425
        53.0004         49.0004
   -165143.44047   -109479.67947  23192218.7434   23192220.5534   23192219.002
        47.0004         42.0004
   -152415.37847   -110339.36246  24194426.7984   24194429.8074   24194428.049
        45.0004         40.0004
 -20933935.40449 -16293880.21648  20969334.6204   20969340.0764   20969333.961
        55.0004         50.0004
   -687209.32647   -541756.34445  24549278.7814   24549278.9674   24549278.245
        44.0004         35.0004
  -1127795.77948   -858673.99947  22967354.5594   22967358.0494   22967354.194
        49.0004         45.0004
  -4072372.75447  -3144440.16946  24583311.6604   24583316.6534   24583311.917
        43.0004         39.0004
  -7687995.53547  -5950338.07447  22766179.9434   22766182.8704   22766180.474
        47.0004         42.0004
 15  1  1  0  3 40.0000000  0 10G29G05G15G13G02G24G28G26G12G21
   4807946.56947   3755420.12846  24503176.2344   24503182.6964   24503175.735
        44.0004         39.0004
 -12844927.75348 -10005797.37848  21602240.3024   21602242.9944   21602239.560
        53.0004         48.0004
 -19244917.24748 -14962243.02148  21737205.8924   21737208.5914   21737205.129
        53.0004         49.0004
   -163184.16247   -107952.97247  23192592.2404   23192595.3274   23192591.900
        47.0004         42.0004
   -149045.90847   -107713.80246  24195068.7534   24195071.2464   24195069.353
        45.0004         40.0004
 -20935724.37449 -16295274.21848  20968994.1384   20968999.9624   20968993.520
        55.0004         50.0004
   -686854.83747   -541480.11545  24549346.4814   24549346.7644   24549345.571
        44.0004         35.0004
  -1126324.10948   -857527.24747  22967634.2714   22967637.3084   22967634.215
        49.0004         45.0004
  -4074883.28447  -3146396.42246  24582833.4814   24582838.5934   24582834.157
        43.0004         39.0004
  -7689902.91447  -5951824.34347  22765817.4004   22765819.8164   22765817.504
        47.0004         42.0004
 15  1  1  0  3 41.0000000  0 10G29G05G15G13G02G24G28G26G12G21
   4809516.80047   3756643.68346  24503474.9574   24503482.0234   24503474.658
        44.0004         39.0004
 -12844054.70248 -10005117.07948  21602406.1804   21602409.2594   21602405.661
        53.0004         48.0004
 -19244940.66348 -14962261.26648  21737201.3984   21737204.2574   21737200.754
        53.0004         49.0004
   -161225.56647   -106426.79747  23192964.9014   23192967.5404   23192964.682
        47.0004         42.0004
   -145677.06647   -105088.73446  24195709.5724   24195712.3484   24195710.506
        45.0004         40.0004
 -20937513.41549 -16296668.27448  20968653.7024   20968659.1834   20968653.065
        55.0004         50.0004
   -686500.37747   -541203.91045  24549413.8514   24549414.2374   24549413.002
        44.0004         35.0004
  -1124853.11848   -856381.02447  22967914.3424   22967917.9004   22967914.164
        49.0004         45.0004
  -4077394.61347  -3148353.30046  24582355.9104   24582360.6634   24582356.232
        43.0004         39.0004
  -7691810.34147  -5953310.65947  22765453.4864   22765457.2834   22765454.564
        47.0004         42.0004
 15  1  1  0  3 42.0000000  0 10G29G05G15G13G02G24G28G26G12G21
   4811087.04047   3757867.24746  24503773.3814   24503780.8004   24503773.627
        44.0004         39.0004
 -12843181.22548 -10004436.44748  21602572.7464   21602575.5144   21602571.941
        53.0004         48.0004
 -19244963.96948 -14962279.42548  21737196.9014   21737199.6484   21737196.353
        53.0004         49.0004
   -159267.04447   -104900.66847  23193337.0604   23193339.7904   23193337.442
        47.0004         42.0004
   -142308.16547   -102463.61946  24196350.3524   24196353.1954   24196351.445
        45.0004         40.0004
 -20939301.90849 -16298061.90348  20968313.7134   20968319.0624   20968312.724
        55.0004         50.0004
   -686145.31847   -540927.24145  24549480.7904   24549481.0164   24549480.398
        44.0004         35.0004
  -1123382.18648   -855234.83947  22968194.4234   22968197.0354   22968194.021
        49.0004         45.0004
  -4079906.14547  -3150310.33546  24581878.6314   24581883.1604   24581878.303
        43.0004         39.0004
  -7693717.18947  -5954796.51147  22765090.9684   22765094.6264   22765091.611
        47.0004         42.0004
 15  1  1  0  3 43.0000000  0 10G29G05G15G13G02G24G28G26G12G21
   4812656.59447   3759090.27646  24504071.0914   24504079.5884   24504072.389
        44.0004         39.0004
 -12842308.03148 -10003756.03648  21602739.0744   21602741.3994   21602738.172
        53.0004         48.0004
 -19244987.87748 -14962298.05448  21737192.3524   21737195.2854   21737191.793
        53.0004         49.0004
   -157309.27047   -103375.13347  23193710.0424   23193711.9964   23193710.053
        47.0004         43.0004
   -138939.96447    -99839.05046  24196991.0764   24196994.8164   24196992.367
        45.0004         40.0004
 -20941090.55749 -16299455.65748  20967973.1484   20967978.6734   20967972.296
        55.0004         50.0004
   -685790.33747   -540650.63345  24549547.1504   24549549.8034   24549547.651
        44.0004         35.0004
  -1121912.01348   -854089.24847  22968473.8324   22968477.9564   22968473.671
        49.0004         45.0004
  -4082418.53947  -3152268.04246  24581400.0984   24581405.2834   24581400.094
        43.0004         39.0004
  -7695624.15047  -5956282.45147  22764728.8634   22764731.1094   22764728.744
        47.0004         42.0004
 15  1  1  0  3 44.0000000  0 10G29G05G15G13G02G24G28G26G12G21
   4814225.95247   3760313.15346  24504370.4934   24504377.9984   24504370.854
        44.0004         39.0004
 -12841434.64348 -10003075.47348  21602904.9454   21602908.0064   21602904.420
        53.0004         48.0004
 -19245011.92848 -14962316.79248  21737187.6584   21737190.7864   21737187.298
        53.0004         49.0004
   -155351.76447   -101849.80447  23194082.1054   23194085.2364   23194082.485
        47.0004         42.0004
   -135571.95447    -97214.62946  24197632.3044   24197635.5194   24197632.809
        45.0004         40.0004
 -20942878.85649 -16300849.13448  20967632.9634   20967638.4794   20967631.984
        55.0004         50.0004
   -685435.00447   -540373.74745  24549614.6624   24549617.2084   24549614.971
        44.0004         35.0004
  -1120442.12948   -852943.88347  22968753.4004   22968755.9034   22968753.340
        49.0004         45.0004
  -4084931.37147  -3154226.09246  24580921.4814   24580926.7834   24580921.631
        43.0004         39.0004
  -7697530.76547  -5957768.12447  22764366.1874   22764368.0724   22764365.946
        47.0004         42.0004
 15  1  1  0  3 45.0000000  0 10G29G05G15G13G02G24G28G26G12G21
   4815795.38547   3761536.08846  24504669.4774   24504676.4204   24504669.557
        44.0004         40.0004
 -12840560.77148 -10002394.53648  21603071.0684   21603074.0374   21603070.744
        53.0004         48.0004
 -19245035.79748 -14962335.39248  21737183.4344   21737185.9764   21737182.760
        53.0004         49.0004
   -153394.26147   -100324.48047  23194455.3534   23194456.0464   23194455.182
        47.0004         42.0004
   -132203.85247    -94590.13646  24198273.4394   24198276.8904   24198273.762
        45.0004         40.0004
 -20944666.53349 -16302242.12948  20967292.7454   20967298.2134   20967291.808
        55.0004         50.0004
   -685079.01447   -540096.35145  24549683.8714   24549684.6354   24549682.591
        43.0004         35.0004
  -1118972.24048   -851798.51647  22969033.8884   22969037.0844   22969033.123
        49.0004         44.0004
  -4087444.29147  -3156184.20846  24580443.5564   24580448.5584   24580443.174
        43.0004         39.0004
  -7699436.72047  -5959253.28447  22764003.3344   22764006.3704   22764003.178
        47.0004         42.0004
 15  1  1  0  3 46.0000000  0 10G29G05G15G13G02G24G28G26G12G21
   4817364.47047   3762758.75146  24504968.4764   24504975.1684   24504968.184
        44.0004         39.0004
 -12839686.82148 -10001713.53648  21603237.7394   21603240.2074   21603237.109
        53.0004         48.0004
 -19245059.91348 -14962354.18248  21737178.8224   21737181.4294   21737178.166
        53.0004         49.0004
   -151437.15147    -98799.45747  23194826.5184   23194830.1304   23194827.658
        47.0004         42.0004
   -128836.09647    -91965.91246  24198914.8654   24198917.4724   24198914.812
        45.0004         40.0004
 -20946454.00749 -16303634.96548  20966952.7054   20966958.3054   20966951.670
        55.0004         50.0004
   -684722.78047   -539818.76545  24549752.6344   24549753.5304   24549750.623
        43.0004         35.0004
  -1117502.75348   -850653.46047  22969312.5454   22969316.2394   22969312.666
        49.0004         44.0004
  -4089957.75947  -3158142.75346  24579965.5284   24579970.3234   24579964.954
        43.0004         39.0004
  -7701342.46147  -5960738.28447  22763639.3514   22763642.8904   22763640.484
        47.0004         42.0004
 15  1  1  0  3 47.0000000  0 10G29G05G15G13G02G24G28G26G12G21
   4818934.06247   3763981.81046  24505267.0444   24505273.9394   24505266.881
        44.0004         39.0004
 -12838811.98148 -10001031.84248  21603404.2504   21603407.0164   21603403.610
        53.0004         48.0004
 -19245083.47548 -14962372.54348  21737173.8964   21737177.0514   21737173.654
        53.0004         49.0004
   -149479.62847    -97274.11847  23195199.6234   23195202.8094   23195200.097
        47.0004         42.0004
   -125467.82247    -89341.28346  24199555.6534   24199558.7394   24199555.780
        44.0004         40.0004
 -20948240.46349 -16305027.00848  20966612.8224   20966617.9774   20966611.710
        55.0004         50.0004
   -684365.47047   -539540.33645  24549820.6284   24549822.8834   24549818.658
        43.0004         35.0004
  -1116032.86048   -849508.08647  22969593.3234   22969596.3514   22969592.289
        49.0004         45.0004
  -4092470.92847  -3160101.06246  24579487.5714   24579492.3154   24579486.544
        43.0004         39.0004
  -7703247.15147  -5962222.45647  22763277.1764   22763279.0584   22763277.966
        47.0004         42.0004
 15  1  1  0  3 48.0000000  0 10G29G05G15G13G02G24G28G26G12G21
   4820503.74447   3765204.94046  24505565.5854   24505572.9014   24505565.526
        44.0004         40.0004
 -12837936.61548 -10000349.73748  21603570.4944   21603573.5204   21603570.204
        53.0004         48.0004
 -19245106.81148 -14962390.72648  21737169.4864   21737172.6104   21737169.219
        53.0004         49.0004
   -147522.06847    -95748.74347  23195573.3264   23195575.0464   23195572.656
        47.0004         42.0004
   -122099.44647    -86716.57546  24200196.4214   24200199.6014   24200196.679
        44.0004         40.0004
 -20950026.25949 -16306418.53748  20966272.6834   20966278.2934   20966271.899
        55.0004         50.0004
   -684007.46147   -539261.36045  24549887.0784   24549890.2084   24549886.510
        43.0004         35.0004
  -1114562.92448   -848362.68347  22969871.9524   22969875.2944   22969872.015
        49.0004         45.0004
  -4094984.18847  -3162059.44546  24579009.0564   24579014.1304   24579008.369
        43.0004         39.0004
  -7705151.15547  -5963706.09847  22762915.8354   22762918.8644   22762915.536
        47.0004         42.0004
 15  1  1  0  3 49.0000000  0 10G29G05G15G13G02G24G28G26G12G21
   4822073.69647   3766428.27846  24505864.8334   24505871.8614   24505863.997
        44.0004         40.0004
 -12837060.58348  -9999667.11748  21603737.5304   21603740.2864   21603737.031
        53.0004         48.0004
 -19245129.83048 -14962408.66348  21737165.0124   21737168.2914   21737164.904
        53.0004         49.0004
   -145564.34047    -94223.24547  23195943.6554   23195946.8924   23195945.199
        47.0004         42.0004
   -118730.78647    -84091.64546  24200837.5234   24200840.2514   24200837.621
        44.0004         40.0004
 -20951811.26649 -16307809.45048  20965933.2064   20965938.6554   20965932.220
        55.0004         50.0004
   -683648.61947   -538981.74245  24549955.3404   24549957.8294   24549954.908
        43.0004         35.0004
  -1113092.80948   -847217.14047  22970151.8864   22970155.4684   22970151.757
        49.0004         45.0004
  -4097497.39247  -3164017.78446  24578530.7064   24578536.1414   24578529.790
        43.0004         39.0004
  -7707054.35047  -5965189.10447  22762552.5804   22762556.0894   22762553.470
        47.0004         42.0004
 15  1  1  0  3 50.0000000  0 10G29G05G15G13G02G24G28G26G12G21
   4823642.91347   3767651.04246  24506163.7714   24506170.3264   24506162.589
        44.0004         39.0004
 -12836184.86948  -9998984.74448  21603903.8144   21603906.7144   21603903.768
        53.0004         48.0004
 -19245153.47248 -14962427.08648  21737160.7784   21737163.5834   21737160.439
        53.0004         49.0004
   -143607.38847    -92698.34547  23196316.0964   23196319.8124   23196317.485
        47.0004         42.0004
   -115362.85247    -81467.28446  24201478.6974   24201481.4504   24201478.583
        44.0004         40.0004
 -20953596.45149 -16309200.50448  20965593.3914   20965598.7574   20965592.594
        55.0004         50.0004
   -683289.92547   -538702.23945  24550023.3524   24550024.8384   24550022.796
        43.0004         35.0004
  -1111623.48748   -846072.21447  22970431.1704   22970434.8274   22970431.358
        49.0004         44.0004
  -4100011.52247  -3165976.84446  24578052.3224   24578057.6964   24578051.365
        43.0004         39.0004
  -7708957.70947  -5966672.24147  22762191.4294   22762193.5774   22762191.293
        47.0004         42.0004
 15  1  1  0  3 51.0000000  0 10G29G05G15G13G02G24G28G26G12G21
   4825211.58647   3768873.38146  24506461.3364   24506468.0654   24506461.180
        44.0004         39.0004
 -12835309.28948  -9998302.47448  21604070.5324   21604073.3734   21604070.375
        53.0004         48.0004
 -19245177.57848 -14962445.86748  21737156.1744   21737158.8374   21737155.912
        53.0004         49.0004
   -141651.03947    -91173.91747  23196689.4274   23196692.2744   23196689.710
        47.0004         42.0004
   -111995.44447    -78843.33246  24202119.2704   24202121.9004   24202119.192
        44.0004         40.0004
 -20955381.63349 -16310591.55448  20965253.7894   20965259.0854   20965252.899
        55.0004         51.0004
   -682931.16947   -538422.68945  24550091.1954   24550093.5394   24550091.047
        43.0004         35.0004
  -1110154.78748   -844927.77047  22970712.3014   22970714.2434   22970710.917
        49.0004         45.0004
  -4102526.38947  -3167936.47646  24577574.0944   24577579.1434   24577572.993
        43.0004         39.0004
  -7710861.02047  -5968155.34247  22761828.8934   22761831.6214   22761829.019
        47.0004         42.0004
 15  1  1  0  3 52.0000000  0 10G29G05G15G13G02G24G28G26G12G21
   4826780.63747   3770096.02146  24506760.5834   24506766.6584   24506759.738
        44.0004         39.0004
 -12834432.92648  -9997619.59348  21604237.5094   21604240.0084   21604237.177
        53.0004         48.0004
 -19245201.22848 -14962464.29248  21737151.8804   21737154.5924   21737151.396
        53.0004         49.0004
   -139694.40947    -89649.27547  23197063.4844   23197065.8474   23197061.902
        47.0004         42.0004
   -108627.66747    -76219.09046  24202758.9654   24202762.8924   24202759.990
        44.0004         40.0004
 -20957165.90249 -16311981.89248  20964914.2644   20964919.6664   20964913.450
        55.0004         50.0004
   -682571.45747   -538142.38745  24550159.7484   24550160.5764   24550159.247
        43.0004         35.0004
  -1108685.79748   -843783.10447  22970991.4064   22970994.2694   22970990.473
        49.0004         45.0004
  -4105041.08247  -3169895.97346  24577095.5614   24577100.2064   24577094.659
        43.0004         39.0004
  -7712763.42047  -5969637.73647  22761465.9494   22761470.2344   22761466.984
        47.0004         42.0004
 15  1  1  0  3 53.0000000  0 10G29G05G15G13G02G24G28G26G12G21
   4828349.58747   3771318.58046  24507059.5554   24507065.3214   24507058.536
        44.0004         39.0004
 -12833556.24148  -9996936.46248  21604404.1394   21604407.1974   21604404.007
        53.0004         48.0004
 -19245224.86548 -14962482.71248  21737147.3344   21737150.1254   21737146.905
        53.0004         49.0004
   -137737.92647    -88124.73747  23197434.1884   23197437.1054   23197434.098
        47.0004         42.0004
   -105259.95847    -73594.90346  24203400.0894   24203403.2174   24203400.482
        44.0004         40.0004
 -20958949.71049 -16313371.87048  20964574.8664   20964580.0624   20964574.017
        55.0004         50.0004
   -682211.28647   -537861.73446  24550229.1764   24550230.8194   24550227.835
        43.0004         36.0004
  -1107216.96748   -842638.56047  22971271.1544   22971273.1094   22971270.036
        49.0004         45.0004
  -4107556.05947  -3171855.69246  24576616.7504   24576621.9174   24576616.082
        43.0004         39.0004
  -7714665.32547  -5971119.74047  22761104.5324   22761107.7094   22761105.028
        47.0004         42.0004
 15  1  1  0  3 54.0000000  0 10G29G05G15G13G02G24G28G26G12G21
   4829918.39647   3772541.02846  24507358.0334   24507364.2484   24507357.122
        44.0004         39.0004
 -12832679.29848  -9996253.13248  21604571.0194   21604573.6564   21604570.933
        53.0004         48.0004
 -19245248.58148 -14962501.19148  21737142.5814   21737145.7394   21737142.421
        53.0004         49.0004
   -135781.68047    -86600.38947  23197806.5854   23197808.4834   23197806.241
        47.0004         42.0004
   -101892.39347    -70970.82946  24204040.6874   24204044.7654   24204041.355
        44.0004         40.0004
 -20960733.12849 -16314761.54648  20964235.4014   20964240.7974   20964234.645
        55.0004         50.0004
   -681850.64447   -537580.71545  24550298.5324   24550300.0864   24550296.359
        42.0004         35.0004
  -1105748.36448   -841494.19347  22971549.8354   22971552.8524   22971549.560
        49.0004         44.0004
  -4110071.38447  -3173815.68446  24576138.3384   24576143.1604   24576137.461
        43.0004         39.0004
  -7716566.83347  -5972601.43147  22760743.5564   22760746.2534   22760743.270
        47.0004         42.0004
 15  1  1  0  3 55.0000000  0 10G29G05G15G13G02G24G28G26G12G21
   4831487.84747   3773763.97746  24507656.3244   24507662.6164   24507655.862
        44.0004         39.0004
 -12831801.28848  -9995568.96748  21604738.3234   21604740.7554   21604738.046
        53.0004         48.0004
 -19245271.54848 -14962519.08648  21737138.1454   21737141.2564   21737138.095
        53.0004         49.0004
   -133824.82147    -85075.57547  23198178.1064   23198182.5534   23198178.488
        47.0004         42.0004
    -98524.17447    -68346.24546  24204681.8694   24204686.1364   24204682.141
        44.0004         40.0004
 -20962515.35549 -16316150.29548  20963896.3124   20963901.5234   20963895.565
        55.0004         50.0004
   -681488.79847   -537298.75745  24550367.9944   24550367.5584   24550365.002
        42.0004         35.0004
  -1104279.16748   -840349.36147  22971829.3594   22971831.9534   22971829.204
        49.0004         45.0004
  -4112586.24247  -3175775.31046  24575659.6374   24575664.2544   24575658.773
        43.0004         39.0004
  -7718467.10347  -5974082.15847  22760380.3674   22760384.0894   22760381.740
        47.0004         42.0004
 15  1  1  0  3 56.0000000  0 10G29G05G15G13G02G24G28G26G12G21
   4833057.40047   3774987.00646  24507955.5324   24507961.1394   24507954.587
        44.0004         39.0004
 -12830922.76848  -9994884.40548  21604905.4564   21604908.2474   21604905.230
        53.0004         48.0004
 -19245294.33248 -14962536.83948  21737134.2494   21737137.0314   21737133.720
        53.0004         49.0004
   -131867.94347    -83550.72747  23198551.3204   23198553.4534   23198550.688
        47.0004         42.0004
    -95155.84447    -65721.57546  24205323.7664   24205327.2964   24205323.050
        44.0004         40.0004
 -20964296.93349 -16317538.53648  20963557.1584   20963562.5664   20963556.586
        55.0004         50.0004
   -681126.25347   -537016.25445  24550436.1834   24550436.6074   24550433.496
        42.0004         35.0004
  -1102809.95048   -839204.51547  22972108.8794   22972112.5594   22972108.828
        49.0004         45.0004
  -4115101.20147  -3177735.01546  24575181.3274   24575185.5384   24575180.295
        43.0004         39.0004
  -7720366.70147  -5975562.36447  22760019.7394   22760021.4434   22760020.173
        47.0004         42.0004
 15  1  1  0  3 57.0000000  0 10G29G05G15G13G02G24G28G26G12G21
   4834626.89247   3776209.98746  24508254.4304   24508259.4044   24508253.360
        44.0004         39.0004
 -12830043.90148  -9994199.57548  21605072.6394   21605075.4874   21605072.555
        53.0004         48.0004
 -19245317.09948 -14962554.58148  21737129.7054   21737132.3724   21737129.377
        53.0004         49.0004
   -129911.19547    -82025.98947  23198923.9824   23198927.0874   23198922.973
        47.0004         42.0004
    -91787.55947    -63096.93946  24205964.0944   24205967.8204   24205963.898
        44.0004         40.0004
 -20966078.02849 -16318926.40248  20963218.3694   20963223.7074   20963217.703
        55.0004         51.0004
   -680763.18647   -536733.34645  24550505.4244   24550506.7854   24550502.460
        42.0004         35.0004
  -1101340.86848   -838059.78747  22972388.8844   22972392.4454   22972388.359
        49.0004         45.0004
  -4117616.42347  -3179694.92646  24574702.5504   24574706.9624   24574701.860
        43.0004         39.0004
  -7722265.80847  -5977042.18747  22759658.7734   22759661.7514   22759658.821
        47.0004         42.0004
 15  1  1  0  3 58.0000000  0 10G29G05G15G13G02G24G28G26G12G21
   4836196.29347   3777432.89646  24508551.9794   24508557.9944   24508552.079
        44.0004         39.0004
 -12829164.72548  -9993514.50348  21605239.7984   21605242.5874   21605239.861
        53.0004         48.0004
 -19245339.86448 -14962572.31948  21737125.3614   21737127.9144   21737125.058
        53.0004         49.0004
   -127954.62647    -80501.38947  23199294.4944   23199297.3084   23199295.128
        47.0004         42.0004
    -88419.36547    -60472.37446  24206604.7154   24206608.9624   24206604.867
        44.0004         40.0004
 -20967858.67849 -16320313.92148  20962879.6394   20962884.7484   20962878.907
        55.0004         50.0004
   -680399.62647   -536450.05545  24550574.6814   24550576.7814   24550571.722
        42.0004         35.0004
  -1099871.95448   -836915.17647  22972667.2434   22972671.3304   22972667.945
        49.0004         45.0004
  -4120131.93147  -3181655.06046  24574223.8244   24574227.8884   24574223.265
        43.0004         39.0004
  -7724164.44047  -5978521.63947  22759297.7174   22759300.2164   22759297.551
        47.0004         42.0004
 15  1  1  0  3 59.0000000  0 10G29G05G15G13G02G24G28G26G12G21
   4837765.17847   3778655.40046  24508850.3934   24508857.3904   24508850.598
        44.0004         39.0004
 -12828285.64148  -9992829.50448  21605407.5944   21605410.1284   21605407.146
        53.0004         48.0004
 -19245363.05348 -14962590.38748  21737121.0244   21737123.6874   21737120.562
        53.0004         49.0004
   -125998.61147    -78977.22047  23199667.9944   23199670.5824   23199667.323
        47.0004         42.0004
    -85051.66547    -57848.19346  24207245.4584   24207249.5264   24207245.716
        44.0004         40.0004
 -20969639.30849 -16321701.42348  20962540.9044   20962545.9934   20962540.098
        55.0004         51.0004
   -680036.01847   -536166.72545  24550642.9954   24550645.9084   24550640.953
        42.0004         35.0004
  -1098403.61948   -835771.01547  22972948.1804   22972950.5144   22972947.381
        49.0004         45.0004
  -4122648.15447  -3183615.75246  24573745.1424   24573749.6454   24573744.432
        43.0004         39.0004
  -7726063.01947  -5980001.05247  22758935.3274   22758937.8474   22758936.229
        47.0004         42.0004
 15  1  1  0  4  0.0000000  0 10G29G05G15G13G02G24G28G26G12G21
   4839334.53047   3779878.26946  24509149.3844   24509157.0064   24509149.332
        44.0004         39.0004
 -12827405.68648  -9992143.82748  21605574.7144   21605577.9344   21605574.623
        53.0004         48.0004
 -19245385.68548 -14962608.02348  21737116.5674   21737119.1864   21737116.316
        53.0004         49.0004
   -124042.21647    -77452.76147  23200039.4694   23200041.2904   23200039.499
        47.0004         42.0004
    -81683.51047    -55223.65746  24207886.8334   24207890.1804   24207886.578
        44.0004         40.0004
 -20971418.93649 -16323088.14748  20962202.1244   20962207.2344   20962201.518
        55.0004         51.0004
   -679671.32847   -535882.55345  24550712.1334   24550715.6654   24550710.853
        42.0004         35.0004
  -1096934.90348   -834626.55747  22973226.9994   22973230.0164   22973226.953
        49.0004         45.0004
  -4125164.09447  -3185576.22346  24573266.3034   24573270.8344   24573265.703
        43.0004         39.0004
  -7727960.57147  -5981479.66547  22758574.2754   22758577.3604   22758575.136
        47.0004         42.0004
 15  1  1  0  4  1.0000000  0 10G29G05G15G13G02G24G28G26G12G21
   4840904.19847   3781101.38746  24509448.0414   24509455.8234   24509448.084
        44.0004         39.0004
 -12826525.01248  -9991457.59048  21605742.4854   21605744.8494   21605742.242
        53.0004         48.0004
 -19245407.94248 -14962625.36548  21737112.4654   21737114.6584   21737112.137
        53.0004         49.0004
   -122085.58147    -75928.11147  23200412.2874   23200415.9864   23200411.759
        47.0004         42.0004
    -78314.99647    -52598.84246  24208527.7844   24208531.4494   24208527.671
        44.0004         40.0004
 -20973197.69449 -16324474.19348  20961863.6074   20961868.8274   20961863.082
        55.0004         51.0004
   -679305.73847   -535597.67945  24550781.8764   24550786.8254   24550780.810
        42.0004         35.0004
  -1095465.94448   -833481.91947  22973506.8174   22973510.2044   22973506.434
        49.0004         45.0004
  -4127679.92547  -3187536.60846  24572787.5944   24572791.5794   24572786.931
        43.0004         39.0004
  -7729857.23047  -5982957.58347  22758213.6474   22758215.6564   22758214.212
        47.0004         42.0004
 15  1  1  0  4  2.0000000  0 10G29G05G15G13G02G24G28G26G12G21
   4842473.26147   3782324.03246  24509747.0284   24509753.3944   24509746.608
        44.0004         39.0004
 -12825644.50448  -9990771.47948  21605909.6104   21605912.6354   21605909.786
        53.0004         48.0004
 -19245430.68648 -14962643.08948  21737108.3434   21737110.6114   21737107.819
        53.0004         49.0004
   -120129.58347    -74403.95847  23200783.8454   23200787.6844   23200783.835
        47.0004         42.0004
    -74947.05047    -49974.47046  24209168.1894   24209172.1144   24209168.374
        44.0004         40.0004
 -20974976.50849 -16325860.27948  20961525.1324   20961530.1944   20961524.623
        55.0004         50.0004
   -678940.18547   -535312.83346  24550851.6684   24550855.6464   24550850.612
        42.0004         36.0004
  -1093997.63948   -832337.79247  22973786.5834   22973789.1514   22973785.957
        49.0004         45.0004
  -4130196.54047  -3189497.60346  24572308.1764   24572312.9404   24572308.044
        43.0004         39.0004
  -7731753.90847  -5984435.51847  22757853.4024   22757855.3484   22757853.316
        47.0004         42.0004
 15  1  1  0  4  3.0000000  0 10G29G05G15G13G02G24G28G26G12G21
   4844042.00447   3783546.42746  24510045.7754   24510051.3754   24510045.233
        44.0004         39.0004
 -12824763.92648  -9990085.31748  21606077.3974   21606079.9934   21606077.419
        53.0004         48.0004
 -19245453.67348 -14962661.00248  21737103.6454   21737106.3414   21737103.376
        53.0004         49.0004
   -118173.99347    -72880.12147  23201156.3264   23201158.9314   23201155.931
        47.0004         42.0004
    -71579.43847    -47350.36046  24209809.1084   24209813.4134   24209809.357
        44.0004         40.0004
 -20976755.11449 -16327246.20548  20961186.6384   20961191.8484   20961186.162
        55.0004         50.0004
   -678574.35647   -535027.77146  24550920.8244   24550924.3924   24550920.245
        42.0004         36.0004
  -1092529.74748   -831193.97947  22974065.1384   22974069.1564   22974065.394
        49.0004         45.0004
  -4132713.67547  -3191459.00746  24571828.4994   24571833.5264   24571828.909
        43.0004         39.0004
  -7733650.34947  -5985913.26247  22757491.6784   22757494.8114   22757492.361
        47.0004         42.0004
 15  1  1  0  4  4.0000000  0 10G29G05G15G13G02G24G28G26G12G21
   4845610.74147   3784768.82046  24510344.6944   24510349.0644   24510343.786
        44.0004         39.0004
 -12823882.93548  -9989398.82848  21606245.1634   21606247.6894   21606245.067
        53.0004         48.0004
 -19245476.56548 -14962678.83848  21737099.2744   21737102.0954   21737099.008
        53.0004         49.0004
   -116218.47247    -71356.34047  23201528.4474   23201531.1244   23201528.096
        47.0004         42.0004
    -68211.79647    -44726.22446  24210450.2594   24210454.0424   24210450.193
        44.0004         40.0004
 -20978533.18249 -16328631.71248  20960848.4424   20960853.6234   20960847.788
        55.0004         50.0004
   -678207.94647   -534742.26046  24550989.6604   24550993.7874   24550990.086
        42.0004         36.0004
  -1091061.93048   -830050.22047  22974344.5354   22974348.2734   22974344.698
        49.0004         45.0004
  -4135231.00947  -3193420.56546  24571349.9184   24571355.3104   24571349.974
        43.0004         39.0004
  -7735546.22547  -5987390.56747  22757131.5454   22757134.5734   22757131.550
        47.0004         42.0004
 15  1  1  0  4  5.0000000  0 10G29G05G15G13G02G24G28G26G12G21
   4847179.38147   3785991.13646  24510643.3104   24510647.6824   24510642.550
        44.0004         39.0004
 -12823001.63348  -9988712.10048  21606412.8144   21606415.4224   21606412.690
        53.0004         48.0004
 -19245499.47348 -14962696.68648  21737095.5264   21737097.7874   21737094.702
        53.0004         49.0004
   -114263.13247    -69832.69947  23201900.3614   23201905.6274   23201900.109
        47.0004         42.0004
    -64844.29247    -42102.19646  24211091.1474   24211094.8814   24211091.072
        44.0004         40.0004
 -20980310.80149 -16330016.86748  20960509.8124   20960515.1894   20960509.514
        55.0004         50.0004
   -677841.04247   -534456.35946  24551060.6984   24551064.0534   24551060.095
        42.0004         36.0004
  -1089594.26748   -828906.58447  22974623.3914   22974627.3274   22974624.016
        49.0004         45.0004
  -4137748.65747  -3195382.36746  24570870.8154   24570876.0424   24570870.908
        43.0004         39.0004
  -7737441.63247  -5988867.50947  22756770.4774   22756773.3774   22756770.898
        47.0004         42.0004
 15  1  1  0  4  6.0000000  0 10G29G05G15G13G02G24G28G26G12G21
   4848747.76847   3787213.25446  24510941.4954   24510946.1934   24510940.898
        44.0004         39.0004
 -12822120.17148  -9988025.25048  21606580.4144   21606583.1554   21606580.387
        53.0004         48.0004
 -19245522.54448 -14962714.66348  21737090.8484   21737093.2754   21737090.319
        53.0004         49.0004
   -112308.09647    -68309.29347  23202274.1074   23202274.4584   23202272.187
        47.0004         42.0004
    -61476.98847    -39478.32246  24211731.6904   24211735.2444   24211731.784
        44.0004         40.0004
 -20982088.10649 -16331401.78048  20960171.9344   20960177.1354   20960171.318
        55.0004         50.0004
   -677473.80647   -534170.20246  24551131.3564   24551133.3994   24551129.977
        42.0004         36.0004
  -1088126.92948   -827763.20647  22974903.0574   22974907.4934   22974903.249
        49.0004         45.0004
  -4140266.72247  -3197344.49546  24570391.6384   24570397.1364   24570391.822
        43.0004         39.0004
  -7739336.71847  -5990344.19847  22756410.0064   22756412.5094   22756410.356
        47.0004         42.0004
 15  1  1  0  4  7.0000000  0 10G29G05G15G13G02G24G28G26G12G21
   4850315.89547   3788435.17046  24511239.3404   24511245.2504   24511239.256
        44.0004         39.0004
 -12821238.54448  -9987338.26948  21606748.3474   21606751.0174   21606748.195
        53.0004         48.0004
 -19245545.78048 -14962732.76848  21737086.3924   21737088.6914   21737085.954
        53.0004         49.0004
   -110353.37347    -66786.12847  23202645.6704   23202647.9464   23202644.103
        47.0004         42.0004
    -58109.95047    -36854.65846  24212372.9494   24212376.2754   24212372.621
        44.0004         40.0004
 -20983865.11349 -16332786.46048  20959833.6444   20959839.1074   20959833.164
        55.0004         50.0004
   -677106.26846   -533883.80946  24551200.8664   24551202.6684   24551199.823
        41.0004         36.0004
  -1086659.91748   -826620.07447  22975183.1034   22975185.9174   22975182.465
        49.0004         45.0004
  -4142785.24547  -3199306.98146  24569911.6484   24569917.9194   24569912.440
        44.0004         39.0004
  -7741231.49447  -5991820.64347  22756049.1714   22756051.4724   22756049.860
        47.0004         42.0004
 15  1  1  0  4  8.0000000  0 10G29G05G15G13G02G24G28G26G12G21
   4851883.95947   3789657.03746  24511537.7464   24511543.3984   24511537.635
        44.0004         39.0004
 -12820356.57848  -9986651.02148  21606915.9454   21606918.6484   21606915.979
        53.0004         48.0004
 -19245568.99748 -14962750.85948  21737081.8794   21737084.4544   21737081.448
        53.0004         49.0004
   -108398.79047    -65263.07047  23203016.5064   23203020.0844   23203016.026
        47.0004         42.0004
    -54742.96747    -34231.03546  24213013.7934   24213017.5904   24213013.556
        44.0004         40.0004
 -20985641.65549 -16334170.77648  20959495.5524   20959500.6194   20959495.107
        55.0004         50.0004
   -676738.16546   -533596.97446  24551271.0494   24551271.4984   24551269.738
        41.0004         36.0004
  -1085193.05348   -825477.06547  22975461.7914   22975464.5674   22975461.635
        49.0004         45.0004
  -4145304.02347  -3201269.66146  24569432.0884   24569438.8364   24569432.990
        44.0004         39.0004
  -7743125.77347  -5993296.70147  22755689.2534   22755691.5404   22755689.333
        47.0004         42.0004
 15  1  1  0  4  9.0000000  0 10G29G05G15G13G02G24G28G26G12G21
   4853452.82647   3790879.52846  24511836.5004   24511842.5764   24511836.232
        44.0004         39.0004
 -12819473.40048  -9985962.83448  21607084.4684   21607087.1044   21607084.060
        53.0004         48.0004
 -19245591.32548 -14962768.26248  21737077.9594   21737080.4154   21737077.247
        53.0004         49.0004
   -106443.49747    -63739.47447  23203389.6214   23203392.1404   23203388.279
        47.0004         42.0004
    -51375.17647    -31606.78446  24213654.0704   24213658.5004   24213654.728
        44.0004         40.0004
 -20987416.83949 -16335554.03848  20959157.9304   20959162.9894   20959157.261
        55.0004         50.0004
   -676368.69446   -533309.07446  24551342.6384   24551341.9084   24551340.257
        41.0004         36.0004
  -1083725.46548   -824333.50047  22975741.2754   22975745.0274   22975741.095
        49.0004         45.0004
  -4147822.19147  -3203231.86646  24568952.6914   24568959.6494   24568953.541
        44.0004         39.0004
  -7745018.66547  -5994771.67947  22755327.8264   22755332.6994   22755329.117
        47.0004         42.0004
 15  1  1  0  4 10.0000000  0 10G29G05G15G13G02G24G28G26G12G21
   4855021.29347   3792101.70746  24512134.6654   24512141.1174   24512134.717
        44.0004         39.0004
 -12818590.18448  -9985274.61548  21607252.2554   21607255.5354   21607252.085
        53.0004         48.0004
 -19245613.94848 -14962785.88948  21737073.4104   21737076.0524   21737072.886
        53.0004         49.0004
   -104488.62947    -62216.20047  23203759.9954   23203762.8524   23203760.222
        47.0004         42.0004
    -48007.77547    -28982.83946  24214294.9794   24214298.6264   24214295.575
        44.0004         40.0004
 -20989191.83949 -16336937.15348  20958819.9324   20958824.9524   20958819.486
        55.0004         50.0004
   -675999.03546   -533021.02945  24551412.7884   24551412.3234   24551410.645
        41.0004         35.0004
  -1082258.32148   -823190.26747  22976020.5024   22976023.0364   22976020.312
        49.0004         45.0004
  -4150340.96247  -3205194.54446  24568473.6344   24568480.6094   24568474.208
        44.0004         39.0004
  -7746911.38647  -5996246.52947  22754968.3664   22754971.1844   22754969.025
        47.0004         42.0004
 15  1  1  0  4 11.0000000  0 10G29G05G15G13G02G24G28G26G12G21
   4856589.88847   3793323.98746  24512432.8564   24512439.3354   24512433.154
        44.0004         39.0004
 -12817706.44948  -9984585.99048  21607420.4244   21607423.2884   21607420.162
        53.0004         48.0004
 -19245636.37148 -14962803.35848  21737069.2274   21737071.4944   21737068.620
        53.0004         49.0004
   -102533.72047    -60692.89247  23204133.1104   23204135.7404   23204132.255
        47.0004         42.0004
    -44640.23547    -26358.78246  24214936.4794   24214939.3974   24214936.235
        44.0004         40.0004
 -20990966.18149 -16338319.75548  20958482.5744   20958487.6254   20958481.835
        55.0004         50.0004
   -675628.65046   -532732.41545  24551482.5894   24551482.3714   24551481.349
        41.0004         35.0004
  -1080791.14248   -822047.00947  22976299.3824   22976302.7664   22976299.483
        49.0004         45.0004
  -4152859.79047  -3207157.26446  24567994.7064   24568000.8854   24567994.932
        44.0004         39.0004
  -7748803.41047  -5997720.83447  22754609.7404   22754611.2504   22754609.032
        47.0004         42.0004
 15  1  1  0  4 12.0000000  0 10G29G05G15G13G02G24G28G26G12G21
   4858158.18047   3794546.02946  24512731.7744   24512737.7314   24512731.404
        44.0004         39.0004
 -12816822.59148  -9983897.26848  21607588.8014   21607591.4724   21607588.295
        53.0004         48.0004
 -19245659.01048 -14962820.99948  21737064.5734   21737067.0984   21737064.320
        53.0004         49.0004
   -100579.16547    -59169.86647  23204504.9324   23204508.6954   23204504.225
        47.0004         42.0004
    -41272.99247    -23734.95946  24215577.2294   24215580.3674   24215577.324
        44.0004         40.0004
 -20992740.27149 -16339702.16148  20958144.6914   20958149.9684   20958144.214
        55.0004         50.0004
   -675257.98146   -532443.58345  24551553.0694   24551553.9574   24551552.159
        41.0004         35.0004
  -1079324.32248   -820904.03147  22976578.8044   22976581.1574   22976578.662
        49.0004         45.0004
  -4155379.09347  -3209120.35846  24567515.8584   24567521.4104   24567515.539
        44.0004         39.0004
  -7750695.16747  -5999194.93547  22754248.9684   22754251.1954   22754249.001
        47.0004         42.0004
 15  1  1  0  4 13.0000000  0 10G29G05G15G13G02G24G28G26G12G21
   4859726.99047   3795768.47446  24513029.5074   24513036.3014   24513029.866
        44.0004         39.0004
 -12815937.80648  -9983207.82648  21607757.1124   21607759.6604   21607756.646
        53.0004         48.0004
 -19245681.02648 -14962838.15448  21737060.4264   21737062.9854   21737060.092
        53.0004         49.0004
    -98624.16947    -57646.49147  23204876.1104   23204878.9794   23204876.373
        47.0004         42.0004
    -37905.19247    -21110.70046  24216217.8654   24216221.1794   24216218.280
        44.0004         40.0004
 -20994513.30449 -16341083.74448  20957807.3014   20957812.2754   20957806.805
        55.0004         50.0004
   -674886.23746   -532153.91045  24551624.7734   24551624.8574   24551623.103
        41.0004         35.0004
  -1077857.04748   -819760.69847  22976857.1474   22976861.5344   22976857.881
        49.0004         45.0004
  -4157898.08747  -3211083.20846  24567036.9614   24567042.5634   24567036.181
        44.0004         39.0004
  -7752585.85147  -6000668.19147  22753888.4624   22753890.9354   22753889.129
        47.0004         42.0004
 15  1  1  0  4 14.0000000  0 10G29G05G15G13G02G24G28G26G12G21
   4861295.72847   3796990.86746  24513327.8514   24513334.7594   24513328.204
        44.0004         39.0004
 -12815052.68448  -9982518.12148  21607925.7144   21607928.1084   21607925.007
        53.0004         48.0004
 -19245703.02148 -14962855.29448  21737056.3024   21737059.0644   21737055.927
        53.0004         49.0004
    -96669.30447    -56123.21747  23205249.4204   23205251.8134   23205248.391
        47.0004         42.0004
    -34537.48247    -18486.51346  24216857.8144   24216861.5454   24216859.319
        44.0004         40.0004
 -20996285.87449 -16342464.96748  20957469.9714   20957475.2254   20957469.523
        55.0004         50.0004
   -674513.94646   -531863.81345  24551694.1604   24551696.8154   24551694.188
        41.0004         35.0004
  -1076389.92548   -818617.48747  22977136.3864   22977139.4254   22977136.970
        49.0004         45.0004
  -4160417.33547  -3213046.25846  24566557.4174   24566562.9154   24566556.464
        44.0004         39.0004
  -7754476.01847  -6002141.04847  22753528.5294   22753532.4994   22753529.358
        47.0004         42.0004
 15  1  1  0  4 15.0000000  0 10G29G05G15G13G02G24G28G26G12G21
   4862864.48347   3798213.27346  24513627.3964   24513633.1044   24513626.718
        44.0004         39.0004
 -12814167.11948  -9981828.07248  21608093.8264   21608096.6534   21608093.446
        53.0004         48.0004
 -19245724.90248 -14962872.34448  21737052.3374   21737054.6944   21737051.730
        53.0004         49.0004
    -94714.47447    -54599.98047  23205621.4784   23205623.1464   23205620.542
        47.0004         42.0004
    -31169.73847    -15862.29846  24217499.7334   24217502.1314   24217500.244
        44.0004         40.0004
 -20998057.89349 -16343845.76148  20957132.8774   20957138.1244   20957132.268
        55.0004         50.0004
   -674141.04646   -531573.24445  24551766.2884   24551769.2304   24551765.450
        41.0004         35.0004
  -1074922.85248   -817474.31747  22977416.5374   22977419.8914   22977416.191
        49.0004         45.0004
  -4162936.76747  -3215009.44846  24566077.9054   24566083.5354   24566076.899
        44.0004         39.0004
  -7756365.60147  -6003613.44747  22753169.2634   22753171.9794   22753169.668
        47.0004         42.0004
 15  1  1  0  4 16.0000000  0 10G29G05G15G13G02G24G28G26G12G21
   4864432.49647   3799435.09946  24513925.2634   24513931.8374   24513925.137
        44.0004         39.0004
 -12813281.87048  -9981138.27048  21608262.6814   21608264.9294   21608261.842
        53.0004         48.0004
 -19245747.43748 -14962889.90648  21737047.9054   21737050.4804   21737047.412
        53.0004         49.0004
    -92760.44147    -53077.36247  23205991.8294   23205996.9804   23205992.487
        47.0004         42.0004
    -27802.70147    -13238.63946  24218140.0724   24218143.3034   24218141.128
        44.0004         40.0004
 -20999830.09049 -16345226.69648  20956795.4524   20956800.9084   20956795.023
        55.0004         50.0004
   -673768.30246   -531282.79245  24551836.6474   24551839.2264   24551836.886
        41.0004         35.0004
  -1073456.56148   -816331.75547  22977694.9304   22977698.3594   22977695.258
        49.0004         45.0004
  -4165457.11147  -3216973.35246  24565597.7734   24565604.5464   24565597.300
        44.0004         39.0004
  -7758255.34447  -6005085.97647  22752810.3334   22752812.3224   22752810.081
        47.0004         42.0004
 15  1  1  0  4 17.0000000  0 10G29G05G15G13G02G24G28G26G12G21
   4866000.72447   3800657.09446  24514224.4954   24514229.3624   24514223.481
        44.0004         39.0004
 -12812395.99848  -9980447.97748  21608431.2024   21608433.8294   21608430.328
        53.0004         48.0004
 -19245769.66648 -14962907.22348  21737043.4774   21737046.5374   21737043.156
        53.0004         49.0004
    -90806.27347    -51554.62747  23206364.1114   23206367.9574   23206364.543
        47.0004         42.0004
    -24435.45547    -10614.81246  24218780.2034   24218784.0154   24218781.838
        44.0004         40.0004
 -21001601.52249 -16346607.02948  20956458.4404   20956463.6854   20956457.893
        55.0004         50.0004
   -673394.74546   -530991.70945  24551907.1544   24551909.3784   24551908.015
        41.0004         35.0004
  -1071990.14348   -815189.08947  22977974.3554   22977977.1644   22977974.282
        49.0004         45.0004
  -4167977.42547  -3218937.23146  24565118.6194   24565124.4214   24565117.567
        44.0004         39.0004
  -7760144.29847  -6006557.89047  22752450.4184   22752454.3874   22752450.490
        47.0004         42.0004
 15  1  1  0  4 18.0000000  0 10G29G05G15G13G02G24G28G26G12G21
   4867569.41147   3801879.44746  24514523.0214   24514528.1744   24514521.785
        44.0004         39.0004
 -12811509.25848  -9979757.01248  21608599.9344   21608602.6144   21608598.990
        53.0004         48.0004
 -19245791.34148 -14962924.11248  21737039.8854   21737042.3904   21737038.955
        53.0004         49.0004
    -88851.69047    -50031.57547  23206735.9814   23206739.5974   23206736.449
        47.0004         42.0004
    -21067.72447     -7990.61046  24219420.9134   24219425.6394   24219422.951
        44.0004         40.0004
 -21003371.96549 -16347986.59248  20956121.5144   20956126.6984   20956120.907
        55.0004         50.0004
   -673020.14646   -530699.81245  24551978.7784   24551980.8024   24551979.556
        41.0004         35.0004
  -1070523.33248   -814046.11947  22978253.5484   22978256.7734   22978253.370
        49.0004         45.0004
  -4170497.47547  -3220900.90446  24564639.3394   24564644.9004   24564638.059
        44.0004         39.0004
  -7762032.20347  -6008028.98447  22752091.5434   22752093.8114   22752091.216
        47.0004         42.0004
 15  1  1  0  4 19.0000000  0 10G29G05G15G13G02G24G28G26G12G21
   4869138.08447   3803101.79046  24514821.1644   24514827.1284   24514820.435
        44.0004         39.0004
 -12810622.11248  -9979065.72748  21608768.7834   21608771.4344   21608767.646
        53.0004         48.0004
 -19245812.94348 -14962940.94248  21737035.5664   21737038.2764   21737034.834
        53.0004         49.0004
    -86897.21947    -48508.61147  23207108.5284   23207111.3534   23207108.490
        47.0004         42.0004
    -17700.01547     -5366.42146  24220062.2264   24220066.4774   24220064.028
        44.0004         40.0004
 -21005141.86349 -16349365.73148  20955784.6964   20955789.8174   20955784.061
        55.0004         50.0004
   -672644.96546   -530407.45545  24552049.7204   24552050.9544   24552050.825
        41.0004         35.0004
  -1069056.60948   -812903.21547  22978532.9074   22978535.4214   22978532.486
        49.0004         45.0004
  -4173017.74047  -3222864.74346  24564159.5534   24564165.2624   24564158.560
        44.0004         39.0004
  -7763919.57147  -6009499.66247  22751731.5434   22751734.2854   22751731.981
        47.0004         42.0004
 15  1  1  0  4 20.0000000  0 10G29G05G15G13G02G24G28G26G12G21
   4870706.66547   3804324.06046  24515119.9524   24515125.7524   24515118.779
        44.0004         39.0004
 -12809734.62648  -9978374.18148  21608937.4184   21608940.3194   21608936.541
        53.0004         48.0004
 -19245834.53248 -14962957.76648  21737031.0254   21737034.1234   21737030.642
        53.0004         49.0004
    -84942.86447    -46985.73947  23207480.3974   23207482.1804   23207480.519
        47.0004         42.0004
    -14332.34647     -2742.26446  24220703.6774   24220707.0344   24220705.019
        44.0004         40.0004
 -21006911.30749 -16350744.51848  20955447.6604   20955453.3094   20955447.381
        55.0004         50.0004
   -672269.28946   -530114.72145  24552121.6624   24552121.6214   24552122.474
        41.0004         35.0004
  -1067590.03148   -811760.42247  22978811.3004   22978813.9794   22978811.598
        49.0004         45.0004
  -4175538.26247  -3224828.78646  24563679.8394   24563686.2244   24563678.799
        44.0004         39.0004
  -7765806.43247  -6010969.94947  22751372.9384   22751376.2194   22751372.997
        47.0004         42.0004
 15  1  1  0  4 21.0000000  0 10G29G05G15G13G02G24G28G26G12G21
   4872275.20747   3805546.30146  24515418.1244   24515423.7264   24515417.175
        44.0004         39.0004
 -12808846.77748  -9977682.35148  21609106.4034   21609109.0814   21609105.458
        53.0004         48.0004
 -19245856.08748 -14962974.56348  21737027.0464   21737029.9944   21737026.590
        53.0004         49.0004
    -82988.64447    -45462.97047  23207851.2004   23207855.5524   23207852.509
        47.0004         42.0004
    -10964.73547      -118.15446  24221344.0314   24221347.6054   24221345.924
        44.0004         40.0004
 -21008680.24849 -16352122.91348  20955111.5114   20955116.5574   20955110.740
        55.0004         50.0004
   -671893.09046   -529821.58045  24552192.1634   24552194.4504   24552193.725
        41.0004         35.0004
  -1066123.58448   -810617.74147  22979090.5094   22979093.4914   22979090.685
        49.0004         45.0004
  -4178059.05547  -3226793.03746  24563200.1594   24563205.8974   24563199.063
        44.0004         39.0004
  -7767692.77447  -6012439.82147  22751014.9354   22751016.2574   22751013.864
        47.0004         42.0004
 15  1  1  0  4 22.0000000  0 10G29G05G15G13G02G24G28G26G12G21
   4873845.04347   3806769.55146  24515717.0194   24515722.4464   24515715.671
        44.0004         39.0004
 -12807957.21548  -9976989.18648  21609275.6144   21609278.5334   21609274.708
        53.0004         48.0004
 -19245876.25248 -14962990.27248  21737023.1524   21737025.7334   21737022.769
        53.0004         49.0004
    -81033.17847    -43939.23547  23208225.6874   23208227.1084   23208224.795
        47.0004         42.0004
     -7595.82647      2506.96946  24221985.1624   24221988.3334   24221986.913
        44.0004         40.0004
 -21010447.32949 -16353499.85848  20954774.8524   20954780.3124   20954774.493
        55.0004         50.0004
   -671514.97146   -529526.94045  24552264.1514   24552266.3784   24552265.844
        41.0004         35.0004
  -1064655.90948   -809474.10147  22979370.1184   22979372.6114   22979369.897
        49.0004         45.0004
  -4180578.70547  -3228756.39646  24562720.4444   24562726.7084   24562719.342
        44.0004         39.0004
  -7769577.24447  -6013908.23747  22750654.3224   22750657.3594   22750655.222
        47.0004         42.0004
 15  1  1  0  4 23.0000000  0 10G29G05G15G13G02G24G28G26G12G21
   4875415.29747   3807993.12246  24516015.2294   24516021.1744   24516014.394
        44.0004         39.0004
 -12807066.84148  -9976295.38848  21609445.1254   21609447.8114   21609444.124
        53.0004         48.0004
 -19245895.93048 -14963005.60548  21737019.4154   21737022.3394   21737018.984
        53.0004         49.0004
    -79077.38947    -42415.24547  23208596.2524   23208600.1244   23208596.947
        47.0004         42.0004
     -4226.50647      5132.41146  24222625.6604   24222629.7724   24222628.233
        44.0004         40.0004
 -21012213.45849 -16354876.06348  20954438.9684   20954444.4074   20954438.385
        55.0004         50.0004
   -671135.87946   -529231.54645  24552336.2164   24552339.0824   24552337.593
        41.0004         35.0004
  -1063187.90848   -808330.20347  22979649.4814   22979652.6934   22979649.191
        49.0004         45.0004
  -4183098.18047  -3230719.62246  24562241.1074   24562246.8824   24562239.922
        44.0004         39.0004
  -7771460.75247  -6015375.90347  22750297.3994   22750300.2104   22750296.771
        47.0004         42.0004
 15  1  1  0  4 24.0000000  0 10G29G05G15G13G02G24G28G26G12G21
   4876985.48947   3809216.64746  24516313.7834   24516319.4134   24516312.980
        44.0004         39.0004
 -12806176.07948  -9975601.28648  21609614.6864   21609617.3424   21609613.601
        53.0004         48.0004
 -19245915.56148 -14963020.89948  21737015.6254   21737018.5704   21737015.277
        53.0004         49.0004
    -77121.69947    -40891.32647  23208968.3974   23208972.6784   23208969.105
        47.0004         42.0004
      -857.19847      7757.84546  24223267.3314   24223271.4314   24223269.121
        44.0004         40.0004
 -21013979.06649 -16356251.85948  20954102.9534   20954108.4014   20954102.364
        55.0004         50.0004
   -670756.23446   -528935.71645  24552408.5154   24552412.3644   24552409.774
        41.0004         35.0004
  -1061720.00048   -807186.37747  22979928.0504   22979931.8384   22979928.481
        49.0004         45.0004
  -4185617.86447  -3232683.00946  24561761.6844   24561768.0314   24561760.541
        44.0004         39.0004
  -7773343.70447  -6016843.13947  22749939.0884   22749942.1484   22749938.457
        47.0004         42.0004
 15  1  1  0  4 25.0000000  0 10G29G05G15G13G02G24G28G26G12G21
   4878555.24047   3810439.83046  24516612.3844   24516618.3784   24516611.447
        44.0004         39.0004
 -12805285.36648  -9974907.22548  21609784.2234   21609787.0504   21609783.054
        53.0004         48.0004
 -19245935.53648 -14963036.46748  21737012.2544   21737014.6994   21737011.428
        53.0004         49.0004
    -75166.53547    -39367.82547  23209340.7054   23209343.7904   23209341.137
        47.0004         42.0004
      2511.66947     10382.93346  24223908.6944   24223912.0054   24223910.312
        44.0004         40.0004
 -21015744.56849 -16357627.57648  20953766.9634   20953772.2624   20953766.325
        55.0004         50.0004
   -670376.44446   -528639.77545  24552480.1544   24552485.8494   24552482.369
        41.0004         35.0004
  -1060252.61748   -806042.96147  22980207.6574   22980210.8944   22980207.750
        49.0004         45.0004
  -4188138.18847  -3234646.89546  24561281.9324   24561288.9244   24561281.199
        44.0004         39.0004
  -7775226.55047  -6018310.29347  22749580.0024   22749583.0724   22749580.124
        47.0004         42.0004
 15  1  1  0  4 26.0000000  0 10G29G05G15G13G02G24G28G26G12G21
   4880124.11147   3811662.32546  24516911.4224   24516917.2234   24516910.132
        44.0004         39.0004
 -12804395.10948  -9974213.51948  21609953.2984   21609956.2724   21609952.482
        53.0004         48.0004
 -19245956.31248 -14963052.65448  21737007.7214   21737010.9514   21737007.403
        53.0004         49.0004
    -73212.30847    -37845.05547  23209712.6484   23209716.1804   23209712.974
        47.0004         42.0004
      5879.66147     13007.34146  24224549.7124   24224552.5574   24224551.132
        44.0004         40.0004
 -21017510.39849 -16359003.54648  20953430.6994   20953436.3424   20953430.340
        55.0004         50.0004
   -669996.95246   -528344.06745  24552552.6914   24552557.0994   24552554.417
        41.0004         35.0004
  -1058786.18848   -804900.28947  22980486.3814   22980490.2984   22980486.823
        49.0004         44.0004
  -4190659.57047  -3236611.60646  24560801.7484   24560809.0894   24560801.368
        44.0004         39.0004
  -7777109.69447  -6019777.67647  22749220.8864   22749224.5074   22749221.644
        47.0004         42.0004
 15  1  1  0  4 27.0000000  0 10G29G05G15G13G02G24G28G26G12G21
   4881693.23547   3812885.02046  24517209.7974   24517216.3054   24517208.791
        44.0004         39.0004
 -12803504.19248  -9973519.29748  21610123.1624   21610125.7444   21610122.012
        53.0004         48.0004
 -19245976.75648 -14963068.58248  21737004.2904   21737006.8894   21737003.525
        53.0004         49.0004
    -71257.90647    -36322.14147  23210084.5694   23210087.4604   23210084.877
        47.0004         42.0004
      9247.90647     15631.94546  24225190.1844   24225194.0804   24225192.176
        44.0004         40.0004
 -21019275.44749 -16360378.90548  20953095.2514   20953100.3184   20953094.416
        55.0004         50.0004
   -669616.63546   -528047.71745  24552622.5564   24552629.9584   24552626.525
        40.0004         35.0004
  -1057319.58548   -803757.48247  22980766.0224   22980768.5744   22980765.827
        49.0004         44.0004
  -4193180.90347  -3238576.27746  24560321.9784   24560328.8574   24560321.175
        44.0004         39.0004
  -7778992.03047  -6021244.43047  22748863.6334   22748866.6294   22748863.438
        47.0004         42.0004
 15  1  1  0  4 28.0000000  0 10G29G05G15G13G02G24G28G26G12G21
   4883261.92247   3814107.37246  24517508.7124   24517515.5694   24517507.440
        44.0004         39.0004
 -12802613.29448  -9972825.09248  21610292.5114   21610295.6104   21610291.426
        53.0004         48.0004
 -19245997.53948 -14963084.77848  21737000.4384   21737003.0354   21736999.684
        53.0004         49.0004
    -69303.99947    -34799.62047  23210455.7604   23210459.1994   23210456.629
        47.0004         42.0004
     12615.74647     18256.23146  24225831.2134   24225834.8664   24225833.123
        44.0004         40.0004
 -21021040.38349 -16361754.17948  20952759.0744   20952764.5424   20952758.551
        55.0004         50.0004
   -669236.13846   -527751.22345  24552696.8134   24552703.1084   24552699.299
        40.0004         35.0004
  -1055853.47948   -802615.06147  22981044.8374   22981047.9484   22981044.734
        49.0004         44.0004
  -4195702.89347  -3240541.46246  24559841.8624   24559848.9604   24559841.120
        44.0004         39.0004
  -7780874.20447  -6022711.05747  22748505.7494   22748508.5244   22748505.291
        47.0004         42.0004
 15  1  1  0  4 29.0000000  0 10G29G05G15G13G02G24G28G26G12G21
   4884830.75047   3815329.83546  24517807.4414   24517813.3274   24517805.980
        44.0004         39.0004
 -12801721.84148  -9972130.45348  21610461.9354   21610465.1104   21610461.102
        53.0004         48.0004
 -19246018.08848 -14963100.79048  21736996.3454   21736999.1444   21736995.846
        53.0004         49.0004
    -67350.00847    -33277.03347  23210828.5644   23210830.0784   23210828.416
        47.0004         42.0004
     15983.72347     20880.62746  24226472.2084   24226476.8794   24226474.130
        44.0004         40.0004
 -21022804.63549 -16363128.92148  20952423.3764   20952428.9064   20952422.810
        55.0004         50.0004
   -668854.92646   -527454.17245  24552768.9364   24552773.9764   24552772.001
        40.0004         35.0004
  -1054387.29748   -801472.57847  22981322.7994   22981327.1804   22981323.667
        49.0004         44.0004
  -4198224.88547  -3242506.64746  24559362.2954   24559368.7314   24559361.032
        44.0004         39.0004
  -7782755.67947  -6024177.14347  22748147.1184   22748150.1044   22748147.345
        47.0004         42.0004
