     2.11           OBSERVATION DATA    G (GPS)             RINEX VERSION / TYPE
clockShift          gpsops              20150101 002202 UTC PGM / RUN BY / DATE
teqc  2013Mar15     gpsops              20150101 00:22:02UTCCOMMENT
Linux 2.4.21-27.ELsmp|Opteron|gcc -static|Linux x86_64|=+   COMMENT
BIT 2 OF LLI FLAGS DATA COLLECTED UNDER A/S CONDITION       COMMENT
AMC2                                                        MARKER NAME
40472S004                                                   MARKER NUMBER
GGN                 USNO                                    OBSERVER / AGENCY
RT920013101         ASHTECH Z-XII3T     IL01-1D04-MCF-12MX  REC # / TYPE / VERS
KW-0201             AOAD/M_T        NONE                    ANT # / TYPE
 -1248596.2520 -4819428.2840  3976506.0340                  APPROX POSITION XYZ
        0.0000        0.0000        0.0000                  ANTENNA: DELTA H/E/N
     1     1                                                WAVELENGTH FACT L1/2
     7    L1    L2    P1    P2    C1    S1    S2            # / TYPES OF OBSERV
     1.0000                                                 INTERVAL
                                                            COMMENT
This data is provided as a public service by NASA/JPL.      COMMENT
No warranty is expressed or implied regarding suitability   COMMENT
for use.  For further information, contact:                 COMMENT
Dave Stowers, NASA/JPL m/s 238-600                          COMMENT
4800 Oak Grove Drive, Pasadena CA 91109 USA                 COMMENT
                                                            COMMENT
 SNR is mapped to RINEX snr flag value [0-9]                COMMENT
  L1 & L2: min(max(int(snr_dBHz/6), 0), 9)                  COMMENT
pseudorange smoothing corrections not applied               COMMENT
clockShift applied 466.79 L1, 478.44 L2 (ns)                COMMENT
  2015     1     1     0     0    0.0000000     GPS         TIME OF FIRST OBS
                                                            END OF HEADER
 15  1  1  0  0  0.0000000  0 10G23G14G03G04G20G01G11G31G32G25
  -7311160.29346  -5498672.48846  23821561.9324   23821561.3584   23821562.169
        39.2004         36.9004
  -4638020.88646  -3591682.76945  23592922.4534   23592922.1154   23592922.599
        38.2004         35.9004
 -22001901.97547 -16899706.12447  21190751.7904   21190754.0294   21190751.204
        47.2004         44.2004
  -4557545.62446  -3279573.65246  24116048.9304   24116051.1054   24116048.929
        39.4004         36.9004
  -8597466.14746  -6675385.80146  22638201.2984   22638202.5164   22638201.647
        40.3004         37.6004
  -8267890.62946  -6179869.29246  23096007.1744   23096010.7934   23096006.504
        40.4004         37.8004
   3372962.13245   3543048.66045  25292266.9364   25292272.3034   25292267.551
        33.8004         32.7004
 -19011670.21147 -14787382.79047  20913621.8074   20913620.7474   20913621.757
        47.7004         44.7004
 -21103426.44348 -15635599.60847  20565477.0774   20565477.8734   20565477.847
        48.6004         45.6004
   -230250.96446   -167031.04145  24462445.9134   24462449.2844   24462446.573
        37.5004         35.5004
 15  1  1  0  0  1.0000000  0 10G23G14G03G04G20G01G11G31G32G25
  -7313763.96146  -5500701.32146  23821065.2224   23821065.8114   23821066.753
        39.2004         36.7004
  -4635675.01246  -3589854.81445  23593368.8314   23593368.4914   23593368.999
        38.2004         35.7004
 -22003856.41247 -16901229.05947  21190379.9294   21190381.8084   21190379.300
        47.2004         44.2004
  -4554402.96146  -3277124.82546  24116647.5284   24116649.2744   24116646.983
        39.4004         36.9004
  -8600316.86846  -6677607.14346  22637658.8444   22637660.4014   22637659.059
        40.3004         37.6004
  -8265697.23246  -6178160.15046  23096424.4854   23096427.7564   23096423.848
        40.4004         37.8004
   3375644.82145   3545139.06345  25292775.8574   25292781.4714   25292778.030
        33.8004         32.7004
 -19009650.54347 -14785809.02047  20914006.4344   20914004.9694   20914006.097
        47.7004         44.7004
 -21102703.96248 -15635036.63447  20565614.8554   20565615.6234   20565615.319
        48.6004         45.6004
   -227621.79046   -164982.33545  24462946.3944   24462949.5374   24462946.789
        37.6004         35.5004
 15  1  1  0  0  2.0000000  0 10G23G14G03G04G20G01G11G31G32G25
  -7316367.61846  -5502730.14246  23820570.2754   23820570.7844   23820571.359
        39.2004         36.9004
  -4633329.03046  -3588026.77545  23593814.6684   23593815.2154   23593815.397
        38.2004         35.7004
 -22005810.38347 -16902751.63247  21190007.7534   21190009.7524   21190007.453
        47.2004         44.2004
  -4551260.26146  -3274675.97246  24117245.3294   24117246.2254   24117245.053
        39.4004         36.9004
  -8603167.22746  -6679828.19746  22637116.2534   22637118.1874   22637116.555
        40.3004         37.4004
  -8263503.44946  -6176450.70846  23096841.1564   23096844.9924   23096841.346
        40.4004         37.9004
   3378327.44345   3547229.41545  25293285.3394   25293291.7854   25293288.469
        33.8004         32.7004
 -19007630.52047 -14784234.97747  20914390.6914   20914389.4024   20914390.516
        47.7004         44.5004
 -21101980.96548 -15634473.25947  20565752.2574   20565753.0944   20565752.888
        48.6004         45.6004
   -224992.18946   -162933.29445  24463447.1104   24463449.6444   24463447.163
        37.6004         35.5004
 15  1  1  0  0  3.0000000  0 10G23G14G03G04G20G01G11G31G32G25
  -7318971.25146  -5504758.94346  23820075.2564   23820074.9474   23820075.918
        39.2004         36.7004
  -4630982.93946  -3586198.64645  23594261.5244   23594261.4054   23594261.844
        38.2004         35.7004
 -22007763.86147 -16904273.82247  21189636.2724   21189638.0254   21189635.692
        47.2004         44.4004
  -4548117.49746  -3272227.06946  24117843.8734   24117844.9614   24117843.108
        39.4004         37.1004
  -8606017.27146  -6682049.00746  22636573.4134   22636575.2734   22636574.174
        40.3004         37.4004
  -8261309.29046  -6174740.97346  23097259.3324   23097263.0684   23097258.902
        40.4004         37.8004
   3381010.06645   3549319.76645  25293795.9724   25293801.4234   25293798.959
        33.8004         32.7004
 -19005610.11747 -14782660.63547  20914775.2644   20914773.6944   20914775.000
        47.7004         44.5004
 -21101257.43348 -15633909.47147  20565890.0044   20565890.8174   20565890.584
        48.6004         45.6004
   -222362.12746   -160883.89545  24463947.7114   24463949.9304   24463947.679
        37.6004         35.5004
 15  1  1  0  0  4.0000000  0 10G23G14G03G04G20G01G11G31G32G25
  -7321574.85646  -5506787.71946  23819579.5334   23819579.1644   23819580.438
        39.2004         36.6004
  -4628636.73146  -3584370.43245  23594708.0444   23594707.9824   23594708.345
        38.2004         35.7004
 -22009716.88247 -16905795.65447  21189264.9804   21189266.1784   21189264.035
        47.2004         44.4004
  -4544974.69346  -3269778.13546  24118441.9874   24118443.1314   24118441.175
        39.4004         36.9004
  -8608866.94846  -6684269.52946  22636031.2274   22636033.0264   22636031.916
        40.3004         37.4004
  -8259114.73646  -6173030.92946  23097677.1434   23097680.7874   23097676.573
        40.4004         37.9004
   3383692.61445   3551410.06545  25294307.7124   25294311.9274   25294309.405
        33.7004         32.6004
 -19003589.34947 -14781086.00647  20915159.6124   20915158.1324   20915159.574
        47.7004         44.5004
 -21100533.37748 -15633345.26847  20566027.8194   20566028.4294   20566028.353
        48.6004         45.6004
   -219731.61946   -158834.14845  24464447.9264   24464450.2644   24464448.321
        37.6004         35.5004
 15  1  1  0  0  5.0000000  0 10G23G14G03G04G20G01G11G31G32G25
  -7324178.44146  -5508816.48446  23819084.1964   23819084.0164   23819084.901
        39.2004         36.7004
  -4626290.44046  -3582542.15245  23595154.5184   23595154.6234   23595154.890
        38.2004         35.7004
 -22011669.41847 -16907317.11147  21188893.1094   21188894.9804   21188892.456
        47.2004         44.4004
  -4541831.81946  -3267329.14646  24119040.8074   24119042.3834   24119039.198
        39.4004         37.1004
  -8611716.31446  -6686489.81046  22635489.4164   22635490.3564   22635489.777
        40.3004         37.4004
  -8256919.81746  -6171320.60646  23098094.8804   23098097.6734   23098094.274
        40.4004         37.8004
   3386375.15045   3553500.34745  25294818.6714   25294822.5684   25294819.773
        33.8004         32.6004
 -19001568.21847 -14779511.10347  20915544.4854   20915543.2274   20915544.190
        47.7004         44.5004
 -21099808.78348 -15632780.65047  20566165.6814   20566166.3734   20566166.221
        48.6004         45.6004
   -217100.67346   -156784.05945  24464948.6594   24464950.8934   24464948.962
        37.6004         35.7004
 15  1  1  0  0  6.0000000  0 10G23G14G03G04G20G01G11G31G32G25
  -7326781.97646  -5510845.20946  23818588.0574   23818588.8494   23818589.437
        39.2004         36.7004
  -4623944.02246  -3580713.77345  23595601.5344   23595601.3324   23595601.385
        38.2004         35.7004
 -22013621.47347 -16908838.19447  21188521.4034   21188523.3794   21188520.972
        47.2004         44.2004
  -4538688.89446  -3264880.11546  24119637.5204   24119640.3994   24119637.199
        39.4004         37.1004
  -8614565.31246  -6688709.81046  22634946.9074   22634947.7154   22634947.662
        40.3004         37.4004
  -8254724.50646  -6169609.97746  23098512.6544   23098515.4394   23098512.005
        40.4004         37.8004
   3389057.67045   3555590.62345  25295328.8994   25295333.7934   25295330.153
        33.7004         32.6004
 -18999546.71147 -14777935.90247  20915929.0894   20915927.6034   20915928.859
        47.7004         44.7004
 -21099083.65148 -15632215.61147  20566303.5164   20566304.3194   20566304.222
        48.6004         45.6004
   -214469.26346   -154733.60645  24465449.2584   24465451.5934   24465449.730
        37.6004         35.7004
 15  1  1  0  0  7.0000000  0 10G23G14G03G04G20G01G11G31G32G25
  -7329385.50646  -5512873.92746  23818092.5834   23818094.1034   23818093.897
        39.2004         36.9004
  -4621597.49746  -3578885.31345  23596048.1994   23596047.4474   23596047.904
        38.2004         35.7004
 -22015573.04547 -16910358.89547  21188150.4514   21188152.0184   21188149.594
        47.2004         44.2004
  -4535545.90846  -3262431.03546  24120234.9884   24120238.0414   24120235.250
        39.4004         36.9004
  -8617413.98446  -6690929.55846  22634404.9644   22634405.2234   22634405.627
        40.3004         37.4004
  -8252528.82446  -6167899.05246  23098930.2714   23098933.1304   23098929.822
        40.4004         37.8004
   3391740.13645   3557680.85445  25295839.4574   25295843.7804   25295840.760
        33.7004         32.6004
 -18997524.83447 -14776360.41547  20916313.8524   20916312.1484   20916313.617
        47.7004         44.5004
 -21098357.99948 -15631650.17147  20566441.7394   20566442.4764   20566442.325
        48.6004         45.4004
   -211837.40246   -152682.80645  24465950.4194   24465952.2174   24465950.587
        37.6004         35.7004
 15  1  1  0  0  8.0000000  0 10G23G14G03G04G20G01G11G31G32G25
  -7331989.01246  -5514902.62446  23817598.5734   23817599.0414   23817598.442
        39.2004         36.7004
  -4619250.87846  -3577056.78045  23596494.4114   23596493.9184   23596494.455
        38.2004         35.7004
 -22017524.14947 -16911879.23647  21187779.1594   21187780.6744   21187778.332
        47.2004         44.2004
  -4532402.89146  -3259981.92746  24120832.8334   24120835.3584   24120833.344
        39.4004         36.9004
  -8620262.30346  -6693149.02346  22633861.9294   22633863.8904   22633863.686
        40.3004         37.4004
  -8250332.73046  -6166187.80846  23099348.1734   23099351.5064   23099347.732
        40.4004         37.8004
   3394422.55845   3559771.04645  25296350.0414   25296355.5154   25296351.160
        33.7004         32.6004
 -18995502.60547 -14774784.65347  20916698.8144   20916697.5064   20916698.406
        47.7004         44.5004
 -21097631.80148 -15631084.30047  20566580.0054   20566580.7214   20566580.512
        48.6004         45.6004
   -209205.10846   -150631.66845  24466451.8414   24466453.4724   24466451.586
        37.8004         35.7004
 15  1  1  0  0  9.0000000  0 10G23G14G03G04G20G01G11G31G32G25
  -7334592.48046  -5516931.29646  23817103.3514   23817103.1504   23817102.916
        39.2004         36.7004
  -4616904.14546  -3575228.16045  23596940.6924   23596940.6134   23596941.024
        38.2004         35.7004
 -22019474.78147 -16913399.21047  21187407.7224   21187409.6374   21187407.130
        47.2004         44.2004
  -4529259.81546  -3257532.77646  24121430.3554   24121433.2604   24121431.387
        39.4004         36.9004
  -8623110.29246  -6695368.23646  22633320.3764   22633322.3454   22633321.775
        40.3004         37.4004
  -8248136.27546  -6164476.28746  23099766.0824   23099769.5114   23099765.669
        40.4004         37.9004
   3397104.92145   3561861.19745  25296860.2624   25296863.9824   25296861.757
        33.7004         32.6004
 -18993479.99847 -14773208.59347  20917083.6574   20917082.1964   20917083.302
        47.7004         44.7004
 -21096905.07348 -15630518.01847  20566718.2074   20566718.8584   20566718.821
        48.6004         45.6004
   -206572.34046   -148580.16045  24466952.6204   24466954.8704   24466952.687
        37.8004         35.7004
 15  1  1  0  0 10.0000000  0 10G23G14G03G04G20G01G11G31G32G25
  -7337195.94146  -5518959.96346  23816607.7244   23816607.4574   23816607.578
        39.2004         36.7004
  -4614557.30546  -3573399.45345  23597386.9964   23597386.6164   23597387.637
        38.2004         35.7004
 -22021424.92247 -16914918.79747  21187036.7274   21187038.3334   21187036.022
        47.2004         44.2004
  -4526116.69146  -3255083.59646  24122029.2904   24122032.0964   24122029.499
        39.4004         36.9004
  -8625957.92446  -6697587.16846  22632778.8504   22632780.1844   22632779.867
        40.3004         37.3004
  -8245939.43346  -6162764.46046  23100184.3774   23100187.2644   23100183.778
        40.4004         37.8004
   3399787.28945   3563951.34545  25297369.9094   25297373.6664   25297372.210
        33.7004         32.6004
 -18991457.02147 -14771632.24747  20917468.7304   20917467.0184   20917468.253
        47.7004         44.7004
 -21096177.82548 -15629951.33147  20566856.3974   20566857.4554   20566857.224
        48.6004         45.6004
   -203939.12646   -146528.30445  24467453.6894   24467456.3274   24467453.799
        37.8004         35.9004
 15  1  1  0  0 11.0000000  0 10G23G14G03G04G20G01G11G31G32G25
  -7339799.36546  -5520988.59846  23816113.2364   23816111.8414   23816112.143
        39.2004         36.7004
  -4612210.35046  -3571570.65445  23597833.4324   23597833.1844   23597834.338
        38.2004         35.7004
 -22023374.58647 -16916438.01347  21186665.4544   21186667.3624   21186665.009
        47.2004         44.2004
  -4522973.51646  -3252634.36646  24122626.8854   24122629.7804   24122627.640
        39.4004         36.9004
  -8628805.21046  -6699805.83046  22632236.4324   22632238.4164   22632238.034
        40.3004         37.4004
  -8243742.20546  -6161052.33146  23100602.4904   23100604.5564   23100601.944
        40.4004         37.8004
   3402469.60745   3566041.46245  25297879.2364   25297885.6224   25297882.809
        33.7004         32.7004
 -18989433.68447 -14770055.62247  20917853.3694   20917852.2844   20917853.313
        47.7004         44.7004
 -21095450.05248 -15629384.23447  20566995.2104   20566995.5964   20566995.732
        48.6004         45.6004
   -201305.44746   -144476.08545  24467954.8864   24467957.7784   24467954.875
        37.8004         35.9004
 15  1  1  0  0 12.0000000  0 10G23G14G03G04G20G01G11G31G32G25
  -7342402.77646  -5523017.23246  23815617.7414   23815616.8454   23815616.703
        39.2004         36.7004
  -4609863.29246  -3569741.78145  23598279.7794   23598279.7284   23598281.024
        38.2004         35.7004
 -22025323.77647 -16917956.85847  21186294.6974   21186296.2914   21186294.113
        47.2004         44.4004
  -4519830.28346  -3250185.09846  24123225.4214   24123227.9144   24123225.796
        39.4004         37.1004
  -8631652.17446  -6702024.24146  22631694.9604   22631696.4404   22631696.273
        40.3004         37.6004
  -8241544.58246  -6159339.90146  23101020.5754   23101023.1384   23101020.122
        40.4004         37.8004
   3405151.88045   3568131.54545  25298389.1004   25298396.8034   25298393.332
        33.8004         32.7004
 -18987409.97547 -14768478.70647  20918238.2064   20918237.0734   20918238.426
        47.7004         44.7004
 -21094721.74048 -15628816.71947  20567133.8234   20567134.1084   20567134.334
        48.6004         45.4004
   -198671.34446   -142423.53645  24468456.2624   24468458.9534   24468456.040
        37.8004         35.9004
 15  1  1  0  0 13.0000000  0 10G23G14G03G04G20G01G11G31G32G25
  -7345006.15746  -5525045.83646  23815121.9264   23815121.4024   23815121.242
        39.2004         36.9004
  -4607516.14046  -3567912.83645  23598726.0344   23598727.2144   23598727.683
        38.2004         35.7004
 -22027272.49247 -16919475.33847  21185923.6574   21185925.8444   21185923.278
        47.2004         44.2004
  -4516686.99246  -3247735.78546  24123823.8274   24123825.4584   24123823.859
        39.4004         36.9004
  -8634498.80346  -6704242.39046  22631153.4904   22631153.9654   22631154.580
        40.3004         37.6004
  -8239346.61346  -6157627.20146  23101439.0134   23101441.9864   23101438.420
        40.4004         37.8004
   3407834.10145   3570221.58945  25298899.6064   25298907.9264   25298903.853
        33.7004         32.6004
 -18985385.92447 -14766901.51947  20918623.5574   20918622.4034   20918623.595
        47.7004         44.7004
 -21093992.89248 -15628248.78447  20567272.1524   20567272.9814   20567273.002
        48.6004         45.6004
   -196036.76146   -140370.61245  24468957.4024   24468960.0224   24468957.259
        37.8004         35.9004
 15  1  1  0  0 14.0000000  0 10G23G14G03G04G20G01G11G31G32G25
  -7347609.51046  -5527074.42246  23814626.1874   23814625.6274   23814625.813
        39.2004         36.9004
  -4605168.86046  -3566083.78345  23599172.2654   23599174.0144   23599174.305
        38.2004         35.7004
 -22029220.72047 -16920993.43647  21185553.0044   21185554.9444   21185552.543
        47.2004         44.2004
  -4513543.64646  -3245286.42246  24124421.9914   24124423.7004   24124422.037
        39.4004         36.9004
  -8637345.08046  -6706460.26346  22630612.2664   22630611.9584   22630612.905
        40.3004         37.6004
  -8237148.22646  -6155914.17146  23101856.8164   23101860.3794   23101856.722
        40.4004         37.6004
   3410516.32845   3572311.63045  25299411.7784   25299418.6494   25299414.391
        33.7004         32.6004
 -18983361.48947 -14765324.03747  20919008.9994   20919007.8974   20919008.853
        47.7004         44.5004
 -21093263.50248 -15627680.42647  20567411.2484   20567411.8824   20567411.817
        48.6004         45.6004
   -193401.73346   -138317.34145  24469458.9234   24469461.5044   24469458.594
        37.8004         35.9004
 15  1  1  0  0 15.0000000  0 10G23G14G03G04G20G01G11G31G32G25
  -7350212.84146  -5529102.98446  23814130.8754   23814130.2584   23814130.437
        39.2004         36.9004
  -4602821.48546  -3564254.66045  23599619.0474   23599620.8564   23599620.908
        38.2004         35.7004
 -22031168.47647 -16922511.16747  21185182.3274   21185184.6874   21185181.895
        47.2004         44.4004
  -4510400.27346  -3242837.04746  24125019.3734   24125022.2784   24125020.147
        39.4004         36.9004
  -8640191.00746  -6708677.86546  22630070.6774   22630071.4354   22630071.342
        40.3004         37.6004
  -8234949.48646  -6154200.87046  23102275.3804   23102278.8234   23102275.164
        40.4004         37.8004
   3413198.47445   3574401.61345  25299923.3944   25299926.9184   25299924.876
        33.7004         32.6004
 -18981336.69947 -14763746.28147  20919394.5124   20919393.0314   20919394.150
        47.7004         44.5004
 -21092533.58948 -15627111.66347  20567550.0424   20567550.8724   20567550.709
        48.6004         45.6004
   -190766.27446   -136263.73745  24469960.3044   24469963.4424   24469960.089
        38.0004         35.9004
 15  1  1  0  0 16.0000000  0 10G23G14G03G04G20G01G11G31G32G25
  -7352816.15446  -5531131.53646  23813635.5164   23813635.1974   23813635.120
        39.2004         36.9004
  -4600473.99446  -3562425.44445  23600066.0624   23600067.0784   23600067.609
        38.2004         35.7004
 -22033115.75247 -16924028.52647  21184811.9284   21184814.4524   21184811.339
        47.2004         44.2004
  -4507256.82346  -3240387.60846  24125617.4094   24125621.5724   24125618.346
        39.4004         36.9004
  -8643036.59646  -6710895.20846  22629529.3984   22629529.7594   22629529.884
        40.3004         37.6004
  -8232750.33246  -6152487.24846  23102693.5414   23102697.7474   23102693.673
        40.4004         37.8004
   3415880.59545   3576491.57245  25300434.5354   25300437.3974   25300435.354
        33.7004         32.7004
 -18979311.53947 -14762168.23447  20919779.5394   20919778.1664   20919779.512
        47.7004         44.5004
 -21091803.13248 -15626542.47747  20567689.2204   20567689.8114   20567689.714
        48.6004         45.6004
   -188130.34246   -134209.76445  24470462.4254   24470465.6484   24470461.661
        38.0004         35.9004
 15  1  1  0  0 17.0000000  0 10G23G14G03G04G20G01G11G31G32G25
  -7355419.42146  -5533160.05646  23813140.4164   23813139.4184   23813139.795
        39.2004         36.9004
  -4598126.38946  -3560596.14045  23600513.5274   23600513.7654   23600514.430
        38.2004         35.7004
 -22035062.54647 -16925545.50747  21184441.2424   21184443.4554   21184440.878
        47.2004         44.2004
  -4504113.34546  -3237938.13946  24126215.5904   24126218.6454   24126216.468
        39.4004         36.9004
  -8645881.84746  -6713112.28646  22628987.9174   22628988.3774   22628988.527
        40.3004         37.6004
  -8230550.80146  -6150773.32846  23103112.0754   23103116.3644   23103112.181
        40.4004         37.8004
   3418562.70145   3578581.52245  25300945.1034   25300947.7684   25300945.885
        33.8004         32.9004
 -18977286.01747 -14760589.90347  20920165.0074   20920163.9354   20920164.949
        47.7004         44.5004
 -21091072.14648 -15625972.87447  20567828.1944   20567828.9584   20567828.807
        48.6004         45.6004
   -185493.97846   -132155.45346  24470963.8324   24470967.2574   24470963.371
        38.0004         36.0004
 15  1  1  0  0 18.0000000  0 10G23G14G03G04G20G01G11G31G32G25
  -7358022.68946  -5535188.57446  23812645.2564   23812643.4864   23812644.514
        39.2004         36.7004
  -4595778.68746  -3558766.76145  23600960.2824   23600960.2964   23600961.202
        38.2004         35.7004
 -22037008.86947 -16927062.12147  21184070.9874   21184072.9624   21184070.487
        47.2004         44.2004
  -4500969.82046  -3235488.63946  24126813.9614   24126816.4374   24126814.626
        39.4004         36.9004
  -8648726.75746  -6715329.09846  22628446.5614   22628447.5474   22628447.230
        40.3004         37.6004
  -8228350.90846  -6149059.12446  23103530.5464   23103535.2254   23103530.776
        40.4004         37.9004
   3421244.74945   3580671.42745  25301455.6464   25301458.4374   25301456.318
        33.8004         32.9004
 -18975260.13347 -14759011.29047  20920550.5524   20920549.3364   20920550.448
        47.7004         44.5004
 -21090340.64648 -15625402.87747  20567967.4284   20567968.0084   20567968.038
        48.6004         45.6004
   -182857.15946   -130100.79046  24471465.5624   24471469.3194   24471465.359
        38.0004         36.0004
 15  1  1  0  0 19.0000000  0 10G23G14G03G04G20G01G11G31G32G25
  -7360625.91846  -5537217.06446  23812149.8324   23812148.7044   23812149.103
        39.2004         36.7004
  -4593430.89146  -3556937.30945  23601406.9604   23601407.0194   23601407.935
        38.2004         35.9004
 -22038954.70947 -16928578.35847  21183700.3814   21183702.6554   21183700.218
        47.2004         44.2004
  -4497826.23746  -3233039.09346  24127412.6274   24127414.9474   24127412.790
        39.4004         36.9004
  -8651571.32146  -6717545.63746  22627904.5804   22627906.0154   22627905.968
        40.3004         37.6004
  -8226150.62346  -6147344.61446  23103949.0654   23103953.8604   23103949.519
        40.4004         37.9004
   3423926.79045   3582761.33045  25301967.2054   25301968.7554   25301966.555
        34.0004         32.9004
 -18973233.87447 -14757432.39147  20920936.3754   20920934.8174   20920936.009
        47.7004         44.7004
 -21089608.60348 -15624832.45347  20568106.7174   20568107.3584   20568107.369
        48.6004         45.6004
   -180219.89546   -128045.77945  24471967.5804   24471970.9474   24471967.376
        38.0004         35.9004
 15  1  1  0  0 20.0000000  0 10G23G14G03G04G20G01G11G31G32G25
  -7363229.13746  -5539245.54646  23811654.4064   23811653.4284   23811653.635
        39.2004         36.7004
  -4591082.96146  -3555107.75245  23601853.6194   23601853.5784   23601854.650
        38.2004         35.7004
 -22040900.07847 -16930094.22847  21183330.4934   21183332.7954   21183330.018
        47.2004         44.2004
  -4494682.60046  -3230589.50846  24128011.2354   24128013.1894   24128011.039
        39.4004         36.7004
  -8654415.54746  -6719761.91446  22627364.0194   22627365.4204   22627364.737
        40.3004         37.6004
  -8223949.97146  -6145629.82046  23104368.4734   23104372.6164   23104368.279
        40.4004         37.8004
   3426608.77445   3584851.18945  25302476.0164   25302480.4514   25302476.992
        34.0004         32.9004
 -18971207.25647 -14755853.20647  20921321.7724   20921320.4384   20921321.671
        47.7004         44.7004
 -21088876.04348 -15624261.62847  20568246.1554   20568246.7444   20568246.769
        48.6004         45.6004
   -177582.17146   -125990.40745  24472469.4394   24472472.5704   24472469.397
        38.0004         35.9004
 15  1  1  0  0 21.0000000  0 10G23G14G03G04G20G01G11G31G32G25
  -7365832.33046  -5541273.99946  23811158.1594   23811157.5654   23811158.302
        39.2004         36.9004
  -4588734.93946  -3553278.12345  23602300.3794   23602300.3114   23602301.425
        38.2004         35.9004
 -22042844.95747 -16931609.71547  21182960.5444   21182962.3534   21182959.908
        47.2004         44.2004
  -4491538.91646  -3228139.88346  24128609.8634   24128611.7394   24128609.314
        39.4004         36.7004
  -8657259.41446  -6721977.90946  22626823.2744   22626823.8734   22626823.603
        40.3004         37.6004
  -8221748.91846  -6143914.71346  23104787.6114   23104791.0264   23104787.125
        40.4004         37.9004
   3429290.70445   3586940.99945  25302985.9004   25302989.6584   25302987.254
        34.0004         33.1004
 -18969180.26747 -14754273.73247  20921707.5784   20921705.9534   20921707.414
        47.7004         44.7004
 -21088142.93548 -15623690.37347  20568385.5414   20568386.2534   20568386.277
        48.6004         45.6004
   -174944.01146   -123934.69645  24472971.5844   24472974.6964   24472971.498
        38.0004         35.9004
 15  1  1  0  0 22.0000000  0 10G23G14G03G04G20G01G11G31G32G25
  -7368435.49346  -5543302.43746  23810662.4754   23810662.6454   23810662.990
        39.2004         36.7004
  -4586386.80546  -3551448.41145  23602747.7674   23602747.1504   23602748.299
        38.2004         35.9004
 -22044789.36347 -16933124.83847  21182590.1274   21182592.3394   21182589.904
        47.2004         44.2004
  -4488395.18346  -3225690.21946  24129208.2554   24129209.4764   24129207.544
        39.4004         36.9004
  -8660102.95746  -6724193.66446  22626282.1714   22626283.2524   22626282.558
        40.3004         37.6004
  -8219547.48446  -6142199.31046  23105206.3874   23105209.6504   23105205.961
        40.4004         37.9004
   3431972.62145   3589030.80445  25303496.7004   25303499.6374   25303497.551
        34.0004         33.3004
 -18967152.91347 -14752693.97647  20922093.4754   20922092.0064   20922093.220
        47.7004         44.5004
 -21087409.29748 -15623118.70747  20568525.2144   20568525.9764   20568525.871
        48.6004         45.6004
   -172305.38546   -121878.62245  24473473.8804   24473476.7244   24473473.628
        38.0004         35.9004
 15  1  1  0  0 23.0000000  0 10G23G14G03G04G20G01G11G31G32G25
  -7371038.62546  -5545330.84646  23810167.1104   23810167.0704   23810167.634
        39.2004         36.9004
  -4584038.54546  -3549618.59645  23603194.9004   23603194.1774   23603195.232
        38.2004         35.9004
 -22046733.27447 -16934639.56947  21182220.5594   21182222.4434   21182219.966
        47.2004         44.2004
  -4485251.39046  -3223240.50846  24129806.0374   24129808.0474   24129805.801
        39.4004         36.9004
  -8662946.14446  -6726409.12846  22625740.7664   22625742.8234   22625741.535
        40.3004         37.6004
  -8217345.67846  -6140483.61946  23105625.5444   23105628.8644   23105624.960
        40.4004         37.8004
   3434654.50845   3591120.58245  25304006.2464   25304011.1064   25304007.907
        34.2004         33.1004
 -18965125.19847 -14751113.93847  20922479.2254   20922477.8954   20922479.070
        47.7004         44.5004
 -21086675.13748 -15622546.63147  20568664.8024   20568665.5384   20568665.566
        48.6004         45.6004
   -169666.32946   -119822.20945  24473976.1664   24473978.4394   24473975.848
        38.0004         35.9004
 15  1  1  0  0 24.0000000  0 10G23G14G03G04G20G01G11G31G32G25
  -7373641.73546  -5547359.24146  23809671.3614   23809671.6234   23809672.296
        39.2004         37.1004
  -4581690.19246  -3547788.71345  23603641.9974   23603641.5414   23603642.002
        38.2004         35.7004
 -22048676.72647 -16936153.94647  21181850.9304   21181852.6954   21181850.137
        47.2004         44.2004
  -4482107.54246  -3220790.76046  24130405.2034   24130407.2244   24130404.062
        39.4004         36.9004
  -8665788.99146  -6728624.33346  22625199.6944   22625201.4554   22625200.576
        40.3004         37.6004
  -8215143.48046  -6138767.62046  23106044.5544   23106048.2884   23106044.009
        40.4004         37.8004
   3437336.33845   3593210.31945  25304516.8634   25304521.4794   25304518.293
        34.2004         33.1004
 -18963097.11847 -14749533.61447  20922865.1444   20922863.9854   20922865.009
        47.7004         44.5004
 -21085940.43748 -15621974.13847  20568804.6594   20568805.6194   20568805.370
        48.6004         45.6004
   -167026.77446   -117765.41045  24474478.1754   24474480.7854   24474478.110
        38.0004         35.9004
 15  1  1  0  0 25.0000000  0 10G23G14G03G04G20G01G11G31G32G25
  -7376244.83046  -5549387.62146  23809175.9184   23809175.7954   23809176.974
        39.2004         37.1004
  -4579341.74046  -3545958.75145  23604088.3114   23604088.8194   23604088.882
        38.0004         35.7004
 -22050619.69247 -16937667.94847  21181480.9224   21181482.8214   21181480.389
        47.2004         44.2004
  -4478963.64146  -3218340.96646  24131002.9844   24131005.1624   24131002.369
        39.4004         36.9004
  -8668631.50346  -6730839.27346  22624658.7604   22624660.3404   22624659.607
        40.1004         37.4004
  -8212940.90946  -6137051.33046  23106463.5434   23106466.9604   23106463.095
        40.4004         37.9004
   3440018.13045   3595300.02745  25305027.9674   25305032.4594   25305028.600
        34.2004         33.1004
 -18961068.67747 -14747953.01247  20923251.2564   20923249.9014   20923250.969
        47.7004         44.5004
 -21085205.20948 -15621401.23547  20568944.6324   20568945.4864   20568945.268
        48.6004         45.4004
   -164386.84346   -115708.31945  24474980.5694   24474982.7294   24474980.425
        38.0004         35.9004
 15  1  1  0  0 26.0000000  0 10G23G14G03G04G20G01G11G31G32G25
  -7378847.89446  -5551415.97846  23808681.0014   23808680.6374   23808681.661
        39.2004         37.1004
  -4576993.17946  -3544128.70245  23604534.8644   23604535.9054   23604535.743
        38.2004         35.7004
 -22052562.19347 -16939181.58247  21181111.2654   21181113.1024   21181110.750
        47.2004         44.2004
  -4475819.69346  -3215891.13846  24131601.1944   24131604.1604   24131600.669
        39.4004         36.9004
  -8671473.67846  -6733053.95046  22624118.1864   22624118.6554   22624118.781
        40.1004         37.6004
  -8210737.95846  -6135334.75046  23106882.6204   23106886.3074   23106882.237
        40.4004         37.9004
   3442699.87445   3597389.69745  25305538.1974   25305543.9114   25305538.962
        34.2004         33.1004
 -18959039.86547 -14746372.11947  20923637.6254   20923635.7944   20923637.026
        47.7004         44.5004
 -21084469.44748 -15620827.91447  20569084.5844   20569085.4874   20569085.262
        48.6004         45.6004
   -161746.40346   -113650.83345  24475483.2414   24475485.6864   24475482.761
        38.0004         35.9004
 15  1  1  0  0 27.0000000  0 10G23G14G03G04G20G01G11G31G32G25
  -7381450.94246  -5553444.31846  23808185.7004   23808184.5944   23808186.363
        39.2004         36.9004
  -4574644.50646  -3542298.56645  23604981.8554   23604983.0824   23604982.680
        38.2004         35.9004
 -22054504.19447 -16940694.83147  21180742.0204   21180743.4714   21180741.201
        47.2004         44.2004
  -4472675.69446  -3213441.27446  24132199.6724   24132202.3734   24132198.960
        39.4004         36.9004
  -8674315.49646  -6735268.35346  22623577.1614   22623578.0854   22623577.970
        40.3004         37.4004
  -8208534.62246  -6133617.86946  23107302.0214   23107305.7674   23107301.545
        40.4004         37.9004
   3445381.58845   3599479.33845  25306048.0944   25306053.8474   25306049.335
        34.2004         33.3004
 -18957010.69247 -14744790.94347  20924023.3014   20924021.8014   20924023.168
        47.7004         44.5004
 -21083733.13848 -15620254.16647  20569224.6544   20569225.5674   20569225.361
        48.6004         45.6004
   -159105.52846   -111593.00945  24475985.5054   24475988.4594   24475985.201
        38.0004         35.9004
 15  1  1  0  0 28.0000000  0 10G23G14G03G04G20G01G11G31G32G25
  -7384053.96346  -5555472.64846  23807689.8394   23807689.8584   23807691.143
        39.2004         36.9004
  -4572295.73046  -3540468.35345  23605428.3124   23605429.5734   23605429.574
        38.2004         35.7004
 -22056445.72747 -16942207.71147  21180372.2984   21180374.2914   21180371.737
        47.2004         44.2004
  -4469531.65446  -3210991.37446  24132797.2974   24132799.8534   24132797.238
        39.4004         36.9004
  -8677156.97046  -6737482.48746  22623036.5674   22623037.6494   22623037.260
        40.3004         37.6004
  -8206330.91446  -6131900.69246  23107721.2584   23107724.4744   23107720.842
        40.4004         37.9004
   3448063.25845   3601568.94345  25306558.4084   25306564.7074   25306559.627
        34.3004         33.3004
 -18954981.15047 -14743209.48547  20924409.4574   20924408.2484   20924409.363
        47.7004         44.5004
 -21082996.31448 -15619680.01747  20569364.8224   20569365.6834   20569365.579
        48.6004         45.6004
   -156464.22046   -109534.84645  24476488.0254   24476491.2084   24476487.805
        38.0004         35.9004
 15  1  1  0  0 29.0000000  0 10G23G14G03G04G20G01G11G31G32G25
  -7386656.94946  -5557500.94546  23807195.0594   23807194.9574   23807195.860
        39.2004         36.7004
  -4569946.82646  -3538638.03745  23605875.7604   23605875.8814   23605876.526
        38.0004         35.7004
 -22058386.76647 -16943720.20847  21180002.9804   21180004.9354   21180002.387
        47.2004         44.2004
  -4466387.54346  -3208541.41646  24133395.4484   24133398.7744   24133395.492
        39.4004         36.9004
  -8679998.10446  -6739696.35446  22622495.4934   22622496.6284   22622496.589
        40.1004         37.6004
  -8204126.80646  -6130183.20046  23108140.4314   23108143.9394   23108140.219
        40.4004         37.8004
   3450744.91945   3603658.55145  25307069.6934   25307074.1704   25307069.865
        34.3004         33.4004
 -18952951.24247 -14741627.73847  20924795.8724   20924794.4744   20924795.663
        47.7004         44.7004
 -21082258.95748 -15619105.45147  20569505.3504   20569505.8584   20569505.894
        48.6004         45.6004
   -153822.44246   -107476.31745  24476990.0924   24476993.9904   24476990.510
        38.0004         35.9004
 15  1  1  0  0 30.0000000  0 10G23G14G03G04G20G01G11G31G32G25
  -7389259.93246  -5559529.23746  23806699.1434   23806698.9854   23806700.564
        39.2004         36.7004
  -4567597.82546  -3536807.64845  23606323.1684   23606322.6984   23606323.534
        38.0004         35.7004
 -22060327.33847 -16945232.33847  21179633.6584   21179635.8484   21179633.127
        47.2004         44.2004
  -4463243.39946  -3206091.43946  24133993.6074   24133997.1994   24133993.808
        39.4004         36.7004
  -8682838.89946  -6741909.95646  22621954.5224   22621956.2354   22621955.998
        40.1004         37.6004
  -8201922.33046  -6128465.42446  23108560.1194   23108563.1224   23108559.661
        40.4004         37.8004
   3453426.52845   3605748.11445  25307580.1574   25307584.5134   25307579.959
        34.3004         33.4004
 -18950920.97747 -14740045.71047  20925182.2284   20925180.6424   20925182.023
        47.7004         44.5004
 -21081521.06348 -15618530.46747  20569645.6704   20569646.3704   20569646.302
        48.6004         45.4004
   -151180.23346   -105417.45245  24477492.8704   24477496.7074   24477493.290
        38.0004         35.9004
 15  1  1  0  0 31.0000000  0 10G23G14G03G04G20G01G11G31G32G25
  -7391862.87446  -5561557.49946  23806202.8374   23806203.3174   23806205.317
        39.2004         36.7004
  -4565248.70546  -3534977.16345  23606769.6974   23606769.4334   23606770.486
        38.0004         35.7004
 -22062267.42347 -16946744.09147  21179264.5234   21179266.6194   21179263.951
        47.2004         44.2004
  -4460099.20246  -3203641.41446  24134591.1794   24134594.8024   24134592.161
        39.4004         36.9004
  -8685679.35346  -6744123.29346  22621414.4404   22621415.8654   22621415.483
        40.1004         37.6004
  -8199717.47746  -6126747.35546  23108979.9784   23108982.6824   23108979.165
        40.4004         37.8004
   3456108.10045   3607837.64945  25308089.9204   25308094.7884   25308090.258
        34.5004         33.4004
 -18948890.34147 -14738463.39647  20925568.7074   20925567.0064   20925568.431
        47.7004         44.5004
 -21080782.64648 -15617955.07547  20569786.1544   20569787.0624   20569786.809
        48.6004         45.4004
   -148537.56846   -103358.23145  24477995.9904   24477999.5054   24477996.188
        38.2004         35.9004
 15  1  1  0  0 32.0000000  0 10G23G14G03G04G20G01G11G31G32G25
  -7394465.79546  -5563585.74746  23805708.0454   23805708.8074   23805710.032
        39.2004         36.9004
  -4562899.48746  -3533146.60445  23607217.4614   23607216.4304   23607217.523
        38.0004         35.5004
 -22064207.03847 -16948255.48047  21178895.1454   21178897.3554   21178894.869
        47.2004         44.2004
  -4456954.97946  -3201191.37346  24135189.2314   24135192.8064   24135190.435
        39.4004         36.9004
  -8688519.45046  -6746336.35246  22620874.2864   22620874.7964   22620875.016
        40.1004         37.4004
  -8197512.24046  -6125028.98846  23109399.3074   23109402.4804   23109398.729
        40.4004         37.6004
   3458789.61045   3609927.13445  25308600.0154   25308604.5674   25308600.498
        34.5004         33.4004
 -18946859.35047 -14736880.80747  20925954.8134   20925953.8264   20925954.900
        47.7004         44.7004
 -21080043.70048 -15617379.27547  20569926.4724   20569927.3334   20569927.408
        48.6004         45.4004
   -145894.45346   -101298.65845  24478499.0414   24478502.4504   24478499.174
        38.0004         35.9004
 15  1  1  0  0 33.0000000  0 10G23G14G03G04G20G01G11G31G32G25
  -7397068.70046  -5565613.98446  23805213.5474   23805213.4954   23805214.750
        39.2004         36.9004
  -4560550.16946  -3531315.96645  23607664.5204   23607663.4084   23607664.583
        38.0004         35.7004
 -22066146.16147 -16949766.48447  21178526.3334   21178528.3454   21178525.824
        47.2004         44.2004
  -4453810.70346  -3198741.29346  24135788.1664   24135791.8074   24135788.760
        39.4004         36.9004
  -8691359.21046  -6748549.15146  22620333.8534   22620334.7174   22620334.523
        40.1004         37.6004
  -8195306.61846  -6123310.32346  23109819.3944   23109822.7234   23109818.346
        40.4004         37.8004
   3461471.07745   3612016.58545  25309109.6864   25309115.5684   25309110.711
        34.5004         33.4004
 -18944827.98647 -14735297.92547  20926341.5374   20926340.3134   20926341.461
        47.7004         44.5004
 -21079304.22148 -15616803.05547  20570067.3594   20570068.4154   20570068.107
        48.6004         45.6004
   -143250.88446    -99238.73445  24479001.8964   24479005.6054   24479002.188
        38.2004         35.9004
 15  1  1  0  0 34.0000000  0 10G23G14G03G04G20G01G11G31G32G25
  -7399671.56846  -5567642.18546  23804718.1364   23804718.0004   23804719.453
        39.2004         36.7004
  -4558200.72346  -3529485.22645  23608111.2934   23608110.8484   23608111.608
        38.0004         35.7004
 -22068084.81047 -16951277.11947  21178157.6834   21178159.4854   21178156.893
        47.2004         44.2004
  -4450666.36446  -3196291.15746  24136387.4224   24136390.7844   24136387.030
        39.4004         37.1004
  -8694198.62046  -6750761.67646  22619793.4124   22619794.7424   22619794.161
        40.1004         37.6004
  -8193100.61946  -6121591.36046  23110239.5054   23110241.8694   23110238.095
        40.4004         37.4004
   3464152.56445   3614106.05445  25309619.4764   25309626.8544   25309621.011
        34.5004         33.3004
 -18942796.25347 -14733714.75747  20926728.4714   20926727.1064   20926728.090
        47.7004         44.5004
 -21078564.21148 -15616226.42247  20570208.2004   20570209.2344   20570208.894
        48.6004         45.6004
   -140606.86746    -97178.45745  24479505.0044   24479508.3974   24479505.339
        38.2004         35.9004
 15  1  1  0  0 35.0000000  0 10G23G14G03G04G20G01G11G31G32G25
  -7402274.43746  -5569670.39946  23804223.5834   23804223.4484   23804224.073
        39.2004         36.7004
  -4555851.17846  -3527654.41545  23608558.2254   23608558.4654   23608558.741
        38.0004         35.7004
 -22070022.98147 -16952787.38047  21177789.0394   21177790.5384   21177788.077
        47.2004         44.2004
  -4447521.96346  -3193840.97746  24136985.5454   24136988.6564   24136985.374
        39.4004         36.9004
  -8697037.69546  -6752973.93946  22619252.8044   22619254.8224   22619253.880
        40.1004         37.6004
  -8190894.25046  -6119872.11546  23110658.9144   23110662.7044   23110657.909
        40.4004         37.6004
   3466833.97845   3616195.46745  25310128.5204   25310136.4694   25310131.288
        34.5004         33.3004
 -18940764.16447 -14732131.31247  20927115.2754   20927113.6794   20927114.774
        47.5004         44.5004
 -21077823.66548 -15615649.37447  20570349.2214   20570350.1984   20570349.806
        48.6004         45.6004
   -137962.41746    -95117.84345  24480008.4074   24480011.4274   24480008.570
        38.2004         35.9004
 15  1  1  0  0 36.0000000  0 10G23G14G03G04G20G01G11G31G32G25
  -7404877.27446  -5571698.57746  23803728.5844   23803726.8234   23803728.701
        39.2004         36.6004
  -4553501.52646  -3525823.51545  23609005.0664   23609006.0474   23609005.840
        38.0004         35.7004
 -22071960.66947 -16954297.26647  21177420.1274   21177421.4034   21177419.374
        47.2004         44.2004
  -4444377.52546  -3191390.76046  24137583.9554   24137586.6374   24137583.715
        39.4004         36.9004
  -8699876.41046  -6755185.92446  22618713.7054   22618714.1554   22618713.685
        40.1004         37.6004
  -8188687.48646  -6118152.55746  23111078.1894   23111082.4324   23111077.854
        40.4004         37.6004
   3469515.33045   3618284.83445  25310639.8874   25310645.8574   25310641.538
        34.5004         33.4004
 -18938731.71547 -14730547.58447  20927501.4024   20927500.1684   20927501.538
        47.5004         44.5004
 -21077082.58748 -15615071.91347  20570490.1104   20570491.0004   20570490.813
        48.6004         45.6004
   -135317.49846    -93056.86545  24480511.9514   24480515.0174   24480511.925
        38.2004         35.9004
 15  1  1  0  0 37.0000000  0 10G23G14G03G04G20G01G11G31G32G25
  -7407480.07046  -5573726.72246  23803233.0314   23803231.4284   23803233.476
        39.2004         36.6004
  -4551151.76546  -3523992.53345  23609452.2304   23609452.6454   23609453.095
        38.0004         35.7004
 -22073897.88547 -16955806.78347  21177051.1714   21177053.2094   21177050.706
        47.2004         44.2004
  -4441233.03046  -3188940.50946  24138182.1644   24138185.0354   24138182.076
        39.4004         36.7004
  -8702714.77946  -6757397.63846  22618172.7204   22618174.1734   22618173.546
        40.1004         37.6004
  -8186480.34146  -6116432.70246  23111498.0314   23111502.5054   23111497.812
        40.4004         37.6004
   3472196.65245   3620374.17445  25311150.4504   25311155.8744   25311152.014
        34.5004         33.4004
 -18936698.89847 -14728963.57247  20927888.5474   20927887.0064   20927888.384
        47.5004         44.5004
 -21076340.97048 -15614494.03147  20570631.2484   20570631.9284   20570631.942
        48.6004         45.6004
   -132672.14746    -90995.55345  24481015.5334   24481019.1874   24481015.410
        38.2004         35.9004
 15  1  1  0  0 38.0000000  0 10G23G14G03G04G20G01G11G31G32G25
  -7410082.85346  -5575754.86246  23802738.0294   23802736.1594   23802738.201
        39.2004         36.6004
  -4548801.88446  -3522161.46145  23609899.0404   23609899.4474   23609900.264
        38.0004         35.7004
 -22075834.61047 -16957315.91747  21176682.7724   21176684.6564   21176682.210
        47.2004         44.2004
  -4438088.49346  -3186490.22146  24138780.5594   24138783.0614   24138780.428
        39.4004         36.7004
  -8705552.81646  -6759609.09646  22617632.8204   22617633.3834   22617633.547
        40.1004         37.6004
  -8184272.82546  -6114712.56246  23111918.1774   23111922.6314   23111917.814
        40.4004         37.8004
   3474877.95845   3622463.50245  25311660.9064   25311666.1894   25311662.412
        34.5004         33.4004
 -18934665.71347 -14727379.26847  20928275.4514   20928274.2794   20928275.274
        47.5004         44.5004
 -21075598.83248 -15613915.73947  20570772.5854   20570773.1174   20570773.168
        48.6004         45.6004
   -130026.34746    -88933.88845  24481519.0504   24481522.3534   24481518.925
        38.2004         35.9004
 15  1  1  0  0 39.0000000  0 10G23G14G03G04G20G01G11G31G32G25
  -7412685.60646  -5577782.97446  23802242.7144   23802241.4454   23802242.896
        39.2004         36.4004
  -4546451.90146  -3520330.30845  23610345.5994   23610347.0504   23610347.460
        38.0004         35.5004
 -22077770.85847 -16958824.68047  21176314.0404   21176316.4694   21176313.761
        47.2004         44.2004
  -4434943.90646  -3184039.89346  24139378.5524   24139381.6704   24139378.812
        39.4004         37.1004
  -8708390.49846  -6761820.27046  22617093.2244   22617093.6494   22617093.514
        40.1004         37.6004
  -8182064.93446  -6112992.12946  23112338.2124   23112342.4954   23112337.975
        40.4004         37.8004
   3477559.22545   3624552.80245  25312171.7394   25312176.0664   25312172.705
        34.7004         33.4004
 -18932632.17347 -14725794.69247  20928662.5014   20928661.1524   20928662.258
        47.5004         44.5004
 -21074856.15748 -15613337.03147  20570913.8354   20570914.7654   20570914.482
        48.6004         45.6004
   -127380.07346    -86871.85645  24482022.4184   24482026.1604   24482022.552
        38.2004         35.9004
 15  1  1  0  0 40.0000000  0 10G23G14G03G04G20G01G11G31G32G25
  -7415288.33946  -5579811.07646  23801747.8464   23801746.6414   23801747.606
        39.2004         36.7004
  -4544101.81546  -3518499.07345  23610793.1274   23610794.1224   23610794.730
        38.0004         35.7004
 -22079706.62947 -16960333.07047  21175945.6374   21175948.0494   21175945.426
        47.2004         44.2004
  -4431799.28046  -3181589.53846  24139976.8864   24139980.3174   24139977.256
        39.4004         36.9004
  -8711227.83746  -6764031.17846  22616553.5134   22616554.0594   22616553.651
        40.1004         37.6004
  -8179856.66146  -6111271.39746  23112758.4094   23112763.0454   23112758.171
        40.4004         37.8004
   3480240.41645   3626642.03745  25312682.5684   25312686.0904   25312683.065
        34.7004         33.4004
 -18930598.27547 -14724209.83647  20929049.4724   20929048.0774   20929049.286
        47.5004         44.7004
 -21074112.95348 -15612757.91047  20571055.2554   20571056.0284   20571055.890
        48.6004         45.6004
   -124733.37446    -84809.49145  24482526.1724   24482529.8364   24482526.107
        38.2004         35.9004
 15  1  1  0  0 41.0000000  0 10G23G14G03G04G20G01G11G31G32G25
  -7417891.05246  -5581839.16546  23801251.9314   23801251.2634   23801252.299
        39.2004         36.9004
  -4541751.63046  -3516667.76145  23611240.4624   23611240.9644   23611241.912
        38.0004         35.5004
 -22081641.90847 -16961841.07847  21175577.9054   21175579.6994   21175577.174
        47.2004         44.2004
  -4428654.59146  -3179139.12746  24140574.9504   24140578.7664   24140575.648
        39.4004         36.7004
  -8714064.83646  -6766241.82646  22616014.1584   22616014.1244   22616013.830
        40.1004         37.6004
  -8177648.00146  -6109550.36546  23113178.9364   23113183.8694   23113178.479
        40.4004         37.8004
   3482921.60045   3628731.27245  25313191.8044   25313197.0014   25313193.320
        34.7004         33.4004
 -18928564.01447 -14722624.69847  20929436.6324   20929435.2704   20929436.372
        47.7004         44.7004
 -21073369.22248 -15612178.37847  20571196.6124   20571197.6324   20571197.402
        48.6004         45.4004
   -122086.21646    -82746.77045  24483029.4694   24483033.4204   24483029.693
        38.2004         35.9004
 15  1  1  0  0 42.0000000  0 10G23G14G03G04G20G01G11G31G32G25
  -7420493.75146  -5583867.24146  23800756.2064   23800756.4914   23800756.982
        39.2004         36.9004
  -4539401.32146  -3514836.35245  23611687.6314   23611688.6434   23611689.196
        38.0004         35.7004
 -22083576.71547 -16963348.72047  21175209.4994   21175211.3374   21175209.000
        47.2004         44.4004
  -4425509.86446  -3176688.70146  24141174.0114   24141177.2564   24141174.013
        39.4004         36.6004
  -8716901.47246  -6768452.18346  22615474.2264   22615474.0884   22615473.992
        40.1004         37.6004
  -8175438.97946  -6107829.05346  23113599.4454   23113604.6374   23113598.777
        40.4004         37.8004
   3485602.74845   3630820.47545  25313702.5384   25313706.1384   25313703.639
        34.7004         33.6004
 -18926529.39147 -14721039.27947  20929823.7224   20929822.5094   20929823.514
        47.7004         44.7004
 -21072624.94348 -15611598.42147  20571338.3324   20571339.0184   20571339.025
        48.6004         45.6004
   -119438.60646    -80683.69645  24483532.9744   24483537.3414   24483533.449
        38.0004         35.9004
 15  1  1  0  0 43.0000000  0 10G23G14G03G04G20G01G11G31G32G25
  -7423096.40546  -5585895.27846  23800260.6344   23800260.7794   23800261.715
        39.2004         36.7004
  -4537050.91746  -3513004.86945  23612134.7504   23612135.6244   23612136.527
        38.0004         35.7004
 -22085511.04047 -16964855.98747  21174841.5504   21174843.1894   21174840.946
        47.2004         44.2004
  -4422365.07946  -3174238.22346  24141772.5224   24141775.3984   24141772.459
        39.4004         36.6004
  -8719737.77546  -6770662.28946  22614934.2794   22614934.4184   22614934.334
        40.3004         37.4004
  -8173229.55946  -6106107.42746  23114019.6614   23114024.3134   23114019.136
        40.4004         37.6004
   3488283.85045   3632909.64445  25314212.6264   25314217.0924   25314213.862
        34.7004         33.6004
 -18924494.39647 -14719453.56847  20930210.7834   20930209.7804   20930210.753
        47.7004         44.7004
 -21071880.13848 -15611018.05247  20571480.0664   20571480.8984   20571480.761
        48.6004         45.4004
   -116790.56346    -78620.28645  24484036.8454   24484040.9274   24484037.220
        38.0004         35.7004
 15  1  1  0  0 44.0000000  0 10G23G14G03G04G20G01G11G31G32G25
  -7425699.04046  -5587923.29746  23799764.7534   23799765.0354   23799766.471
        39.2004         36.7004
  -4534700.39346  -3511173.28945  23612582.2844   23612582.4724   23612583.798
        38.0004         35.7004
 -22087444.88647 -16966362.88047  21174473.1604   21174475.2094   21174472.938
        47.2004         44.2004
  -4419220.25246  -3171787.70946  24142371.2764   24142373.7234   24142370.908
        39.4004         36.7004
  -8722573.73646  -6772872.12946  22614394.0954   22614395.6504   22614394.710
        40.1004         37.6004
  -8171019.75946  -6104385.50446  23114440.2734   23114444.4234   23114439.680
        40.4004         37.8004
   3490964.89945   3634998.77445  25314722.6144   25314726.7364   25314724.091
        34.9004         33.6004
 -18922459.05147 -14717867.58647  20930598.2354   20930597.2154   20930598.068
        47.7004         44.7004
 -21071134.81348 -15610437.28147  20571622.0414   20571622.8474   20571622.599
        48.6004         45.6004
   -114142.05846    -76556.51545  24484540.6624   24484544.9914   24484541.139
        38.0004         35.7004
 15  1  1  0  0 45.0000000  0 10G23G14G03G04G20G01G11G31G32G25
  -7428301.66246  -5589951.31346  23799268.6814   23799269.5074   23799271.194
        39.2004         36.9004
  -4532349.77546  -3509341.64045  23613029.4054   23613030.2184   23613031.151
        38.0004         35.7004
 -22089378.26047 -16967869.40347  21174105.3814   21174107.3434   21174105.040
        47.2004         44.2004
  -4416075.38246  -3169337.16346  24142969.5614   24142971.9734   24142969.349
        39.4004         36.9004
  -8725409.35946  -6775081.70946  22613853.8804   22613856.5204   22613855.020
        40.3004         37.6004
  -8168809.59146  -6102663.29646  23114860.7014   23114865.4414   23114860.271
        40.4004         37.6004
   3493645.92145   3637087.88345  25315233.7994   25315235.7584   25315234.343
        34.7004         33.6004
 -18920423.33847 -14716281.31847  20930985.5334   20930984.6164   20930985.433
        47.7004         44.5004
 -21070388.94448 -15609856.08447  20571763.9524   20571764.5724   20571764.530
        48.6004         45.6004
   -111493.12446    -74492.40945  24485044.9414   24485049.1324   24485045.259
        38.0004         35.7004
 15  1  1  0  0 46.0000000  0 10G23G14G03G04G20G01G11G31G32G25
  -7430904.24446  -5591979.30046  23798773.9144   23798775.0394   23798775.906
        39.2004         36.9004
  -4529999.02246  -3507509.88345  23613477.2334   23613477.8944   23613478.521
        38.0004         35.5004
 -22091311.13847 -16969375.53747  21173737.4314   21173739.3424   21173737.220
        47.2004         44.4004
  -4412930.44746  -3166886.56746  24143568.3924   24143570.4494   24143567.879
        39.4004         36.7004
  -8728244.62746  -6777291.00746  22613313.9524   22613316.5974   22613315.454
        40.3004         37.6004
  -8166599.04646  -6100940.79246  23115281.2814   23115285.8724   23115280.916
        40.3004         37.8004
   3496326.90545   3639176.96145  25315744.1154   25315746.1874   25315744.519
        34.7004         33.6004
 -18918387.26447 -14714694.76447  20931372.9994   20931371.7504   20931372.861
        47.7004         44.5004
 -21069642.54548 -15609274.47347  20571906.0194   20571906.6564   20571906.575
        48.6004         45.4004
   -108843.72746    -72427.94245  24485549.3834   24485553.0044   24485549.496
        38.0004         35.7004
 15  1  1  0  0 47.0000000  0 10G23G14G03G04G20G01G11G31G32G25
  -7433506.80846  -5594007.26746  23798279.2984   23798279.7984   23798280.566
        39.2004         36.9004
  -4527648.19146  -3505678.06345  23613924.4644   23613925.2854   23613925.851
        38.0004         35.5004
 -22093243.53647 -16970881.30147  21173369.8304   21173371.8774   21173369.491
        47.2004         44.4004
  -4409785.47246  -3164435.93546  24144167.6474   24144169.2544   24144166.338
        39.4004         36.9004
  -8731079.55246  -6779500.04246  22612774.7074   22612777.5124   22612775.922
        40.3004         37.6004
  -8164388.09746  -6099217.97846  23115701.8454   23115706.5854   23115701.716
        40.3004         37.6004
   3499007.82845   3641265.99045  25316254.0954   25316256.2974   25316254.718
        34.7004         33.6004
 -18916350.82347 -14713107.92547  20931760.5094   20931759.2874   20931760.373
        47.7004         44.7004
 -21068895.60348 -15608692.44147  20572048.1614   20572048.7684   20572048.682
        48.6004         45.4004
   -106193.87846    -70363.12545  24486053.3404   24486057.5004   24486053.834
        38.0004         35.7004
 15  1  1  0  0 48.0000000  0 10G23G14G03G04G20G01G11G31G32G25
  -7436109.35046  -5596035.22146  23797785.8044   23797784.3194   23797785.234
        39.2004         36.7004
  -4525297.23146  -3503846.14445  23614371.6684   23614372.2644   23614373.134
        38.0004         35.5004
 -22095175.46147 -16972386.69847  21173001.9684   21173004.3194   21173001.834
        47.2004         44.4004
  -4406640.45046  -3161985.26946  24144765.7704   24144767.3204   24144764.792
        39.4004         36.9004
  -8733914.12946  -6781708.80346  22612235.9464   22612237.6324   22612236.453
        40.3004         37.4004
  -8162176.79346  -6097494.88546  23116122.8094   23116127.2944   23116122.542
        40.3004         37.6004
   3501688.71445   3643354.99145  25316764.0584   25316766.8084   25316764.751
        34.9004         33.6004
 -18914314.01247 -14711520.80047  20932148.1434   20932147.2864   20932147.977
        47.7004         44.5004
 -21068148.14648 -15608110.00347  20572190.5454   20572191.1444   20572190.931
        48.6004         45.6004
   -103543.60846    -68297.97945  24486557.7464   24486561.5624   24486558.210
        38.0004         35.7004
 15  1  1  0  0 49.0000000  0 10G23G14G03G04G20G01G11G31G32G25
  -7438711.85546  -5598063.14046  23797291.5344   23797289.3774   23797290.023
        39.2004         36.7004
  -4522946.17246  -3502014.14945  23614819.1804   23614819.7374   23614820.549
        38.0004         35.7004
 -22097106.90347 -16973891.71447  21172634.6944   21172636.7564   21172634.298
        47.2004         44.4004
  -4403495.38046  -3159534.56446  24145364.5854   24145365.6594   24145363.334
        39.4004         36.9004
  -8736748.38246  -6783917.30546  22611696.4094   22611697.7484   22611697.078
        40.3004         37.6004
  -8159965.10146  -6095771.48846  23116543.9344   23116547.9534   23116543.341
        40.3004         37.8004
   3504369.59045   3645443.98345  25317273.8574   25317276.4024   25317274.955
        34.9004         33.6004
 -18912276.84447 -14709933.39547  20932535.9694   20932534.8574   20932535.595
        47.7004         44.5004
 -21067400.15648 -15607527.15447  20572332.3794   20572333.7144   20572333.264
        48.6004         45.4004
   -100892.87246    -66232.47045  24487061.8104   24487066.1254   24487062.642
        38.0004         35.9004
 15  1  1  0  0 50.0000000  0 10G23G14G03G04G20G01G11G31G32G25
  -7441314.35246  -5600091.05646  23796795.2684   23796793.8544   23796794.823
        39.2004         36.7004
  -4520594.99846  -3500182.06345  23615266.9014   23615267.9224   23615267.899
        38.0004         35.5004
 -22099037.85947 -16975396.35747  21172267.2704   21172269.4124   21172266.840
        47.2004         44.4004
  -4400350.25046  -3157083.81646  24145963.2684   24145965.0754   24145961.873
        39.4004         37.1004
  -8739582.26146  -6786125.51846  22611157.7514   22611158.6934   22611157.840
        40.3004         37.4004
  -8157753.03146  -6094047.79446  23116965.3514   23116968.8024   23116964.270
        40.3004         37.8004
   3507050.41245   3647532.93245  25317783.6834   25317786.7314   25317785.251
        34.9004         33.6004
 -18910239.31047 -14708345.70747  20932923.7674   20932922.3744   20932923.309
        47.7004         44.5004
 -21066651.62548 -15606943.88147  20572475.0284   20572475.9994   20572475.675
        48.6004         45.4004
    -98241.69246    -64166.61245  24487566.4874   24487570.6544   24487567.215
        38.0004         35.9004
 15  1  1  0  0 51.0000000  0 10G23G14G03G04G20G01G11G31G32G25
  -7443916.80546  -5602118.93746  23796300.4444   23796298.8634   23796299.600
        39.2004         36.9004
  -4518243.70846  -3498349.89045  23615714.8624   23615714.9304   23615715.298
        38.0004         35.7004
 -22100968.33147 -16976900.61947  21171899.8774   21171901.8964   21171899.466
        47.2004         44.4004
  -4397205.09546  -3154633.05046  24146561.3444   24146562.6694   24146560.403
        39.4004         37.1004
  -8742415.79546  -6788333.46346  22610618.8134   22610618.6884   22610618.685
        40.3004         37.4004
  -8155540.58246  -6092323.80646  23117386.2624   23117389.2554   23117385.359
        40.3004         37.8004
   3509731.18545   3649621.84445  25318294.2674   25318296.5394   25318295.473
        34.9004         33.6004
 -18908201.41447 -14706757.73547  20933311.3954   20933310.0604   20933311.105
        47.5004         44.5004
 -21065902.57048 -15606360.20347  20572617.4034   20572618.5784   20572618.214
        48.6004         45.4004
    -95590.06446    -62100.40645  24488070.7164   24488075.3084   24488071.829
        38.0004         35.7004
 15  1  1  0  0 52.0000000  0 10G23G14G03G04G20G01G11G31G32G25
  -7446519.24946  -5604146.81746  23795805.1554   23795803.2474   23795804.354
        39.2004         36.9004
  -4515892.32346  -3496517.63945  23616162.6444   23616161.4244   23616162.705
        38.0004         35.5004
 -22102898.33047 -16978404.51447  21171532.5264   21171534.6124   21171532.217
        47.2004         44.4004
  -4394059.86746  -3152182.22046  24147159.8634   24147161.8134   24147159.006
        39.4004         36.9004
  -8745249.00046  -6790541.15446  22610079.8374   22610079.2604   22610079.594
        40.1004         37.4004
  -8153327.74346  -6090599.51646  23117807.5284   23117809.7584   23117806.434
        40.3004         37.8004
   3512411.92645   3651710.73345  25318804.6094   25318806.4704   25318805.559
        34.9004         33.6004
 -18906163.14947 -14705169.47647  20933699.1254   20933698.1624   20933698.968
        47.7004         44.7004
 -21065152.97548 -15605776.10347  20572760.2014   20572761.1024   20572760.829
        48.6004         45.4004
    -92937.98346    -60033.84645  24488575.7654   24488580.0544   24488576.533
        38.0004         35.9004
 15  1  1  0  0 53.0000000  0 10G23G14G03G04G20G01G11G31G32G25
  -7449121.66646  -5606174.66446  23795309.5934   23795307.7554   23795309.158
        39.2004         36.9004
  -4513540.82246  -3494685.29845  23616609.8214   23616609.6404   23616610.177
        38.0004         35.7004
 -22104827.84747 -16979908.03147  21171165.4674   21171167.3474   21171165.028
        47.2004         44.4004
  -4390914.60746  -3149731.36846  24147758.2614   24147759.6974   24147757.569
        39.4004         36.7004
  -8748081.86146  -6792748.57746  22609541.3044   22609540.8384   22609540.572
        40.1004         37.4004
  -8151114.55746  -6088874.95846  23118228.3764   23118231.3254   23118227.607
        40.3004         37.8004
   3515092.62445   3653799.58545  25319314.9274   25319317.0034   25319315.723
        34.9004         33.4004
 -18904124.53247 -14703580.94547  20934087.2444   20934086.0614   20934086.900
        47.5004         44.5004
 -21064402.85848 -15605191.59547  20572903.0284   20572903.7654   20572903.586
        48.6004         45.6004
    -90285.45346    -57966.93845  24489080.7274   24489085.0884   24489081.288
        38.0004         35.9004
 15  1  1  0  0 54.0000000  0 10G23G14G03G04G20G01G11G31G32G25
  -7451724.05046  -5608202.49146  23794813.6464   23794812.9594   23794814.007
        39.2004         36.9004
  -4511189.22946  -3492852.88645  23617057.6074   23617057.1824   23617057.585
        38.0004         35.7004
 -22106756.87847 -16981411.17147  21170798.3274   21170800.2264   21170797.931
        47.2004         44.4004
  -4387769.31646  -3147280.49846  24148356.1614   24148358.1964   24148356.081
        39.4004         36.7004
  -8750914.35446  -6794955.70846  22609002.0584   22609002.2684   22609001.631
        40.3004         37.6004
  -8148900.98846  -6087150.09746  23118649.7984   23118652.7194   23118648.924
        40.3004         37.8004
   3517773.27345   3655888.40145  25319825.4214   25319827.2444   25319825.779
        34.9004         33.4004
 -18902085.54047 -14701992.12147  20934474.8614   20934473.9004   20934474.894
        47.7004         44.5004
 -21063652.20748 -15604606.67447  20573045.8814   20573046.5674   20573046.410
        48.6004         45.4004
    -87632.46846    -55899.67245  24489585.4554   24489589.8784   24489586.040
        38.0004         35.9004
 15  1  1  0  0 55.0000000  0 10G23G14G03G04G20G01G11G31G32G25
  -7454326.42746  -5610230.31146  23794318.5874   23794316.6444   23794318.802
        39.2004         36.9004
  -4508837.50346  -3491020.37245  23617504.4934   23617504.3984   23617505.031
        38.0004         35.7004
 -22108685.42147 -16982913.93047  21170431.3064   21170433.6254   21170430.951
        47.2004         44.4004
  -4384623.96546  -3144829.57446  24148954.4534   24148957.0454   24148954.677
        39.4004         36.9004
  -8753746.52146  -6797162.59146  22608463.5514   22608463.6654   22608462.756
        40.1004         37.6004
  -8146687.02146  -6085424.92746  23119071.1704   23119073.9224   23119070.278
        40.3004         37.8004
   3520453.86445   3657977.17345  25320334.5534   25320337.8524   25320335.740
        34.9004         33.4004
 -18900046.19247 -14700403.01547  20934862.9964   20934862.0154   20934862.980
        47.7004         44.7004
 -21062901.00848 -15604021.32647  20573188.8084   20573189.6644   20573189.342
        48.6004         45.4004
    -84979.05946    -53832.07945  24490090.1594   24490094.9684   24490090.938
        38.0004         35.7004
 15  1  1  0  0 56.0000000  0 10G23G14G03G04G20G01G11G31G32G25
  -7456928.76546  -5612258.10546  23793822.7864   23793821.8254   23793823.513
        39.2004         36.9004
  -4506485.68446  -3489187.78645  23617951.9934   23617952.1404   23617952.542
        38.0004         35.7004
 -22110613.48547 -16984416.31347  21170064.9354   21170066.7234   21170064.052
        47.2004         44.4004
  -4381478.55946  -3142378.60946  24149553.6984   24149555.5004   24149553.249
        39.4004         36.9004
  -8756578.33146  -6799369.19946  22607924.7324   22607925.3804   22607923.865
        40.3004         37.8004
  -8144472.68046  -6083699.46846  23119491.9584   23119495.6004   23119491.589
        40.3004         37.8004
   3523134.43045   3660065.92245  25320845.5174   25320848.2494   25320845.851
        34.9004         33.4004
 -18898006.49247 -14698813.63647  20935251.1764   20935250.1204   20935251.118
        47.7004         44.5004
 -21062149.29748 -15603435.57147  20573332.0404   20573332.6334   20573332.373
        48.6004         45.4004
    -82325.19246    -51764.12845  24490595.2814   24490599.7194   24490595.957
        38.0004         35.7004
 15  1  1  0  0 57.0000000  0 10G23G14G03G04G20G01G11G31G32G25
  -7459531.09346  -5614285.88846  23793326.8314   23793326.3834   23793328.194
        39.2004         36.7004
  -4504133.75646  -3487355.11345  23618399.8934   23618399.6964   23618400.151
        38.0004         35.5004
 -22112541.07947 -16985918.33647  21169698.0894   21169699.7944   21169697.309
        47.2004         44.4004
  -4378333.11746  -3139927.61946  24150152.2434   24150154.4074   24150151.859
        39.4004         36.7004
  -8759409.80446  -6801575.53846  22607386.2214   22607386.1274   22607385.029
        40.3004         37.6004
  -8142257.98346  -6081973.72946  23119913.2984   23119917.0194   23119912.998
        40.3004         37.8004
   3525814.97145   3662154.65445  25321355.3714   25321358.6774   25321355.936
        34.9004         33.4004
 -18895966.42647 -14697223.97547  20935639.9854   20935638.5394   20935639.305
        47.7004         44.5004
 -21061397.06048 -15602849.41447  20573475.0164   20573475.7884   20573475.522
        48.6004         45.4004
    -79670.88846    -49695.83845  24491100.3804   24491104.8114   24491100.982
        38.0004         35.7004
 15  1  1  0  0 58.0000000  0 10G23G14G03G04G20G01G11G31G32G25
  -7462133.38146  -5616313.64246  23792831.5424   23792831.5444   23792832.952
        39.2004         36.9004
  -4501781.71346  -3485522.35145  23618846.9624   23618846.8254   23618847.665
        38.0004         35.5004
 -22114468.18347 -16987419.97247  21169330.7994   21169332.7644   21169330.605
        47.2004         44.4004
  -4375187.62246  -3137476.58146  24150750.7314   24150752.7284   24150750.419
        39.4004         36.9004
  -8762240.93946  -6803781.61246  22606846.9314   22606846.9754   22606846.285
        40.3004         37.6004
  -8140042.89946  -6080247.69246  23120334.6694   23120338.5524   23120334.477
        40.3004         37.6004
   3528495.46545   3664243.34945  25321865.5604   25321868.7854   25321865.972
        35.0004         33.4004
 -18893925.99347 -14695634.03047  20936027.9374   20936027.1214   20936027.586
        47.7004         44.5004
 -21060644.28948 -15602262.83947  20573618.0814   20573619.2454   20573618.763
        48.6004         45.6004
    -77016.12746    -47627.19045  24491605.6254   24491609.8884   24491606.213
        38.0004         35.7004
 15  1  1  0  0 59.0000000  0 10G23G14G03G04G20G01G11G31G32G25
  -7464735.64446  -5618341.37746  23792337.1184   23792337.0884   23792337.751
        39.2004         36.9004
  -4499429.56446  -3483689.50745  23619295.2424   23619294.3394   23619295.261
        37.8004         35.5004
 -22116394.81447 -16988921.23947  21168964.4114   21168966.3794   21168963.975
        47.2004         44.4004
  -4372042.06846  -3135025.50346  24151349.3634   24151351.4114   24151348.962
        39.4004         37.1004
  -8765071.72946  -6805987.42046  22606307.3564   22606307.2004   22606307.595
        40.3004         37.6004
  -8137827.42646  -6078521.35146  23120756.5984   23120760.2994   23120756.061
        40.3004         37.8004
   3531175.90145   3666331.99845  25322376.0524   25322379.0034   25322376.020
        35.0004         33.4004
 -18891885.20547 -14694043.80447  20936416.1584   20936415.2184   20936415.948
        47.7004         44.5004
 -21059890.97148 -15601675.83447  20573761.4254   20573762.4234   20573762.127
        48.6004         45.6004
    -74360.92046    -45558.19445  24492111.1304   24492115.3334   24492111.404
        38.0004         35.5004
 15  1  1  0  1  0.0000000  0 10G23G14G03G04G20G01G11G31G32G25
  -7467337.89546  -5620369.10046  23791841.5934   23791841.7804   23791842.608
        39.2004         37.1004
  -4497077.31146  -3481856.58345  23619742.8134   23619741.8344   23619742.916
        37.8004         35.7004
 -22118320.95347 -16990422.12747  21168597.7344   21168599.9134   21168597.472
        47.2004         44.4004
  -4368896.46846  -3132574.38346  24151947.6524   24151949.9304   24151947.549
        39.4004         36.9004
  -8767902.16946  -6808192.95446  22605768.7104   22605768.6074   22605768.981
        40.3004         37.6004
  -8135611.57046  -6076794.70846  23121178.2144   23121181.7154   23121177.710
        40.3004         37.8004
   3533856.32145   3668420.63545  25322885.7184   25322889.3614   25322885.969
        35.0004         33.4004
 -18889844.04647 -14692453.29247  20936804.6024   20936803.5844   20936804.366
        47.7004         44.5004
 -21059137.12648 -15601088.42347  20573905.0234   20573905.9444   20573905.578
        48.6004         45.6004
    -71705.27946    -43488.86045  24492616.3144   24492620.3814   24492616.843
        38.0004         35.5004
 15  1  1  0  1  1.0000000  0 10G23G14G03G04G20G01G11G31G32G25
  -7469940.11346  -5622396.79946  23791346.7794   23791346.3774   23791347.433
        39.2004         37.1004
  -4494724.94746  -3480023.57445  23620190.6774   23620189.9814   23620190.517
        37.8004         35.5004
 -22120246.60847 -16991922.63647  21168231.4744   21168233.2884   21168231.050
        47.2004         44.4004
  -4365750.83546  -3130123.24546  24152545.7844   24152548.9044   24152546.088
        39.4004         37.1004
  -8770732.26846  -6810398.22446  22605229.8754   22605229.8324   22605230.443
        40.3004         37.6004
  -8133395.35746  -6075067.78846  23121600.2694   23121603.4084   23121599.442
        40.3004         37.8004
   3536536.67345   3670509.21245  25323395.8254   25323399.3264   25323396.075
        34.9004         33.4004
 -18887802.53347 -14690862.50347  20937193.3174   20937191.9394   20937192.859
        47.7004         44.5004
 -21058382.75548 -15600500.60247  20574048.3844   20574049.3774   20574049.136
        48.6004         45.4004
    -69049.18046    -41419.17445  24493121.7094   24493125.7274   24493122.295
        38.0004         35.5004
 15  1  1  0  1  2.0000000  0 10G23G14G03G04G20G01G11G31G32G25
  -7472542.30646  -5624424.48246  23790851.2634   23790851.3914   23790852.198
        39.2004         36.9004
  -4492372.46746  -3478190.47345  23620638.2924   23620637.5564   23620638.170
        37.8004         35.5004
 -22122171.79147 -16993422.78147  21167865.2624   21167866.9334   21167864.730
        47.4004         44.4004
  -4362605.14146  -3127672.06346  24153143.7334   24153147.5174   24153144.600
        39.4004         36.9004
  -8773562.00946  -6812603.21746  22604692.0654   22604691.7604   22604692.002
        40.3004         37.6004
  -8131178.77446  -6073340.58046  23122021.9064   23122025.3794   23122021.228
        40.3004         37.8004
   3539216.98545   3672597.76145  25323905.6624   25323910.3334   25323906.039
        34.9004         33.4004
 -18885760.65847 -14689271.43047  20937581.8844   20937580.7524   20937581.432
        47.5004         44.5004
 -21057627.84748 -15599912.36147  20574192.3264   20574193.1964   20574192.814
        48.6004         45.4004
    -66392.63546    -39349.13745  24493627.1544   24493631.0714   24493627.871
        38.0004         35.7004
 15  1  1  0  1  3.0000000  0 10G23G14G03G04G20G01G11G31G32G25
  -7475144.47846  -5626452.14746  23790355.9874   23790357.2304   23790357.020
        39.2004         36.7004
  -4490019.89046  -3476357.29245  23621085.8834   23621085.0794   23621085.878
        37.8004         35.5004
 -22124096.48647 -16994922.53847  21167499.0514   21167500.7684   21167498.473
        47.4004         44.4004
  -4359459.39346  -3125220.83646  24153742.4964   24153746.5224   24153743.260
        39.4004         36.9004
  -8776391.40946  -6814807.94346  22604152.7314   22604153.5124   22604153.694
        40.3004         37.8004
  -8128961.77546  -6071613.04746  23122443.6824   23122447.2744   23122443.089
        40.3004         37.6004
   3541897.27845   3674686.29845  25324416.0314   25324420.8174   25324416.072
        34.9004         33.4004
 -18883718.42347 -14687680.07547  20937970.4364   20937969.3894   20937970.070
        47.5004         44.5004
 -21056872.41648 -15599323.71247  20574336.1754   20574336.7604   20574336.566
        48.6004         45.4004
    -63735.65446    -37278.76045  24494132.7924   24494136.1544   24494133.509
        38.0004         35.7004
 15  1  1  0  1  4.0000000  0 10G23G14G03G04G20G01G11G31G32G25
  -7477746.62046  -5628479.78446  23789861.0294   23789861.2454   23789861.752
        39.2004         36.7004
  -4487667.19446  -3474524.02245  23621533.4254   23621532.2224   23621533.521
        37.8004         35.5004
 -22126020.69247 -16996421.91747  21167132.5264   21167134.5174   21167132.337
        47.4004         44.4004
  -4356313.62646  -3122769.58746  24154340.6004   24154346.0564   24154341.833
        39.4004         36.9004
  -8779220.45546  -6817012.39546  22603614.4544   22603616.1334   22603615.398
        40.3004         37.6004
  -8126744.42846  -6069885.24546  23122865.0294   23122868.6774   23122865.038
        40.3004         37.6004
   3544577.49745   3676774.77645  25324926.3994   25324930.8504   25324926.134
        34.9004         33.4004
 -18881675.81847 -14686088.43847  20938359.1834   20938357.8324   20938358.779
        47.5004         44.7004
 -21056116.44548 -15598734.64547  20574479.9944   20574480.4694   20574480.427
        48.6004         45.4004
    -61078.20946    -35208.02145  24494638.5134   24494641.7134   24494639.244
        38.0004         35.7004
 15  1  1  0  1  5.0000000  0 10G23G14G03G04G20G01G11G31G32G25
  -7480348.74646  -5630507.41246  23789366.1464   23789365.7624   23789366.547
        39.2004         36.7004
  -4485314.40146  -3472690.67645  23621981.1004   23621979.6884   23621981.222
        37.8004         35.5004
 -22127944.41947 -16997920.92247  21166766.5644   21166768.3834   21166766.287
        47.4004         44.4004
  -4353167.81246  -3120318.29746  24154938.2474   24154944.8674   24154940.453
        39.2004         36.9004
  -8782049.14646  -6819216.56846  22603076.4044   22603077.3464   22603077.137
        40.3004         37.8004
  -8124526.69746  -6068157.14446  23123287.6194   23123290.9744   23123287.068
        40.3004         37.8004
   3547257.70045   3678863.24445  25325436.9314   25325440.4294   25325436.264
        34.9004         33.4004
 -18879632.85547 -14684496.51847  20938747.9374   20938746.8014   20938747.562
        47.5004         44.5004
 -21055359.94548 -15598145.16747  20574623.6764   20574624.7294   20574624.403
        48.6004         45.4004
    -58420.34046    -33136.95045  24495144.4384   24495147.1674   24495145.044
        38.0004         35.7004
 15  1  1  0  1  6.0000000  0 10G23G14G03G04G20G01G11G31G32G25
  -7482950.85046  -5632535.02246  23788870.6964   23788869.5744   23788871.427
        39.2004         36.9004
  -4482961.49346  -3470857.24545  23622429.0414   23622429.0054   23622428.938
        37.8004         35.3004
 -22129867.67947 -16999419.56447  21166400.4204   21166402.6174   21166400.307
        47.4004         44.4004
  -4350021.94046  -3117866.96746  24155536.5744   24155542.7714   24155539.108
        39.4004         37.1004
  -8784877.50346  -6821420.48046  22602537.8014   22602539.2294   22602538.951
        40.3004         37.6004
  -8122308.58546  -6066428.75146  23123709.9364   23123713.4684   23123709.155
        40.3004         37.6004
   3549937.84245   3680951.66545  25325947.0854   25325948.9254   25325946.177
        34.9004         33.3004
 -18877589.53147 -14682904.31347  20939136.5324   20939135.4764   20939136.406
        47.5004         44.5004
 -21054602.91248 -15597555.26547  20574767.8754   20574768.6094   20574768.480
        48.6004         45.4004
    -55762.01346    -31065.52245  24495650.3924   24495653.0904   24495650.870
        38.0004         35.7004
 15  1  1  0  1  7.0000000  0 10G23G14G03G04G20G01G11G31G32G25
  -7485552.92246  -5634562.60646  23788374.8214   23788374.9594   23788376.332
        39.2004         36.7004
  -4480608.49246  -3469023.74045  23622876.7574   23622876.7254   23622876.715
        37.8004         35.3004
 -22131790.43047 -17000917.81547  21166034.5464   21166036.6364   21166034.423
        47.4004         44.4004
  -4346876.03246  -3115415.60646  24156136.4764   24156140.3234   24156137.693
        39.4004         37.1004
  -8787705.51046  -6823624.12446  22601999.9304   22602000.8074   22602000.725
        40.3004         37.6004
  -8120090.10446  -6064700.06446  23124131.9204   23124135.3544   23124131.302
        40.3004         37.6004
   3552617.94945   3683040.05045  25326457.6614   25326459.0614   25326456.255
        34.9004         33.4004
 -18875545.84447 -14681311.83547  20939525.7854   20939524.7174   20939525.289
        47.5004         44.5004
 -21053845.33848 -15596964.94947  20574912.2524   20574912.9884   20574912.637
        48.6004         45.4004
    -53103.22446    -28993.73845  24496156.3524   24496159.7204   24496156.821
        38.0004         35.7004
 15  1  1  0  1  8.0000000  0 10G23G14G03G04G20G01G11G31G32G25
  -7488154.97846  -5636590.17546  23787880.0044   23787880.2504   23787881.184
        39.2004         36.7004
  -4478255.36746  -3467190.12945  23623324.4114   23623324.5364   23623324.392
        37.8004         35.5004
 -22133712.70647 -17002415.69047  21165668.5174   21165670.7134   21165668.617
        47.4004         44.4004
  -4343730.09146  -3112964.23146  24156736.1374   24156739.2514   24156736.369
        39.4004         37.1004
  -8790533.16146  -6825827.48346  22601461.8334   22601462.7634   22601462.612
        40.3004         37.6004
  -8117871.22946  -6062971.07046  23124553.7704   23124557.1134   23124553.494
        40.3004         37.6004
   3555298.01645   3685128.41245  25326967.9104   25326969.1554   25326966.246
        34.9004         33.4004
 -18873501.79847 -14679719.07047  20939914.7264   20939913.3764   20939914.252
        47.5004         44.7004
 -21053087.24548 -15596374.22747  20575056.2144   20575057.0934   20575056.896
        48.6004         45.4004
    -50444.01346    -26921.62445  24496662.3554   24496665.7824   24496662.861
        38.0004         35.7004
 15  1  1  0  1  9.0000000  0 10G23G14G03G04G20G01G11G31G32G25
  -7490756.99946  -5638617.72646  23787385.1644   23787385.5794   23787385.969
        39.2004         36.7004
  -4475902.13346  -3465356.44145  23623771.6624   23623772.2584   23623772.194
        37.8004         35.3004
 -22135634.50447 -17003913.19547  21165303.0454   21165305.1014   21165302.894
        47.4004         44.4004
  -4340584.07446  -3110512.78546  24157335.3414   24157337.4954   24157335.018
        39.4004         36.9004
  -8793360.45746  -6828030.57246  22600923.1674   22600925.0124   22600924.535
        40.3004         37.8004
  -8115652.00246  -6061241.80546  23124975.7504   23124979.3624   23124975.856
        40.3004         37.6004
   3557978.03445   3687216.73345  25327477.3744   25327479.6854   25327476.189
        34.9004         33.4004
 -18871457.39047 -14678126.02447  20940303.4894   20940302.3584   20940303.272
        47.5004         44.5004
 -21052328.61148 -15595783.08347  20575200.7204   20575201.5544   20575201.273
        48.6004         45.4004
    -47784.35646    -24849.16445  24497168.2254   24497171.9894   24497168.940
        38.0004         35.7004
 15  1  1  0  1 10.0000000  0 10G23G14G03G04G20G01G11G31G32G25
  -7493359.00046  -5640645.25746  23786890.2354   23786890.5954   23786890.869
        39.2004         36.7004
  -4473548.79246  -3463522.66645  23624219.2584   23624219.5854   23624219.944
        37.8004         35.5004
 -22137555.81747 -17005410.31747  21164937.5894   21164939.1604   21164937.255
        47.4004         44.4004
  -4337438.01346  -3108061.31646  24157934.2164   24157936.3304   24157933.681
        39.2004         36.9004
  -8796187.40346  -6830233.38846  22600385.4484   22600387.2744   22600386.599
        40.3004         37.8004
  -8113432.37546  -6059512.22446  23125397.9704   23125402.0664   23125398.324
        40.3004         37.8004
   3560658.02845   3689305.03545  25327986.7074   25327988.5044   25327986.125
        34.9004         33.4004
 -18869412.62447 -14676532.70047  20940692.2374   20940691.5314   20940692.404
        47.5004         44.5004
 -21051569.44448 -15595191.52447  20575345.0294   20575346.0154   20575345.751
        48.6004         45.4004
    -45124.24546    -22776.35045  24497674.8394   24497678.4714   24497675.066
        38.0004         35.5004
 15  1  1  0  1 11.0000000  0 10G23G14G03G04G20G01G11G31G32G25
  -7495960.97046  -5642672.76346  23786395.2734   23786394.6844   23786395.739
        39.2004         36.7004
  -4471195.35146  -3461688.82145  23624667.1034   23624667.7374   23624667.785
        37.8004         35.5004
 -22139476.65547 -17006907.07447  21164572.4014   21164574.1464   21164571.738
        47.4004         44.4004
  -4334291.91446  -3105609.81746  24158533.1364   24158535.0084   24158532.349
        39.2004         36.7004
  -8799014.01746  -6832435.94546  22599846.9374   22599849.2774   22599848.699
        40.3004         37.8004
  -8111212.39446  -6057782.36946  23125820.8844   23125825.1564   23125820.831
        40.3004         37.8004
   3563337.96445   3691393.29345  25328496.0584   25328498.1434   25328496.133
        34.9004         33.4004
 -18867367.49847 -14674939.09847  20941081.7974   20941080.7004   20941081.597
        47.5004         44.7004
 -21050809.75848 -15594599.56147  20575489.8644   20575490.6554   20575490.309
        48.6004         45.4004
    -42463.68146    -20703.18345  24498180.9544   24498184.9134   24498181.296
        37.8004         35.5004
 15  1  1  0  1 12.0000000  0 10G23G14G03G04G20G01G11G31G32G25
  -7498562.92946  -5644700.26146  23785900.7784   23785900.0144   23785900.679
        39.2004         36.6004
  -4468841.80846  -3459854.89445  23625115.4764   23625115.7984   23625115.655
        37.8004         35.3004
 -22141396.99347 -17008403.43947  21164206.7704   21164208.7464   21164206.262
        47.4004         44.4004
  -4331145.75946  -3103158.26746  24159131.9714   24159133.5824   24159131.013
        39.2004         36.6004
  -8801840.27846  -6834638.22246  22599309.3104   22599311.0544   22599310.830
        40.3004         37.8004
  -8108992.01446  -6056052.20646  23126243.2824   23126248.6224   23126243.333
        40.3004         37.8004
   3566017.86745   3693481.52345  25329006.2374   25329009.3034   25329006.111
        34.9004         33.4004
 -18865322.00947 -14673345.20747  20941470.9674   20941470.0474   20941470.841
        47.5004         44.7004
 -21050049.53548 -15594007.17947  20575634.5184   20575634.8974   20575634.995
        48.6004         45.4004
    -39802.67446    -18629.67245  24498687.2514   24498691.5314   24498687.648
        37.8004         35.5004
 15  1  1  0  1 13.0000000  0 10G23G14G03G04G20G01G11G31G32G25
  -7501164.84346  -5646727.72946  23785405.8824   23785403.9684   23785405.582
        39.2004         36.7004
  -4466488.13446  -3458020.86245  23625563.4734   23625563.3854   23625563.507
        37.8004         35.3004
 -22143316.86247 -17009899.44047  21163841.4674   21163843.2344   21163840.950
        47.4004         44.4004
  -4327999.54846  -3100706.67046  24159730.4034   24159732.3304   24159729.704
        39.2004         36.7004
  -8804666.20746  -6836840.23846  22598771.8084   22598772.4504   22598773.075
        40.3004         37.8004
  -8106771.28646  -6054321.76646  23126665.9894   23126670.6894   23126665.988
        40.3004         37.6004
   3568697.71445   3695569.71545  25329516.0364   25329519.3884   25329516.184
        34.9004         33.4004
 -18863276.16447 -14671751.04247  20941860.1694   20941859.2904   20941860.174
        47.5004         44.5004
 -21049288.78448 -15593414.38547  20575779.2474   20575779.8534   20575779.752
        48.6004         45.6004
    -37141.23546    -16555.82345  24499193.6014   24499198.3264   24499194.106
        37.8004         35.5004
 15  1  1  0  1 14.0000000  0 10G23G14G03G04G20G01G11G31G32G25
  -7503766.74646  -5648755.18046  23784910.7524   23784909.2704   23784910.400
        39.2004         36.7004
  -4464134.37346  -3456186.76245  23626011.4954   23626011.7014   23626011.431
        37.8004         35.5004
 -22145236.24547 -17011395.06247  21163475.9774   21163478.4224   21163475.714
        47.4004         44.4004
  -4324853.30446  -3098255.05746  24160328.7354   24160330.6964   24160328.394
        39.2004         36.9004
  -8807491.77246  -6839041.97546  22598234.7494   22598234.6664   22598235.456
        40.3004         37.8004
  -8104550.15946  -6052591.01946  23127088.6614   23127093.3434   23127088.716
        40.3004         37.6004
   3571377.51645   3697657.87145  25330025.9514   25330029.0334   25330026.041
        34.9004         33.4004
 -18861229.95347 -14670156.59047  20942249.8274   20942248.6204   20942249.571
        47.5004         44.5004
 -21048527.50348 -15592821.17947  20575924.1424   20575924.8994   20575924.620
        48.6004         45.6004
    -34479.31146    -14481.59645  24499700.2364   24499704.6154   24499700.643
        37.8004         35.5004
 15  1  1  0  1 15.0000000  0 10G23G14G03G04G20G01G11G31G32G25
  -7506368.62046  -5650782.60546  23784415.7244   23784414.3434   23784415.290
        39.2004         36.9004
  -4461780.47346  -3454352.55345  23626459.2434   23626459.8034   23626459.354
        37.8004         35.5004
 -22147155.14047 -17012890.30247  21163111.0114   21163112.7214   21163110.563
        47.4004         44.5004
  -4321707.03246  -3095803.41646  24160926.1194   24160929.8544   24160927.117
        39.2004         36.9004
  -8810316.99746  -6841243.44746  22597696.9404   22597697.8244   22597697.856
        40.3004         37.8004
  -8102328.67346  -6050859.99046  23127511.4844   23127516.0844   23127511.430
        40.3004         37.6004
   3574057.28145   3699745.99645  25330535.2544   25330539.0734   25330536.139
        35.0004         33.6004
 -18859183.38747 -14668561.86447  20942639.1874   20942638.2174   20942639.002
        47.5004         44.5004
 -21047765.67448 -15592227.54247  20576068.7594   20576069.6644   20576069.592
        48.6004         45.4004
    -31816.99846    -12407.06645  24500206.5414   24500211.1094   24500207.273
        37.8004         35.5004
 15  1  1  0  1 16.0000000  0 10G23G14G03G04G20G01G11G31G32G25
  -7508970.47446  -5652810.02246  23783920.2814   23783918.5054   23783920.210
        39.2004         36.9004
  -4459426.48846  -3452518.27645  23626906.9024   23626908.0984   23626907.289
        37.8004         35.5004
 -22149073.55647 -17014385.16947  21162745.9874   21162747.3834   21162745.523
        47.4004         44.4004
  -4318560.71946  -3093351.74346  24161524.7504   24161529.0054   24161525.827
        39.2004         36.9004
  -8813141.86746  -6843444.64346  22597159.5264   22597160.3784   22597160.280
        40.3004         37.8004
  -8100106.79646  -6049128.65746  23127934.3324   23127938.7384   23127934.251
        40.3004         37.6004
   3576736.98845   3701834.07845  25331045.5014   25331050.3294   25331045.967
        35.0004         33.6004
 -18857136.46747 -14666966.86147  20943028.6044   20943027.5784   20943028.515
        47.5004         44.7004
 -21047003.31748 -15591633.49747  20576214.0244   20576214.7324   20576214.654
        48.6004         45.4004
    -29154.20746    -10332.16445  24500712.7404   24500717.4934   24500714.028
        37.8004         35.5004
 15  1  1  0  1 17.0000000  0 10G23G14G03G04G20G01G11G31G32G25
  -7511572.29846  -5654837.41546  23783424.4704   23783423.4434   23783425.156
        39.2004         37.1004
  -4457072.38246  -3450683.90745  23627354.3174   23627355.5594   23627355.255
        37.8004         35.3004
 -22150991.49147 -17015879.66247  21162380.6504   21162382.6304   21162380.555
        47.4004         44.5004
  -4315414.34946  -3090900.02746  24162123.6494   24162128.2294   24162124.527
        39.2004         37.1004
  -8815966.39846  -6845645.57546  22596622.1724   22596622.8534   22596622.752
        40.3004         37.8004
  -8097884.55246  -6047397.03846  23128357.5254   23128361.8564   23128357.188
        40.3004         37.6004
   3579416.65145   3703922.12845  25331555.6104   25331559.3854   25331555.815
        35.0004         33.6004
 -18855089.18847 -14665371.58447  20943418.2394   20943417.4454   20943418.083
        47.5004         44.5004
 -21046240.44248 -15591039.05347  20576359.3124   20576360.2104   20576359.836
        48.6004         45.4004
    -26490.99546     -8256.93345  24501219.6284   24501224.2884   24501220.941
        37.8004         35.5004
 15  1  1  0  1 18.0000000  0 10G23G14G03G04G20G01G11G31G32G25
  -7514174.09446  -5656864.78346  23782930.0394   23782928.7494   23782930.033
        39.2004         36.9004
  -4454718.18046  -3448849.46745  23627802.5754   23627803.9004   23627803.148
        37.6004         35.5004
 -22152908.93947 -17017373.77747  21162016.1824   21162017.8104   21162015.689
        47.4004         44.4004
  -4312267.93046  -3088448.27046  24162723.0324   24162727.2484   24162723.256
        39.2004         36.9004
  -8818790.59146  -6847846.24646  22596084.5224   22596085.6994   22596085.222
        40.3004         37.8004
  -8095661.94446  -6045665.13346  23128780.7224   23128784.9574   23128780.186
        40.3004         37.6004
   3582096.27845   3706010.14645  25332066.3184   25332069.2514   25332065.709
        35.0004         33.6004
 -18853041.55047 -14663776.01747  20943807.8284   20943806.7744   20943807.736
        47.5004         44.7004
 -21045477.03648 -15590444.18847  20576504.6554   20576505.5554   20576505.111
        48.6004         45.4004
    -23827.32646     -6181.34945  24501726.9704   24501731.3184   24501727.976
        37.8004         35.5004
 15  1  1  0  1 19.0000000  0 10G23G14G03G04G20G01G11G31G32G25
  -7516775.87346  -5658892.13746  23782434.6974   23782433.2644   23782434.936
        39.2004         36.7004
  -4452363.87446  -3447014.94245  23628251.3604   23628251.2364   23628251.104
        37.6004         35.3004
 -22154825.90147 -17018867.51447  21161651.4924   21161653.4504   21161650.893
        47.4004         44.5004
  -4309121.45546  -3085996.47746  24163321.6374   24163326.5734   24163322.027
        39.2004         36.7004
  -8821614.43146  -6850046.64046  22595547.4414   22595548.0024   22595547.798
        40.3004         37.8004
  -8093438.93246  -6043932.91346  23129203.5194   23129207.0424   23129203.282
        40.3004         37.6004
   3584775.86545   3708098.13445  25332576.2144   25332579.2144   25332575.722
        35.0004         33.6004
 -18850993.54847 -14662180.17247  20944197.8654   20944196.5674   20944197.463
        47.5004         44.7004
 -21044713.08448 -15589848.90047  20576649.9344   20576650.7274   20576650.498
        48.6004         45.4004
    -21163.21946     -4105.41845  24502234.6224   24502238.2524   24502235.097
        37.8004         35.5004
 15  1  1  0  1 20.0000000  0 10G23G14G03G04G20G01G11G31G32G25
  -7519377.62446  -5660919.47046  23781940.7214   23781938.1684   23781939.831
        39.2004         36.9004
  -4450009.45346  -3445180.33045  23628699.4934   23628699.3094   23628699.120
        37.6004         35.3004
 -22156742.38147 -17020360.87547  21161286.5964   21161288.4694   21161286.184
        47.4004         44.4004
  -4305974.96746  -3083544.67246  24163921.3094   24163924.2414   24163920.786
        39.2004         36.7004
  -8824437.90646  -6852246.75146  22595009.6454   22595011.3594   22595010.470
        40.3004         37.8004
  -8091215.57246  -6042200.42646  23129626.5074   23129630.5854   23129626.355
        40.3004         37.8004
   3587455.39845   3710186.08445  25333086.6114   25333089.5174   25333085.827
        35.0004         33.6004
 -18848945.19047 -14660584.05247  20944587.3204   20944586.2104   20944587.246
        47.5004         44.5004
 -21043948.60548 -15589253.20447  20576795.4634   20576796.3084   20576795.980
        48.6004         45.6004
    -18498.66346     -2029.14445  24502741.5184   24502745.3384   24502742.221
        37.8004         35.7004
 15  1  1  0  1 21.0000000  0 10G23G14G03G04G20G01G11G31G32G25
  -7521979.35846  -5662946.78946  23781444.7284   23781442.7944   23781444.863
        39.2004         36.7004
  -4447654.90446  -3443345.61645  23629147.2514   23629147.0704   23629147.136
        37.6004         35.3004
 -22158658.37347 -17021853.85447  21160921.9984   21160923.7924   21160921.590
        47.4004         44.4004
  -4302828.42546  -3081092.82946  24164520.0574   24164523.1394   24164519.554
        39.4004         36.9004
  -8827261.05746  -6854446.60546  22594472.4514   22594474.3554   22594473.232
        40.3004         37.8004
  -8088991.82346  -6040467.63146  23130050.0594   23130053.3834   23130049.572
        40.3004         37.8004
   3590134.91145   3712274.01545  25333596.2884   25333600.0634   25333595.764
        35.0004         33.6004
 -18846896.47347 -14658987.64847  20944977.2234   20944976.2964   20944977.084
        47.5004         44.5004
 -21043183.60948 -15588657.10047  20576941.1054   20576941.6254   20576941.575
        48.6004         45.6004
    -15833.66846        47.47845  24503248.6494   24503252.2604   24503249.267
        37.8004         35.7004
 15  1  1  0  1 22.0000000  0 10G23G14G03G04G20G01G11G31G32G25
  -7524581.05646  -5664974.08046  23780948.6304   23780947.4694   23780949.779
        39.2004         36.9004
  -4445300.28146  -3441510.84645  23629595.5574   23629595.1114   23629595.157
        37.6004         35.3004
 -22160573.88547 -17023346.45547  21160557.8084   21160559.3704   21160557.078
        47.4004         44.5004
  -4299681.84146  -3078640.94246  24165118.6454   24165121.1834   24165118.335
        39.2004         36.9004
  -8830083.83546  -6856646.17146  22593935.3804   22593936.7144   22593936.124
        40.3004         37.8004
  -8086767.70146  -6038734.54646  23130473.2254   23130476.4944   23130472.756
        40.3004         37.6004
   3592814.35645   3714361.89345  25334106.1604   25334111.0384   25334105.723
        35.0004         33.6004
 -18844847.38747 -14657390.95547  20945367.2294   20945365.9044   20945367.005
        47.5004         44.5004
 -21042418.06048 -15588060.56747  20577086.5874   20577087.2374   20577087.246
        48.6004         45.4004
    -13168.19646      2124.47045  24503755.8594   24503759.5024   24503756.420
        38.0004         35.7004
 15  1  1  0  1 23.0000000  0 10G23G14G03G04G20G01G11G31G32G25
  -7527182.74346  -5667001.36546  23780453.8214   23780453.0884   23780454.804
        39.2004         36.9004
  -4442945.52546  -3439675.97345  23630043.1554   23630043.9834   23630043.219
        37.6004         35.3004
 -22162488.91547 -17024838.68547  21160192.9784   21160194.8634   21160192.656
        47.4004         44.5004
  -4296535.21246  -3076189.02046  24165717.3244   24165719.7444   24165717.114
        39.2004         36.9004
  -8832906.27846  -6858845.47546  22593398.6114   22593399.1784   22593399.046
        40.3004         37.9004
  -8084543.20646  -6037001.17546  23130896.5154   23130899.9064   23130896.092
        40.3004         37.8004
   3595493.76445   3716449.74545  25334616.0304   25334620.6574   25334615.719
        35.0004         33.6004
 -18842797.95847 -14655793.99847  20945757.1184   20945756.0834   20945757.004
        47.5004         44.5004
 -21041651.99048 -15587463.63347  20577232.2844   20577233.2074   20577233.041
        48.6004         45.6004
    -10502.30146      4201.79045  24504263.6004   24504266.5994   24504263.657
        38.0004         35.7004
 15  1  1  0  1 24.0000000  0 10G23G14G03G04G20G01G11G31G32G25
  -7529784.38746  -5669028.61546  23779958.9354   23779957.9794   23779959.665
        39.2004         36.7004
  -4440590.67246  -3437841.02345  23630490.9634   23630492.3624   23630491.199
        37.6004         35.3004
 -22164403.45547 -17026330.53547  21159828.7834   21159830.5444   21159828.342
        47.4004         44.5004
  -4293388.52246  -3073737.05246  24166316.6134   24166317.6344   24166315.964
        39.2004         36.9004
  -8835728.37146  -6861044.50446  22592861.6374   22592862.6664   22592862.039
        40.4004         37.9004
  -8082318.32746  -6035267.50646  23131319.9384   23131322.8284   23131319.500
        40.3004         37.6004
   3598173.12845   3718537.55945  25335126.1854   25335130.0924   25335125.672
        35.0004         33.6004
 -18840748.15347 -14654196.74847  20946147.3834   20946146.3534   20946147.045
        47.5004         44.5004
 -21040885.37848 -15586866.27247  20577377.9584   20577379.0494   20577378.934
        48.6004         45.4004
     -7835.96646      6279.45345  24504770.6874   24504773.7904   24504770.936
        37.8004         35.7004
 15  1  1  0  1 25.0000000  0 10G23G14G03G04G20G01G11G31G32G25
  -7532386.02746  -5671055.86546  23779463.5354   23779461.9034   23779464.560
        39.2004         36.7004
  -4438235.69446  -3436005.97645  23630939.8014   23630940.0374   23630939.359
        37.6004         35.3004
 -22166317.51847 -17027822.01247  21159464.5964   21159466.3704   21159464.135
        47.4004         44.5004
  -4290241.79946  -3071285.05746  24166915.0564   24166916.6454   24166914.765
        39.2004         37.1004
  -8838550.11346  -6863243.26246  22592324.7864   22592325.6344   22592325.118
        40.4004         37.9004
  -8080093.09146  -6033533.55446  23131743.2714   23131746.5704   23131742.971
        40.3004         37.6004
   3600852.44945   3720625.34245  25335635.2814   25335638.9674   25335635.554
        35.0004         33.6004
 -18838698.00947 -14652599.23247  20946537.4374   20946536.6904   20946537.167
        47.5004         44.5004
 -21040118.24448 -15586268.50247  20577524.0764   20577525.3554   20577524.922
        48.6004         45.4004
     -5169.18646      8357.46545  24505278.0624   24505281.0874   24505278.314
        38.0004         35.7004
 15  1  1  0  1 26.0000000  0 10G23G14G03G04G20G01G11G31G32G25
  -7534987.63746  -5673083.08746  23778968.8814   23778967.0634   23778969.376
        39.2004         36.7004
  -4435880.62746  -3434170.86145  23631387.8844   23631388.3864   23631387.520
        37.6004         35.3004
 -22168231.09347 -17029313.10747  21159100.1784   21159102.1444   21159100.019
        47.4004         44.5004
  -4287095.02946  -3068833.03146  24167513.0374   24167516.4504   24167513.600
        39.4004         37.1004
  -8841371.50946  -6865441.74646  22591787.6764   22591788.7804   22591788.293
        40.4004         37.9004
  -8077867.46446  -6031799.30446  23132166.5544   23132170.4694   23132166.476
        40.3004         37.6004
   3603531.73945   3722713.09645  25336144.7934   25336149.4594   25336145.373
        35.0004         33.6004
 -18836647.49647 -14651001.42747  20946927.4764   20946926.7434   20946927.361
        47.5004         44.5004
 -21039350.56948 -15585670.31447  20577670.3964   20577671.2724   20577671.011
        48.6004         45.6004
     -2501.96446     10435.81645  24505785.6694   24505788.4694   24505785.841
        37.8004         35.7004
 15  1  1  0  1 27.0000000  0 10G23G14G03G04G20G01G11G31G32G25
  -7537589.22446  -5675110.28746  23778473.3114   23778472.3634   23778474.313
        39.2004         36.9004
  -4433525.45746  -3432335.66445  23631836.3714   23631836.3544   23631835.672
        37.6004         35.5004
 -22170144.18047 -17030803.82147  21158736.3514   21158738.2494   21158735.978
        47.4004         44.5004
  -4283948.21246  -3066380.96446  24168112.5074   24168115.6184   24168112.359
        39.4004         37.3004
  -8844192.55346  -6867639.95946  22591251.1294   22591251.9334   22591251.511
        40.4004         37.9004
  -8075641.47546  -6030064.76846  23132590.5924   23132593.9854   23132590.029
        40.3004         37.6004
   3606210.98045   3724800.81045  25336654.1214   25336659.3524   25336655.308
        35.0004         33.6004
 -18834596.61947 -14649403.34547  20947317.7674   20947316.9334   20947317.645
        47.5004         44.5004
 -21038582.36548 -15585071.71647  20577816.5094   20577817.3014   20577817.207
        48.6004         45.6004
       165.71846     12514.53145  24506293.5074   24506296.1894   24506293.581
        37.8004         35.5004
 15  1  1  0  1 28.0000000  0 10G23G14G03G04G20G01G11G31G32G25
  -7540190.76546  -5677137.46246  23777978.2294   23777977.1234   23777979.324
        39.2004         36.9004
  -4431170.15646  -3430500.36345  23632284.5954   23632284.9374   23632283.794
        37.6004         35.5004
 -22172056.78747 -17032294.16447  21158372.5004   21158373.8704   21158372.015
        47.4004         44.4004
  -4280801.35946  -3063928.87046  24168711.1034   24168714.1404   24168711.182
        39.4004         37.1004
  -8847013.25446  -6869837.90746  22590714.2524   22590714.8334   22590714.815
        40.4004         37.9004
  -8073415.08846  -6028329.91846  23133014.5954   23133017.5434   23133013.713
        40.3004         37.4004
   3608890.16145   3726888.48345  25337164.0294   25337168.8734   25337165.357
        35.0004         33.6004
 -18832545.38947 -14647804.98547  20947708.0144   20947706.9964   20947707.960
        47.5004         44.5004
 -21037813.62148 -15584472.69347  20577962.9324   20577963.7094   20577963.492
        48.6004         45.6004
      2833.81846     14593.56845  24506800.8094   24506803.3714   24506801.386
        37.8004         35.5004
 15  1  1  0  1 29.0000000  0 10G23G14G03G04G20G01G11G31G32G25
  -7542792.30546  -5679164.63746  23777482.7124   23777481.1634   23777484.235
        39.2004         36.9004
  -4428814.75046  -3428664.98245  23632732.4644   23632733.3934   23632731.920
        37.6004         35.5004
 -22173968.90847 -17033784.12947  21158008.5394   21158010.3134   21158008.145
        47.4004         44.5004
  -4277654.45546  -3061476.73846  24169310.1654   24169313.4674   24169310.023
        39.4004         37.1004
  -8849833.59646  -6872035.57446  22590177.5544   22590177.7304   22590178.143
        40.4004         37.9004
  -8071188.34446  -6026594.79546  23133438.5184   23133441.6634   23133437.465
        40.3004         37.4004
   3611569.31545   3728976.14045  25337674.7574   25337678.4544   25337675.226
        35.0004         33.6004
 -18830493.79447 -14646206.33747  20948098.4924   20948097.4704   20948098.390
        47.5004         44.7004
 -21037044.36148 -15583873.26947  20578109.4684   20578109.7614   20578109.872
        48.6004         45.6004
      5502.37546     16672.96445  24507309.0154   24507311.5334   24507309.236
        37.8004         35.5004
 15  1  1  0  1 30.0000000  0 10G23G14G03G04G20G01G11G31G32G25
  -7545393.80346  -5681191.77246  23776987.6394   23776987.0524   23776989.160
        39.2004         37.1004
  -4426459.24746  -3426829.52745  23633180.4564   23633181.7404   23633180.106
        37.6004         35.5004
 -22175880.54947 -17035273.71747  21157644.6444   21157646.5394   21157644.356
        47.4004         44.5004
  -4274507.52446  -3059024.58446  24169908.6114   24169912.2464   24169908.823
        39.4004         37.1004
  -8852653.59446  -6874232.97646  22589640.3794   22589641.2604   22589641.447
        40.4004         37.9004
  -8068961.22146  -6024859.37646  23133861.8514   23133865.6764   23133861.231
        40.3004         37.4004
   3614248.42045   3731063.75145  25338184.5034   25338187.7604   25338185.065
        35.2004         33.6004
 -18828441.84547 -14644607.41847  20948489.0254   20948488.0624   20948488.846
        47.5004         44.5004
 -21036274.55148 -15583273.41647  20578255.7034   20578256.5744   20578256.373
        48.6004         45.6004
      8171.37246     18752.70545  24507817.0784   24507819.6564   24507817.133
        37.8004         35.5004
 15  1  1  0  1 31.0000000  0 10G23G14G03G04G20G01G11G31G32G25
  -7547995.29146  -5683218.90346  23776492.0284   23776493.0204   23776494.119
        39.2004         37.1004
  -4424103.63246  -3424993.98145  23633628.5714   23633629.7264   23633628.353
        37.6004         35.5004
 -22177791.70247 -17036762.92447  21157281.0534   21157283.1634   21157280.638
        47.4004         44.5004
  -4271360.54146  -3056572.39346  24170507.7894   24170511.3614   24170507.655
        39.4004         37.1004
  -8855473.24746  -6876430.10846  22589103.4344   22589104.1994   22589104.812
        40.4004         37.9004
  -8066733.73346  -6023123.67546  23134285.9514   23134290.0264   23134285.163
        40.3004         37.4004
   3616927.48045   3733151.32745  25338693.8984   25338698.4974   25338694.873
        35.2004         33.6004
 -18826389.53747 -14643008.21447  20948879.7104   20948878.4914   20948879.383
        47.5004         44.5004
 -21035504.23248 -15582673.16647  20578402.2934   20578403.0104   20578402.955
        48.6004         45.6004
     10840.81246     20832.79245  24508324.9154   24508327.0564   24508325.175
        37.8004         35.5004
 15  1  1  0  1 32.0000000  0 10G23G14G03G04G20G01G11G31G32G25
  -7550596.75146  -5685246.01546  23775997.5274   23775997.3444   23775999.046
        39.2004         37.1004
  -4421747.91646  -3423158.36045  23634076.8094   23634078.1294   23634076.578
        37.6004         35.5004
 -22179702.37347 -17038251.75847  21156917.5054   21156919.2314   21156917.042
        47.4004         44.5004
  -4268213.52146  -3054120.18146  24171107.0134   24171110.1734   24171106.532
        39.4004         37.1004
  -8858292.55446  -6878626.96446  22588567.5834   22588568.3604   22588568.293
        40.4004         37.9004
  -8064505.86646  -6021387.67646  23134709.6904   23134714.2064   23134709.151
        40.3004         37.6004
   3619606.47345   3735238.85545  25339203.9374   25339208.5434   25339204.668
        35.2004         33.6004
 -18824336.87947 -14641408.73847  20949270.2274   20949269.2014   20949270.011
        47.5004         44.5004
 -21034733.37548 -15582072.49447  20578548.9164   20578549.7134   20578549.640
        48.6004         45.4004
     13510.70846     22913.23345  24508833.2044   24508835.0054   24508833.248
        37.8004         35.5004
 15  1  1  0  1 33.0000000  0 10G23G14G03G04G20G01G11G31G32G25
  -7553198.17146  -5687273.09446  23775502.6334   23775502.8684   23775504.037
        39.2004         36.9004
  -4419392.08946  -3421322.65145  23634525.0784   23634526.4464   23634524.847
        37.6004         35.7004
 -22181612.55147 -17039740.20847  21156554.1414   21156555.9884   21156553.523
        47.4004         44.5004
  -4265066.44846  -3051667.92346  24171705.0284   24171708.9144   24171705.363
        39.4004         37.1004
  -8861111.50946  -6880823.55046  22588031.2114   22588032.2974   22588031.839
        40.4004         37.9004
  -8062277.63346  -6019651.38746  23135133.6994   23135137.5804   23135133.150
        40.3004         37.6004
   3622285.46545   3737326.38145  25339714.1274   25339719.3714   25339714.572
        35.2004         33.6004
 -18822283.85047 -14639808.98147  20949660.9614   20949659.7304   20949660.674
        47.5004         44.5004
 -21033961.98648 -15581471.41747  20578695.9184   20578696.4014   20578696.449
        48.6004         45.4004
     16181.03346     24994.00545  24509341.5794   24509343.7194   24509341.443
        37.8004         35.5004
 15  1  1  0  1 34.0000000  0 10G23G14G03G04G20G01G11G31G32G25
  -7555799.58246  -5689300.16746  23775007.9514   23775007.5384   23775008.969
        39.2004         36.9004
  -4417036.13246  -3419486.84245  23634973.3434   23634975.3924   23634973.244
        37.6004         35.5004
 -22183522.24347 -17041228.27947  21156190.4624   21156192.3674   21156190.118
        47.4004         44.5004
  -4261919.33946  -3049215.63246  24172305.1434   24172308.1804   24172304.237
        39.4004         37.1004
  -8863930.09946  -6883019.85246  22587495.1994   22587495.8504   22587495.524
        40.4004         37.8004
  -8060049.01046  -6017914.79646  23135557.7224   23135561.6854   23135557.225
        40.3004         37.8004
   3624964.36845   3739413.83645  25340223.8914   25340228.3334   25340224.415
        35.2004         33.6004
 -18820230.46447 -14638208.93547  20950051.6404   20950050.5464   20950051.401
        47.5004         44.5004
 -21033190.06548 -15580869.91947  20578842.6974   20578843.7074   20578843.339
        48.6004         45.4004
     18851.81046     27075.13145  24509849.4804   24509851.6814   24509849.596
        37.8004         35.5004
 15  1  1  0  1 35.0000000  0 10G23G14G03G04G20G01G11G31G32G25
  -7558400.96546  -5691327.21446  23774513.0314   23774512.2004   23774513.817
        39.4004         36.9004
  -4414680.08746  -3417650.95945  23635421.1974   23635423.2554   23635421.579
        37.6004         35.3004
 -22185431.45947 -17042715.97547  21155827.1634   21155829.0024   21155826.795
        47.4004         44.5004
  -4258772.17146  -3046763.29346  24172904.1754   24172907.0304   24172903.135
        39.4004         36.9004
  -8866748.34446  -6885215.88646  22586958.4404   22586959.2824   22586959.257
        40.4004         37.9004
  -8057820.01946  -6016177.91946  23135982.0304   23135985.6164   23135981.323
        40.3004         37.6004
   3627643.23745   3741501.26645  25340733.6604   25340738.1674   25340734.229
        35.2004         33.6004
 -18818176.71847 -14636608.61447  20950442.5104   20950441.6994   20950442.200
        47.5004         44.5004
 -21032417.61448 -15580268.00947  20578989.7134   20578990.5424   20578990.332
        48.6004         45.4004
     21523.02046     29156.59445  24510357.8804   24510360.0814   24510357.862
        37.8004         35.5004
 15  1  1  0  1 36.0000000  0 10G23G14G03G04G20G01G11G31G32G25
  -7561002.33146  -5693354.24946  23774018.4934   23774016.9584   23774018.806
        39.2004         36.9004
  -4412323.92846  -3415814.99545  23635870.1874   23635870.8644   23635869.855
        37.6004         35.3004
 -22187340.18647 -17044203.29647  21155464.0234   21155465.7464   21155463.569
        47.4004         44.5004
  -4255624.95546  -3044310.90846  24173503.6894   24173505.5534   24173502.018
        39.4004         36.7004
  -8869566.23846  -6887411.64846  22586422.5654   22586422.6834   22586423.061
        40.4004         37.8004
  -8055590.66346  -6014440.75746  23136406.4524   23136409.6114   23136405.577
        40.3004         37.4004
   3630322.06945   3743588.66745  25341243.3234   25341246.9584   25341243.866
        35.2004         33.8004
 -18816122.61347 -14635008.01647  20950833.0404   20950832.0944   20950833.097
        47.5004         44.5004
 -21031644.62548 -15579665.68147  20579136.8264   20579137.5994   20579137.439
        48.6004         45.6004
     24194.68346     31238.41345  24510866.0144   24510868.1244   24510866.154
        37.8004         35.7004
 15  1  1  0  1 37.0000000  0 10G23G14G03G04G20G01G11G31G32G25
  -7563603.65046  -5695381.24046  23773524.2324   23773521.1044   23773523.812
        39.2004         36.9004
  -4409967.66046  -3413978.94245  23636317.6854   23636319.1944   23636318.242
        37.6004         35.3004
 -22189248.43047 -17045690.23547  21155100.6694   21155102.6094   21155100.434
        47.4004         44.5004
  -4252477.69746  -3041858.49646  24174101.8824   24174104.5274   24174100.925
        39.4004         36.7004
  -8872383.78846  -6889607.13846  22585886.4604   22585886.9394   22585886.964
        40.4004         37.9004
  -8053360.92046  -6012703.29546  23136830.0874   23136834.4984   23136829.906
        40.3004         37.6004
   3633000.87545   3745676.04545  25341752.2444   25341756.9534   25341753.417
        35.4004         33.8004
 -18814068.14547 -14633407.13047  20951224.1074   20951222.7414   20951224.062
        47.5004         44.5004
 -21030871.11048 -15579062.94047  20579283.8094   20579284.8274   20579284.615
        48.6004         45.4004
     26866.79946     33320.58445  24511374.5744   24511376.8134   24511374.570
        37.8004         35.5004
 15  1  1  0  1 38.0000000  0 10G23G14G03G04G20G01G11G31G32G25
  -7566204.96346  -5697408.22846  23773029.9574   23773026.7524   23773028.796
        39.4004         36.9004
  -4407611.28446  -3412142.80745  23636766.3454   23636768.0864   23636766.684
        37.6004         35.3004
 -22191156.18347 -17047176.79447  21154737.4354   21154739.4484   21154737.408
        47.4004         44.5004
  -4249330.41046  -3039406.06346  24174700.1434   24174703.4974   24174699.810
        39.4004         36.7004
  -8875200.97746  -6891802.35246  22585350.2744   22585350.9724   22585350.872
        40.4004         37.9004
  -8051130.81146  -6010965.55046  23137254.5574   23137258.6144   23137254.280
        40.3004         37.6004
   3635679.60345   3747763.36145  25342261.9924   25342266.5904   25342263.134
        35.4004         33.8004
 -18812013.32747 -14631805.96947  20951615.3684   20951614.0904   20951615.097
        47.5004         44.5004
 -21030097.05548 -15578459.77747  20579431.1954   20579432.1174   20579431.901
        48.6004         45.6004
     29539.34246     35403.08845  24511882.6504   24511884.9444   24511882.931
        37.8004         35.5004
 15  1  1  0  1 39.0000000  0 10G23G14G03G04G20G01G11G31G32G25
  -7568806.25846  -5699435.21046  23772533.9504   23772532.0904   23772533.785
        39.4004         36.9004
  -4405254.79946  -3410306.58545  23637214.8174   23637216.4794   23637215.090
        37.6004         35.5004
 -22193063.45347 -17048662.97647  21154374.7254   21154376.6034   21154374.453
        47.4004         44.4004
  -4246183.07446  -3036953.59946  24175299.2104   24175302.4594   24175298.738
        39.4004         36.6004
  -8878017.82146  -6893997.29446  22584813.9094   22584815.5404   22584814.816
        40.4004         37.9004
  -8048900.33046  -6009227.51546  23137678.9374   23137682.6204   23137678.716
        40.3004         37.6004
   3638358.30845   3749850.66445  25342771.8934   25342776.5914   25342772.961
        35.4004         33.8004
 -18809958.14547 -14630204.52847  20952006.3184   20952005.5064   20952006.160
        47.5004         44.5004
 -21029322.47648 -15577856.21047  20579578.7624   20579579.6244   20579579.287
        48.6004         45.6004
     32212.32646     37485.93445  24512391.6114   24512393.6004   24512391.392
        37.8004         35.3004
 15  1  1  0  1 40.0000000  0 10G23G14G03G04G20G01G11G31G32G25
  -7571407.51946  -5701462.15946  23772038.6004   23772038.0744   23772038.760
        39.4004         36.9004
  -4402898.20446  -3408470.27145  23637663.6684   23637664.8644   23637663.509
        37.6004         35.5004
 -22194970.24447 -17050148.78647  21154012.2424   21154013.8414   21154011.614
        47.4004         44.5004
  -4243035.69646  -3034501.09646  24175898.2774   24175900.4994   24175897.699
        39.4004         36.6004
  -8880834.33246  -6896191.98046  22584277.5504   22584279.8484   22584278.874
        40.4004         37.8004
  -8046669.47346  -6007489.18546  23138103.8544   23138107.1144   23138103.178
        40.3004         37.6004
   3641036.96545   3751937.93145  25343281.2934   25343285.5954   25343282.627
        35.4004         33.6004
 -18807902.60747 -14628602.80947  20952397.3194   20952396.4404   20952397.326
        47.5004         44.5004
 -21028547.35248 -15577252.21447  20579726.2174   20579727.2234   20579726.780
        48.6004         45.6004
     34885.76246     39569.13245  24512900.1214   24512902.7004   24512899.999
        37.8004         35.3004
 15  1  1  0  1 41.0000000  0 10G23G14G03G04G20G01G11G31G32G25
  -7574008.76146  -5703489.09346  23771543.5194   23771542.7314   23771543.666
        39.4004         37.1004
  -4400541.50646  -3406633.87945  23638111.6424   23638113.1374   23638111.945
        37.6004         35.5004
 -22196876.54647 -17051634.21347  21153649.4864   21153651.7124   21153648.857
        47.4004         44.5004
  -4239888.28246  -3032048.56946  24176496.6354   24176498.8604   24176496.662
        39.4004         36.7004
  -8883650.47346  -6898386.37446  22583741.3404   22583743.5064   22583742.911
        40.4004         37.8004
  -8044438.24546  -6005750.56246  23138528.3494   23138531.6844   23138527.805
        40.3004         37.6004
   3643715.56945   3754025.15545  25343791.6804   25343795.2464   25343792.340
        35.4004         33.6004
 -18805846.70447 -14627000.81047  20952788.7074   20952787.8304   20952788.556
        47.5004         44.5004
 -21027771.70448 -15576647.81447  20579873.7464   20579874.5204   20579874.378
        48.6004         45.4004
     37559.63346     41652.66745  24513408.9674   24513411.5204   24513408.767
        37.8004         35.5004
 15  1  1  0  1 42.0000000  0 10G23G14G03G04G20G01G11G31G32G25
  -7576609.97446  -5705516.01046  23771049.1044   23771047.2234   23771048.674
        39.4004         36.9004
  -4398184.69746  -3404797.40545  23638559.9164   23638561.5264   23638560.448
        37.6004         35.5004
 -22198782.36647 -17053119.26947  21153286.6984   21153288.5444   21153286.182
        47.4004         44.5004
  -4236740.82246  -3029596.00346  24177095.0174   24177098.1284   24177095.602
        39.4004         36.6004
  -8886466.27046  -6900580.50046  22583205.6074   22583207.3844   22583207.057
        40.4004         37.9004
  -8042206.64646  -6004011.65646  23138952.8014   23138956.2844   23138952.446
        40.3004         37.6004
   3646394.11945   3756112.33645  25344301.1384   25344304.4114   25344302.221
        35.4004         33.8004
 -18803790.45147 -14625398.53447  20953179.9344   20953178.9054   20953179.854
        47.5004         44.5004
 -21026995.52748 -15576043.00147  20580021.3844   20580022.1664   20580022.093
        48.6004         45.4004
     40233.97446     43736.56945  24513917.5934   24513920.4834   24513917.696
        37.8004         35.5004
 15  1  1  0  1 43.0000000  0 10G23G14G03G04G20G01G11G31G32G25
  -7579211.15146  -5707542.89546  23770554.6964   23770553.0314   23770553.643
        39.4004         37.1004
  -4395827.78746  -3402960.84845  23639008.9124   23639010.5784   23639009.002
        37.5004         35.5004
 -22200687.69847 -17054603.94547  21152924.0314   21152926.4234   21152923.630
        47.4004         44.5004
  -4233593.32746  -3027143.41346  24177694.5294   24177698.4504   24177694.578
        39.4004         36.7004
  -8889281.72846  -6902774.35846  22582669.9404   22582671.3544   22582671.178
        40.4004         37.9004
  -8039974.67346  -6002272.45746  23139377.3544   23139380.9534   23139377.159
        40.3004         37.6004
   3649072.61045   3758199.47045  25344810.3074   25344814.5524   25344811.768
        35.2004         33.8004
 -18801733.83947 -14623795.98247  20953571.4714   20953570.4474   20953571.217
        47.5004         44.5004
 -21026218.81248 -15575437.76947  20580169.2804   20580170.0714   20580169.900
        48.6004         45.4004
     42908.71646     45820.78645  24514426.7224   24514429.4324   24514426.655
        37.8004         35.3004
 15  1  1  0  1 44.0000000  0 10G23G14G03G04G20G01G11G31G32G25
  -7581812.31046  -5709569.76746  23770058.7964   23770058.7504   23770058.666
        39.2004         36.9004
  -4393470.76146  -3401124.20545  23639457.2044   23639459.2954   23639457.461
        37.6004         35.5004
 -22202592.54247 -17056088.23647  21152561.3564   21152563.3024   21152561.192
        47.4004         44.5004
  -4230445.80146  -3024690.79546  24178293.3834   24178296.4414   24178293.504
        39.2004         36.7004
  -8892096.83746  -6904967.94946  22582134.9384   22582135.6414   22582135.381
        40.4004         37.9004
  -8037742.31746  -6000532.96046  23139802.4444   23139806.5674   23139801.971
        40.3004         37.4004
   3651751.10945   3760286.60945  25345320.4094   25345323.7544   25345321.429
        35.2004         33.8004
 -18799676.86747 -14622193.14047  20953962.8434   20953961.8814   20953962.645
        47.5004         44.5004
 -21025441.56648 -15574832.12147  20580317.0684   20580317.8874   20580317.832
        48.6004         45.6004
     45583.90146     47905.34845  24514935.5934   24514938.5594   24514935.779
        37.8004         35.5004
 15  1  1  0  1 45.0000000  0 10G23G14G03G04G20G01G11G31G32G25
  -7584413.44446  -5711596.62046  23769564.1744   23769563.2494   23769563.614
        39.4004         36.9004
  -4391113.62046  -3399287.47345  23639905.3384   23639907.9974   23639906.074
        37.5004         35.5004
 -22204496.89147 -17057572.13847  21152199.2084   21152201.2324   21152198.799
        47.4004         44.5004
  -4227298.22346  -3022238.13246  24178892.0614   24178895.8584   24178892.511
        39.2004         36.6004
  -8894911.58346  -6907161.25546  22581599.6924   22581599.3744   22581599.760
        40.4004         37.9004
  -8035509.61146  -5998793.19346  23140227.5464   23140231.3474   23140226.897
        40.3004         37.6004
   3654429.52045   3762373.68145  25345830.3394   25345834.0024   25345831.054
        35.2004         33.6004
 -18797619.53447 -14620590.02547  20954354.3014   20954353.1954   20954354.144
        47.5004         44.5004
 -21024663.79348 -15574226.06247  20580465.2414   20580465.9824   20580465.853
        48.6004         45.6004
     48259.55546     49990.27645  24515444.6314   24515447.8744   24515444.980
        37.8004         35.5004
 15  1  1  0  1 46.0000000  0 10G23G14G03G04G20G01G11G31G32G25
  -7587014.55946  -5713623.46146  23769068.5214   23769067.3294   23769068.571
        39.4004         36.9004
  -4388756.37046  -3397450.65445  23640354.2854   23640355.7294   23640354.672
        37.5004         35.3004
 -22206400.76347 -17059055.67647  21151837.0444   21151838.9254   21151836.533
        47.5004         44.5004
  -4224150.60046  -3019785.43946  24179490.1974   24179494.3284   24179491.465
        39.2004         36.6004
  -8897725.97146  -6909354.28346  22581064.2804   22581064.1774   22581064.206
        40.4004         37.9004
  -8033276.51446  -5997053.12146  23140652.8184   23140656.8314   23140651.866
        40.3004         37.8004
   3657107.91845   3764460.74145  25346339.8254   25346343.6894   25346340.770
        35.2004         33.8004
 -18795561.84847 -14618986.63547  20954745.7044   20954744.9144   20954745.704
        47.5004         44.5004
 -21023885.49148 -15573619.59647  20580613.1654   20580613.9254   20580613.955
        48.6004         45.6004
     50935.63846     52075.53945  24515953.9394   24515957.2944   24515954.186
        37.8004         35.5004
 15  1  1  0  1 47.0000000  0 10G23G14G03G04G20G01G11G31G32G25
  -7589615.64346  -5715650.28046  23768573.1014   23768572.9194   23768573.534
        39.4004         36.9004
  -4386399.02346  -3395613.76045  23640802.8224   23640803.7914   23640803.206
        37.5004         35.3004
 -22208304.14647 -17060538.82847  21151474.6324   21151476.6924   21151474.322
        47.5004         44.5004
  -4221002.92646  -3017332.70646  24180089.3534   24180093.8574   24180090.454
        39.2004         36.7004
  -8900540.01446  -6911547.04346  22580528.6164   22580528.5774   22580528.737
        40.4004         37.9004
  -8031043.04146  -5995312.75446  23141077.5164   23141082.1194   23141076.868
        40.3004         37.6004
   3659786.23245   3766547.73745  25346849.0024   25346853.6914   25346850.443
        35.2004         33.8004
 -18793503.79847 -14617382.95647  20955137.6214   20955136.6794   20955137.311
        47.5004         44.5004
 -21023106.65148 -15573012.70647  20580761.4984   20580762.2204   20580762.139
        48.6004         45.6004
     53612.17346     54161.15345  24516463.4644   24516466.5744   24516463.628
        37.8004         35.5004
 15  1  1  0  1 48.0000000  0 10G23G14G03G04G20G01G11G31G32G25
  -7592216.71146  -5717677.08346  23768078.2504   23768077.0194   23768078.490
        39.4004         36.9004
  -4384041.57746  -3393776.79245  23641252.3004   23641251.9984   23641251.821
        37.6004         35.5004
 -22210207.04347 -17062021.60447  21151112.1864   21151114.3804   21151112.210
        47.5004         44.7004
  -4217855.22646  -3014879.96146  24180688.2434   24180692.4134   24180689.487
        39.2004         36.7004
  -8903353.72246  -6913739.53846  22579993.5834   22579993.0164   22579993.386
        40.4004         37.9004
  -8028809.19546  -5993572.09446  23141502.0154   23141506.8794   23141501.943
        40.3004         37.6004
   3662464.51945   3768634.71345  25347357.9454   25347363.2864   25347360.267
        35.2004         33.8004
 -18791445.39447 -14615779.00447  20955529.1484   20955528.2474   20955529.027
        47.5004         44.5004
 -21022327.27248 -15572405.39547  20580909.7624   20580910.5354   20580910.437
        48.6004         45.6004
     56289.12746     56247.09145  24516973.1064   24516976.5114   24516973.212
        37.8004         35.5004
 15  1  1  0  1 49.0000000  0 10G23G14G03G04G20G01G11G31G32G25
  -7594817.74046  -5719703.85146  23767583.6364   23767581.5924   23767583.512
        39.4004         36.9004
  -4381683.99946  -3391939.71745  23641701.4434   23641699.7154   23641700.446
        37.6004         35.5004
 -22212109.45747 -17063504.00147  21150750.6994   21150752.2194   21150750.167
        47.5004         44.5004
  -4214707.46446  -3012427.15846  24181287.8654   24181290.3804   24181288.469
        39.2004         36.6004
  -8906167.06946  -6915931.75546  22579458.5684   22579457.6234   22579458.028
        40.4004         38.1004
  -8026574.99446  -5991831.15746  23141926.9364   23141931.5604   23141927.165
        40.3004         37.8004
   3665142.75445   3770721.64445  25347867.5014   25347872.0904   25347869.860
        35.2004         33.8004
 -18789386.63247 -14614174.77747  20955920.9224   20955919.9574   20955920.784
        47.5004         44.5004
 -21021547.36148 -15571797.67347  20581058.1434   20581059.0204   20581058.857
        48.6004         45.6004
     58966.55446     58333.39845  24517482.7634   24517486.0384   24517482.688
        37.8004         35.7004
 15  1  1  0  1 50.0000000  0 10G23G14G03G04G20G01G11G31G32G25
  -7597418.75046  -5721730.61146  23767088.1494   23767086.8574   23767088.565
        39.4004         36.9004
  -4379326.31146  -3390102.55845  23642150.0544   23642148.1734   23642149.116
        37.6004         35.5004
 -22214011.38647 -17064986.02247  21150389.0454   21150390.8434   21150388.218
        47.5004         44.5004
  -4211559.67046  -3009974.33246  24181887.2744   24181888.9914   24181887.471
        39.2004         36.7004
  -8908980.05346  -6918123.68846  22578922.5234   22578922.4594   22578922.744
        40.4004         38.1004
  -8024340.40846  -5990089.91846  23142351.8294   23142357.0674   23142352.395
        40.3004         37.8004
   3667820.92245   3772808.52745  25348376.5814   25348381.1294   25348379.544
        35.2004         33.8004
 -18787327.51347 -14612570.26847  20956312.6024   20956311.5684   20956312.616
        47.5004         44.5004
 -21020766.92848 -15571189.54547  20581206.7314   20581207.7344   20581207.366
        48.6004         45.6004
     61644.41546     60420.04245  24517992.1434   24517995.6884   24517992.260
        37.8004         35.7004
 15  1  1  0  1 51.0000000  0 10G23G14G03G04G20G01G11G31G32G25
  -7600019.73846  -5723757.35546  23766592.9314   23766590.6324   23766593.589
        39.2004         36.9004
  -4376968.53346  -3388265.32945  23642598.9134   23642596.9284   23642597.721
        37.6004         35.5004
 -22215912.83047 -17066467.66747  21150026.9384   21150028.8304   21150026.381
        47.5004         44.5004
  -4208411.82746  -3007521.46846  24182485.4584   24182487.9724   24182486.486
        39.2004         36.7004
  -8911792.70146  -6920315.35746  22578387.2614   22578387.5544   22578387.536
        40.4004         37.9004
  -8022105.45646  -5988348.39846  23142777.0894   23142782.1344   23142777.611
        40.3004         37.8004
   3670499.08045   3774895.40045  25348886.5094   25348890.9804   25348889.096
        35.2004         33.8004
 -18785268.03547 -14610965.47947  20956704.7784   20956703.2544   20956704.533
        47.5004         44.5004
 -21019985.96048 -15570580.99647  20581355.4094   20581356.1674   20581355.993
        48.6004         45.6004
     64322.69246     62507.01145  24518501.6954   24518505.3054   24518501.665
        37.8004         35.7004
 15  1  1  0  1 52.0000000  0 10G23G14G03G04G20G01G11G31G32G25
  -7602620.70346  -5725784.07446  23766099.0864   23766095.5514   23766098.617
        39.2004         36.7004
  -4374610.64946  -3386428.01745  23643047.8594   23643045.4064   23643046.407
        37.6004         35.5004
 -22217813.77747 -17067948.92647  21149665.1004   21149667.1454   21149664.652
        47.5004         44.5004
  -4205263.94646  -3005068.57946  24183084.7364   24183088.3344   24183085.443
        39.2004         36.7004
  -8914604.98846  -6922506.74746  22577851.7684   22577852.5844   22577852.349
        40.4004         37.9004
  -8019870.13546  -5986606.59146  23143202.3274   23143207.5464   23143202.979
        40.3004         37.8004
   3673177.19945   3776982.24445  25349396.0104   25349400.8034   25349398.824
        35.2004         33.8004
 -18783208.20247 -14609360.41747  20957096.6804   20957095.6844   20957096.492
        47.5004         44.5004
 -21019204.46448 -15569972.04047  20581504.0764   20581505.0194   20581504.689
        48.6004         45.6004
     67001.45646     64594.36045  24519011.3614   24519015.0154   24519011.384
        37.8004         35.7004
 15  1  1  0  1 53.0000000  0 10G23G14G03G04G20G01G11G31G32G25
  -7605221.64046  -5727810.76746  23765604.3054   23765601.6274   23765603.668
        39.4004         36.9004
  -4372252.65146  -3384590.61645  23643496.1574   23643494.5394   23643495.153
        37.6004         35.5004
 -22219714.25047 -17069429.81047  21149303.5424   21149305.4844   21149303.030
        47.5004         44.5004
  -4202116.02546  -3002615.65646  24183684.0354   24183686.3074   24183684.403
        39.2004         36.7004
  -8917416.92546  -6924697.86546  22577316.6684   22577317.5034   22577317.267
        40.6004         38.1004
  -8017634.45046  -5984864.49946  23143627.7884   23143632.8014   23143628.428
        40.3004         37.6004
   3675855.24845   3779069.03145  25349906.5284   25349911.3354   25349908.469
        35.2004         33.8004
 -18781148.00547 -14607755.06947  20957488.5174   20957487.9904   20957488.529
        47.5004         44.5004
 -21018422.45048 -15569362.67547  20581653.0034   20581653.6724   20581653.517
        48.6004         45.4004
     69680.63546     66682.03645  24519520.7514   24519524.6744   24519521.172
        37.8004         35.7004
 15  1  1  0  1 54.0000000  0 10G23G14G03G04G20G01G11G31G32G25
  -7607822.55046  -5729837.44346  23765109.0604   23765106.9704   23765108.733
        39.4004         36.9004
  -4369894.54446  -3382753.13445  23643944.9224   23643943.8684   23643943.834
        37.6004         35.5004
 -22221614.21747 -17070910.30047  21148941.9454   21148943.6934   21148941.487
        47.5004         44.5004
  -4198968.09346  -3000162.72846  24184283.5984   24184285.3304   24184283.335
        39.2004         36.7004
  -8920228.51046  -6926888.71046  22576782.0954   22576783.0044   22576782.158
        40.6004         37.9004
  -8015398.38046  -5983122.10546  23144053.5044   23144058.2994   23144053.994
        40.3004         37.6004
   3678533.25745   3781155.79045  25350416.8444   25350420.9844   25350418.193
        35.2004         33.8004
 -18779087.44847 -14606149.43747  20957880.8734   20957879.7584   20957880.659
        47.5004         44.5004
 -21017639.89648 -15568752.89047  20581801.8954   20581802.6114   20581802.431
        48.6004         45.6004
     72360.26346     68770.05845  24520030.9044   24520034.9734   24520031.078
        37.8004         35.7004
 15  1  1  0  1 55.0000000  0 10G23G14G03G04G20G01G11G31G32G25
  -7610423.43246  -5731864.10246  23764614.8714   23764612.6044   23764613.796
        39.4004         36.7004
  -4367536.33346  -3380915.56845  23644393.5504   23644392.6644   23644392.606
        37.6004         35.5004
 -22223513.71047 -17072390.42547  21148580.5154   21148582.2684   21148580.032
        47.5004         44.5004
  -4195820.11346  -2997709.75646  24184883.1574   24184884.6114   24184882.399
        39.2004         36.9004
  -8923039.75546  -6929079.28846  22576247.0604   22576247.8514   22576247.177
        40.6004         37.9004
  -8013161.93646  -5981379.42546  23144479.6184   23144483.7204   23144479.571
        40.3004         37.8004
   3681211.22445   3783242.51945  25350926.8294   25350930.2614   25350927.782
        35.2004         33.8004
 -18777026.53347 -14604543.53247  20958272.9994   20958271.8934   20958272.858
        47.5004         44.5004
 -21016856.80548 -15568142.69247  20581950.8764   20581951.7094   20581951.459
        48.6004         45.6004
     75040.31946     70858.41645  24520540.8444   24520544.6444   24520541.139
        37.8004         35.7004
 15  1  1  0  1 56.0000000  0 10G23G14G03G04G20G01G11G31G32G25
  -7613024.30446  -5733890.75546  23764119.6304   23764118.1094   23764118.850
        39.4004         36.9004
  -4365178.00246  -3379077.91145  23644842.6784   23644842.0654   23644841.358
        37.6004         35.5004
 -22225412.72147 -17073870.17247  21148218.9444   21148220.8994   21148218.639
        47.5004         44.5004
  -4192672.07946  -2995256.74446  24185482.4174   24185484.5714   24185481.403
        39.2004         36.7004
  -8925850.63346  -6931269.58546  22575711.1434   22575713.1464   22575712.272
        40.6004         38.1004
  -8010925.11946  -5979636.45346  23144905.0874   23144908.5354   23144905.149
        40.3004         37.8004
   3683889.13745   3785329.20445  25351435.8864   25351440.0024   25351437.324
        35.2004         33.8004
 -18774965.26847 -14602937.35247  20958665.3494   20958664.1914   20958665.129
        47.5004         44.5004
 -21016073.19948 -15567532.09047  20582099.9734   20582100.4444   20582100.571
        48.6004         45.6004
     77720.79446     72947.09945  24521051.0734   24521055.1294   24521051.434
        37.8004         35.7004
 15  1  1  0  1 57.0000000  0 10G23G14G03G04G20G01G11G31G32G25
  -7615625.13646  -5735917.37046  23763624.8584   23763623.0344   23763623.906
        39.4004         36.9004
  -4362819.57646  -3377240.17645  23645291.3774   23645290.6584   23645290.118
        37.6004         35.3004
 -22227311.23547 -17075349.52947  21147857.7974   21147859.4664   21147857.356
        47.5004         44.5004
  -4189523.99246  -2992803.68446  24186081.4334   24186084.0144   24186080.428
        39.2004         36.7004
  -8928661.16346  -6933459.60646  22575176.5034   22575177.4934   22575177.482
        40.6004         38.1004
  -8008687.94846  -5977893.20446  23145331.3954   23145334.2304   23145330.870
        40.3004         37.6004
   3686567.02145   3787415.86545  25351945.2714   25351951.2864   25351947.054
        35.2004         33.8004
 -18772903.63947 -14601330.88347  20959057.6774   20959056.4794   20959057.460
        47.5004         44.5004
 -21015289.05648 -15566921.06647  20582249.0424   20582249.6524   20582249.786
        48.6004         45.6004
     80401.73646     75036.14545  24521561.3084   24521565.6754   24521561.722
        37.8004         35.7004
 15  1  1  0  1 58.0000000  0 10G23G14G03G04G20G01G11G31G32G25
  -7618225.95246  -5737943.97946  23763128.9684   23763128.0894   23763128.997
        39.4004         37.1004
  -4360461.03446  -3375402.35245  23645740.1314   23645739.6614   23645738.932
        37.6004         35.3004
 -22229209.27147 -17076828.51947  21147496.6794   21147498.6724   21147496.182
        47.5004         44.5004
  -4186375.87946  -2990350.60946  24186680.4814   24186683.5054   24186679.475
        39.2004         36.7004
  -8931471.34746  -6935649.35746  22574641.5994   22574642.6094   22574642.753
        40.6004         38.1004
  -8006450.38546  -5976149.64746  23145757.0874   23145760.4804   23145756.728
        40.3004         37.6004
   3689244.84245   3789502.47745  25352455.6034   25352460.2534   25352456.462
        35.2004         33.8004
 -18770841.65647 -14599724.14347  20959450.0544   20959448.9534   20959449.844
        47.5004         44.5004
 -21014504.37448 -15566309.62847  20582398.5724   20582399.2734   20582399.095
        48.6004         45.6004
     83083.10346     77125.52545  24522071.2284   24522075.9154   24522072.032
        37.8004         35.7004
 15  1  1  0  1 59.0000000  0 10G23G14G03G04G20G01G11G31G32G25
  -7620826.74546  -5739970.56146  23762633.6494   23762633.1324   23762634.109
        39.4004         36.9004
  -4358102.38246  -3373564.43845  23646189.1784   23646188.8424   23646187.771
        37.6004         35.3004
 -22231106.81547 -17078307.12547  21147135.7744   21147137.7904   21147135.108
        47.5004         44.5004
  -4183227.71346  -2987897.49246  24187279.6934   24187283.6874   24187278.472
        39.2004         36.7004
  -8934281.17746  -6937838.83846  22574106.8594   22574108.0364   22574108.124
        40.6004         38.1004
  -8004212.44846  -5974405.80346  23146183.4524   23146186.6864   23146182.613
        40.3004         37.6004
   3691922.62245   3791589.05645  25352964.6814   25352969.8564   25352965.958
        35.2004         33.6004
 -18768779.32147 -14598117.13247  20959842.6444   20959841.3224   20959842.319
        47.5004         44.5004
 -21013719.16148 -15565697.77247  20582547.8314   20582548.7254   20582548.509
        48.6004         45.6004
     85764.94546     79215.27445  24522581.7664   24522585.9234   24522582.330
        37.8004         35.7004
 15  1  1  0  2  0.0000000  0 10G23G14G03G04G20G01G11G31G32G25
  -7623427.50846  -5741997.12946  23762138.1114   23762138.1024   23762139.242
        39.4004         37.1004
  -4355743.62946  -3371726.44445  23646637.2774   23646636.9334   23646636.593
        37.6004         35.3004
 -22233003.87947 -17079785.35547  21146774.6624   21146776.3814   21146774.083
        47.5004         44.5004
  -4180079.49946  -2985444.33846  24187877.7174   24187881.9394   24187877.530
        39.2004         36.7004
  -8937090.65146  -6940028.03746  22573572.4704   22573573.1604   22573573.557
        40.6004         38.1004
  -8001974.13746  -5972661.66846  23146609.5574   23146613.0894   23146608.564
        40.3004         37.6004
   3694600.34545   3793675.59045  25353473.6864   25353479.2094   25353475.538
        35.2004         33.6004
 -18766716.62147 -14596509.83347  20960235.1204   20960233.4314   20960234.823
        47.5004         44.5004
 -21012933.41848 -15565085.50347  20582697.2354   20582698.3494   20582698.025
        48.6004         45.6004
     88447.20146     81305.34745  24523092.3254   24523096.0744   24523092.762
        37.8004         35.7004
 15  1  1  0  2  1.0000000  0 10G23G14G03G04G20G01G11G31G32G25
  -7626028.24146  -5744023.67646  23761643.5204   23761644.6194   23761644.325
        39.4004         36.9004
  -4353384.77046  -3369888.37245  23647085.7404   23647086.5854   23647085.473
        37.6004         35.5004
 -22234900.44747 -17081263.19847  21146413.4354   21146415.3574   21146413.177
        47.5004         44.7004
  -4176931.19546  -2982991.10546  24188477.1334   24188481.8044   24188476.518
        39.2004         36.7004
  -8939899.78146  -6942216.97046  22573037.8504   22573038.5184   22573038.968
        40.6004         38.1004
  -7999735.48046  -5970917.25846  23147035.3504   23147038.1394   23147034.516
        40.3004         37.6004
   3697278.04145   3795762.10345  25353983.7214   25353989.3934   25353985.006
        35.2004         33.6004
 -18764653.57147 -14594902.26247  20960627.4694   20960626.8944   20960627.422
        47.5004         44.5004
 -21012147.14348 -15564472.82247  20582846.9084   20582848.1524   20582847.639
        48.6004         45.6004
     91129.91246     83395.77345  24523602.4804   24523606.4634   24523603.149
        37.8004         35.7004
 15  1  1  0  2  2.0000000  0 10G23G14G03G04G20G01G11G31G32G25
  -7628628.95446  -5746050.20146  23761148.0304   23761149.4564   23761149.370
        39.4004         36.9004
  -4351025.79446  -3368050.21445  23647534.5274   23647535.2364   23647534.378
        37.6004         35.5004
 -22236796.54447 -17082740.67447  21146052.7854   21146054.6274   21146052.369
        47.5004         44.5004
  -4173782.93546  -2980537.91846  24189076.4084   24189080.9704   24189075.594
        39.2004         36.7004
  -8942708.57246  -6944405.64146  22572504.0904   22572504.3754   22572504.464
        40.6004         38.1004
  -7997496.44846  -5969172.55946  23147461.2654   23147464.5164   23147460.619
        40.3004         37.6004
   3699955.67345   3797848.56445  25354493.0264   25354497.9874   25354494.500
        35.4004         33.6004
 -18762590.16547 -14593294.41147  20961020.0474   20961019.4294   20961020.083
        47.5004         44.5004
 -21011360.33748 -15563859.72747  20582996.6084   20582997.7724   20582997.367
        48.6004         45.6004
     93813.06246     85486.54045  24524112.9064   24524117.2324   24524113.603
        37.8004         35.5004
 15  1  1  0  2  3.0000000  0 10G23G14G03G04G20G01G11G31G32G25
  -7631229.64846  -5748076.71946  23760653.6854   23760654.4554   23760654.436
        39.4004         37.1004
  -4348666.69946  -3366211.96245  23647983.4034   23647984.7624   23647983.331
        37.6004         35.5004
 -22238692.13247 -17084217.75347  21145692.1414   21145693.8704   21145691.621
        47.5004         44.5004
  -4170634.61046  -2978084.68246  24189674.9914   24189679.2844   24189674.662
        39.2004         36.6004
  -8945516.98946  -6946594.01646  22571969.4614   22571969.6504   22571970.016
        40.6004         38.3004
  -7995257.03846  -5967427.56246  23147886.8244   23147889.8684   23147886.734
        40.3004         37.6004
   3702633.25745   3799934.98945  25355001.2574   25355007.1974   25355003.929
        35.2004         33.8004
 -18760526.39947 -14591686.28147  20961413.2054   20961412.0624   20961412.825
        47.5004         44.5004
 -21010572.99648 -15563246.21247  20583146.4644   20583147.0514   20583147.180
        48.6004         45.6004
     96496.66646     87577.65845  24524623.2404   24524628.3114   24524624.264
        37.8004         35.5004
 15  1  1  0  2  4.0000000  0 10G23G14G03G04G20G01G11G31G32G25
  -7633830.32646  -5750103.22146  23760159.0784   23760158.5734   23760159.493
        39.4004         37.1004
  -4346307.49546  -3364373.61845  23648432.1684   23648434.0184   23648432.290
        37.6004         35.5004
 -22240587.24147 -17085694.45947  21145331.6184   21145333.4374   21145330.994
        47.5004         44.5004
  -4167486.28646  -2975631.44546  24190274.0164   24190277.4624   24190273.724
        39.2004         36.7004
  -8948325.06146  -6948782.11946  22571434.6984   22571435.4654   22571435.653
        40.6004         38.1004
  -7993017.25946  -5965682.28146  23148312.9534   23148316.3234   23148312.950
        40.3004         37.6004
   3705310.80245   3802021.38445  25355510.3104   25355516.4574   25355513.418
        35.2004         33.6004
 -18758462.28147 -14590077.87947  20961805.8374   20961804.6154   20961805.615
        47.5004         44.5004
 -21009785.11748 -15562632.28147  20583296.5824   20583297.0404   20583297.111
        48.6004         45.6004
     99180.68546     89669.10145  24525133.7674   24525139.2034   24525135.020
        37.8004         35.5004
 15  1  1  0  2  5.0000000  0 10G23G14G03G04G20G01G11G31G32G25
  -7636430.95546  -5752129.67746  23759663.9964   23759663.9674   23759664.703
        39.4004         37.1004
  -4343948.19246  -3362535.19945  23648881.0344   23648882.7004   23648881.343
        37.6004         35.5004
 -22242481.86047 -17087170.78547  21144970.8314   21144972.7634   21144970.439
        47.5004         44.5004
  -4164337.88746  -2973178.14846  24190872.6094   24190876.0234   24190872.907
        39.2004         36.9004
  -8951132.77246  -6950969.94046  22570900.5084   22570901.6014   22570901.294
        40.6004         38.3004
  -7990777.11046  -5963936.71046  23148739.4684   23148742.6344   23148739.208
        40.3004         37.8004
   3707988.28545   3804107.73445  25356020.2564   25356025.9954   25356022.996
        35.2004         33.6004
 -18756397.80147 -14588469.19147  20962198.3644   20962197.3074   20962198.483
        47.5004         44.5004
 -21008996.70248 -15562017.93247  20583446.4904   20583447.5114   20583447.137
        48.6004         45.6004
    101865.16846     91760.90845  24525644.8874   24525650.1334   24525646.001
        37.8004         35.5004
 15  1  1  0  2  6.0000000  0 10G23G14G03G04G20G01G11G31G32G25
  -7639031.56346  -5754156.11446  23759168.9744   23759168.4724   23759169.894
        39.4004         37.1004
  -4341588.77546  -3360696.69245  23649330.0664   23649331.7894   23649330.322
        37.6004         35.5004
 -22244375.99347 -17088646.72847  21144610.6964   21144612.5924   21144610.008
        47.5004         44.7004
  -4161189.46946  -2970724.83846  24191471.8884   24191475.3484   24191472.011
        39.0004         36.7004
  -8953940.13046  -6953157.49346  22570366.0384   22570367.6194   22570367.045
        40.6004         38.1004
  -7988536.59046  -5962190.84946  23149165.7864   23149168.7994   23149165.572
        40.3004         37.8004
   3710665.74245   3806194.06245  25356530.5254   25356534.8084   25356532.474
        35.2004         33.6004
 -18754332.96347 -14586860.22647  20962591.5414   20962590.5554   20962591.409
        47.5004         44.5004
 -21008207.76348 -15561403.17047  20583596.8394   20583597.2434   20583597.261
        48.6004         45.6004
    104550.07046     93853.03945  24526156.2884   24526161.2224   24526156.944
        37.8004         35.5004
 15  1  1  0  2  7.0000000  0 10G23G14G03G04G20G01G11G31G32G25
  -7641632.15346  -5756182.54246  23758674.7124   23758673.8014   23758675.076
        39.4004         36.9004
  -4339229.26846  -3358858.11345  23649778.9974   23649781.2814   23649779.297
        37.6004         35.5004
 -22246269.63747 -17090122.29447  21144250.4014   21144252.1014   21144249.642
        47.5004         44.7004
  -4158041.00346  -2968271.48646  24192070.6424   24192073.9994   24192071.128
        39.0004         36.6004
  -8956747.14446  -6955344.77746  22569832.4224   22569834.1714   22569832.870
        40.6004         38.1004
  -7986295.69846  -5960444.70046  23149591.9364   23149595.6084   23149592.042
        40.3004         37.6004
   3713343.11945   3808280.32545  25357039.8664   25357043.8514   25357041.943
        35.0004         33.6004
 -18752267.77547 -14585250.98547  20962984.4834   20962983.4524   20962984.442
        47.5004         44.5004
 -21007418.27948 -15560787.98847  20583746.9864   20583747.7584   20583747.501
        48.6004         45.6004
    107235.41646     95945.51945  24526667.8134   24526671.7354   24526667.946
        37.8004         35.5004
 15  1  1  0  2  8.0000000  0 10G23G14G03G04G20G01G11G31G32G25
  -7644232.72046  -5758208.95246  23758179.5454   23758179.3834   23758180.152
        39.4004         36.9004
  -4336869.61446  -3357019.42345  23650227.9964   23650229.9194   23650228.359
        37.6004         35.5004
 -22248162.79447 -17091597.48047  21143889.7454   21143891.6984   21143889.395
        47.5004         44.7004
  -4154892.49746  -2965818.10746  24192670.4864   24192673.6904   24192670.264
        39.0004         36.6004
  -8959553.78946  -6957531.77246  22569297.8604   22569300.0384   22569298.856
        40.6004         38.1004
  -7984054.43346  -5958698.25746  23150018.6294   23150022.3994   23150018.553
        40.3004         37.6004
   3716020.47345   3810366.56845  25357549.6394   25357553.6574   25357551.522
        35.0004         33.4004
 -18750202.23247 -14583641.47447  20963377.6264   20963376.7054   20963377.520
        47.5004         44.5004
 -21006628.27548 -15560172.40447  20583897.4054   20583898.0804   20583897.821
        48.6004         45.6004
    109921.19346     98038.33145  24527178.7254   24527183.0864   24527179.033
        37.8004         35.5004
 15  1  1  0  2  9.0000000  0 10G23G14G03G04G20G01G11G31G32G25
  -7646833.26546  -5760235.34846  23757685.8504   23757684.9804   23757685.193
        39.4004         36.7004
  -4334509.88946  -3355180.67445  23650677.2584   23650678.7784   23650677.486
        37.6004         35.5004
 -22250055.45747 -17093072.28047  21143529.3954   21143531.4374   21143529.233
        47.5004         44.7004
  -4151743.93146  -2963364.68446  24193270.2504   24193274.1294   24193269.389
        39.0004         36.7004
  -8962360.09446  -6959718.50146  22568764.2584   22568765.6354   22568764.874
        40.6004         38.1004
  -7981812.80346  -5956951.53446  23150445.3034   23150448.8834   23150445.194
        40.3004         37.8004
   3718697.76545   3812452.76945  25358059.1524   25358064.1394   25358060.980
        35.0004         33.6004
 -18748136.32947 -14582031.67747  20963770.8154   20963769.9534   20963770.660
        47.5004         44.5004
 -21005837.74948 -15559556.40747  20584047.8624   20584048.3084   20584048.252
        48.6004         45.6004
    112607.41746    100131.49345  24527689.8564   24527694.1274   24527690.307
        37.8004         35.7004
 15  1  1  0  2 10.0000000  0 10G23G14G03G04G20G01G11G31G32G25
  -7649433.79246  -5762261.72946  23757191.4154   23757190.3814   23757190.364
        39.4004         36.7004
  -4332150.04546  -3353341.83145  23651126.7884   23651127.0724   23651126.593
        37.6004         35.3004
 -22251947.65147 -17094546.71547  21143169.3514   21143171.5094   21143169.199
        47.5004         44.7004
  -4148595.34346  -2960911.24146  24193869.9934   24193873.5404   24193868.552
        39.0004         36.7004
  -8965166.03346  -6961904.94346  22568229.6664   22568230.6194   22568230.942
        40.6004         38.1004
  -7979570.80346  -5955204.52046  23150872.1814   23150875.4154   23150871.881
        40.3004         37.6004
   3721375.03245   3814538.94845  25358569.4034   25358572.8254   25358570.568
        35.0004         33.4004
 -18746070.07347 -14580421.60947  20964163.7704   20964162.8674   20964163.840
        47.5004         44.5004
 -21005046.67648 -15558939.98747  20584198.2394   20584199.0084   20584198.801
        48.6004         45.6004
    115294.10246    102225.01345  24528201.2634   24528205.8954   24528201.511
        37.8004         35.7004
 15  1  1  0  2 11.0000000  0 10G23G14G03G04G20G01G11G31G32G25
  -7652034.29246  -5764288.08646  23756696.3994   23756694.4804   23756695.520
        39.4004         36.7004
  -4329790.08846  -3351502.90445  23651576.3854   23651576.8434   23651575.657
        37.6004         35.3004
 -22253839.33447 -17096020.75447  21142809.8564   21142811.6424   21142809.227
        47.5004         44.5004
  -4145446.70746  -2958457.76146  24194467.7124   24194472.0574   24194467.719
        39.0004         36.6004
  -8967971.64046  -6964091.12946  22567696.0844   22567696.8034   22567697.148
        40.6004         38.1004
  -7977328.43346  -5953457.21846  23151298.7764   23151302.2784   23151298.585
        40.3004         37.6004
   3724052.25045   3816625.08845  25359079.2734   25359082.5864   25359079.975
        35.0004         33.4004
 -18744003.46547 -14578811.26647  20964556.9874   20964556.0294   20964557.103
        47.5004         44.5004
 -21004255.07848 -15558323.15947  20584348.7894   20584349.5244   20584349.465
        48.6004         45.6004
    117981.20646    104318.86345  24528712.4824   24528717.2484   24528712.788
        37.8004         35.7004
 15  1  1  0  2 12.0000000  0 10G23G14G03G04G20G01G11G31G32G25
  -7654634.76646  -5766314.43046  23756202.2154   23756198.7784   23756200.695
        39.4004         36.9004
  -4327430.02246  -3349663.89145  23652025.0814   23652026.6864   23652024.827
        37.6004         35.3004
 -22255730.54647 -17097494.42247  21142449.9044   21142451.3144   21142449.355
        47.5004         44.7004
  -4142298.04146  -2956004.26146  24195067.1244   24195071.2374   24195066.852
        39.0004         36.7004
  -8970776.87246  -6966277.02346  22567162.1994   22567162.9244   22567163.354
        40.6004         38.3004
  -7975085.70146  -5951709.63346  23151725.3224   23151729.0224   23151725.336
        40.3004         37.6004
   3726729.41645   3818711.18845  25359588.0804   25359591.8194   25359589.415
        35.0004         33.4004
 -18741936.50147 -14577200.64247  20964950.7004   20964949.1604   20964950.443
        47.5004         44.5004
 -21003462.95348 -15557705.91647  20584499.8684   20584500.3234   20584500.200
        48.6004         45.6004
    120668.76846    106413.06945  24529223.8074   24529228.2994   24529224.252
        37.8004         35.5004
 15  1  1  0  2 13.0000000  0 10G23G14G03G04G20G01G11G31G32G25
  -7657235.21746  -5768340.74646  23755707.4114   23755703.0704   23755705.813
        39.4004         36.9004
  -4325069.85446  -3347824.79945  23652473.9644   23652475.8424   23652473.941
        37.6004         35.5004
 -22257621.25847 -17098967.70347  21142089.9574   21142091.7154   21142089.567
        47.5004         44.7004
  -4139149.34846  -2953550.73546  24195666.7834   24195670.2634   24195665.992
        39.0004         36.6004
  -8973581.76846  -6968462.65946  22566628.6694   22566629.6534   22566629.613
        40.6004         38.3004
  -7972842.57846  -5949961.74446  23152152.3814   23152156.3304   23152152.220
        40.3004         37.6004
   3729406.51345   3820797.23845  25360097.4684   25360101.7174   25360098.842
        35.2004         33.4004
 -18739869.18147 -14575589.74147  20965344.1264   20965342.9174   20965343.815
        47.5004         44.5004
 -21002670.29748 -15557088.25947  20584650.3444   20584651.0844   20584651.040
        48.6004         45.6004
    123356.73646    108507.59045  24529735.4994   24529739.6664   24529735.583
        37.8004         35.5004
 15  1  1  0  2 14.0000000  0 10G23G14G03G04G20G01G11G31G32G25
  -7659835.63646  -5770367.04246  23755212.7934   23755208.9154   23755211.025
        39.4004         36.9004
  -4322709.57546  -3345985.62245  23652923.0274   23652924.5874   23652923.111
        37.6004         35.5004
 -22259511.49547 -17100440.61347  21141730.0674   21141732.1224   21141729.831
        47.5004         44.7004
  -4136000.60646  -2951097.17146  24196265.5484   24196269.4014   24196265.185
        39.0004         36.4004
  -8976386.30446  -6970648.00746  22566095.2084   22566095.7354   22566095.854
        40.8004         38.3004
  -7970599.10246  -5948213.58146  23152580.0774   23152583.1004   23152579.206
        40.3004         37.6004
   3732083.58145   3822883.26145  25360607.6134   25360612.0614   25360608.434
        35.0004         33.4004
 -18737801.51347 -14573978.57347  20965737.5714   20965736.2274   20965737.268
        47.5004         44.5004
 -21001877.09948 -15556470.18347  20584801.4854   20584802.2684   20584801.975
        48.6004         45.6004
    126045.15946    110602.46745  24530246.9054   24530251.1604   24530247.045
        37.8004         35.5004
 15  1  1  0  2 15.0000000  0 10G23G14G03G04G20G01G11G31G32G25
  -7662436.03146  -5772393.32246  23754717.3344   23754713.9994   23754716.200
        39.4004         36.9004
  -4320349.19746  -3344146.36745  23653372.3434   23653373.0564   23653372.246
        37.6004         35.5004
 -22261401.23347 -17101913.13347  21141370.4494   21141372.6034   21141370.219
        47.5004         44.7004
  -4132851.82346  -2948643.58246  24196864.9624   24196867.9414   24196864.311
        39.0004         36.6004
  -8979190.48646  -6972833.08046  22565561.6824   22565561.8384   22565562.183
        40.8004         38.3004
  -7968355.24146  -5946465.11846  23153007.3684   23153009.8374   23153006.203
        40.3004         37.6004
   3734760.59745   3824969.24245  25361116.2164   25361121.1174   25361117.956
        35.0004         33.3004
 -18735733.48047 -14572367.11947  20966130.9074   20966129.5044   20966130.784
        47.5004         44.5004
 -21001083.36348 -15555851.68747  20584952.2924   20584953.1444   20584953.002
        48.6004         45.6004
    128734.03646    112697.69645  24530758.3664   24530762.9584   24530758.700
        37.8004         35.5004
 15  1  1  0  2 16.0000000  0 10G23G14G03G04G20G01G11G31G32G25
  -7665036.39246  -5774419.57946  23754221.6154   23754219.3124   23754221.392
        39.4004         37.1004
  -4317988.69646  -3342307.01445  23653821.0644   23653822.3044   23653821.511
        37.6004         35.5004
 -22263290.48447 -17103385.27447  21141010.9624   21141012.8994   21141010.689
        47.5004         44.7004
  -4129702.98546  -2946189.94846  24197464.0394   24197467.5184   24197463.531
        39.0004         36.4004
  -8981994.32046  -6975017.88246  22565027.4264   22565028.4774   22565028.567
        40.8004         38.1004
  -7966111.02646  -5944716.37446  23153433.8504   23153436.2634   23153433.236
        40.3004         37.6004
   3737437.55245   3827055.17945  25361625.3914   25361629.7974   25361627.451
        35.0004         33.4004
 -18733665.09847 -14570755.39447  20966524.3394   20966523.3654   20966524.386
        47.5004         44.5004
 -21000289.11848 -15555232.79247  20585103.2834   20585104.2374   20585104.132
        48.6004         45.6004
    131423.34246    114793.26045  24531269.8884   24531274.6494   24531270.454
        37.8004         35.5004
 15  1  1  0  2 17.0000000  0 10G23G14G03G04G20G01G11G31G32G25
  -7667636.73246  -5776445.81546  23753726.0674   23753725.2844   23753726.599
        39.4004         37.1004
  -4315628.09146  -3340467.58145  23654269.9994   23654271.7434   23654270.708
        37.6004         35.5004
 -22265179.25547 -17104857.04947  21140651.7864   21140653.9504   21140651.273
        47.5004         44.7004
  -4126554.12346  -2943736.29146  24198063.8674   24198065.8294   24198062.739
        39.0004         36.4004
  -8984797.79146  -6977202.40246  22564494.2324   22564494.7454   22564494.982
        40.8004         38.3004
  -7963866.44146  -5942967.34946  23153860.8004   23153863.3744   23153860.338
        40.3004         37.6004
   3740114.47645   3829141.09545  25362135.1934   25362138.5234   25362136.760
        35.0004         33.4004
 -18731596.35747 -14569143.38847  20966918.1954   20966917.0924   20966918.045
        47.5004         44.5004
 -20999494.33648 -15554613.48447  20585254.9254   20585255.6234   20585255.372
        48.6004         45.6004
    134113.08746    116889.16545  24531782.2684   24531786.5284   24531782.286
        37.8004         35.5004
 15  1  1  0  2 18.0000000  0 10G23G14G03G04G20G01G11G31G32G25
  -7670237.04846  -5778472.03246  23753231.3774   23753230.5224   23753231.790
        39.4004         36.9004
  -4313267.38146  -3338628.06745  23654719.2424   23654720.8304   23654719.929
        37.5004         35.5004
 -22267067.52247 -17106328.42247  21140292.3574   21140294.2074   21140291.938
        47.5004         44.7004
  -4123405.23346  -2941282.60546  24198661.9004   24198665.5984   24198661.934
        39.0004         36.4004
  -8987600.92246  -6979386.65946  22563961.1554   22563962.2284   22563961.511
        40.8004         38.3004
  -7961621.48546  -5941218.03246  23154288.2944   23154291.1364   23154287.546
        40.1004         37.6004
   3742791.34445   3831226.96645  25362644.4694   25362648.1174   25362646.143
        35.0004         33.4004
 -18729527.26147 -14567531.10547  20967311.9454   20967310.8644   20967311.772
        47.5004         44.5004
 -20998699.01448 -15553993.75247  20585406.3444   20585406.9774   20585406.746
        48.6004         45.6004
    136803.26646    118985.40945  24532294.0634   24532298.3224   24532294.184
        37.8004         35.3004
 15  1  1  0  2 19.0000000  0 10G23G14G03G04G20G01G11G31G32G25
  -7672837.34146  -5780498.22246  23752736.1964   23752735.4114   23752736.927
        39.4004         36.7004
  -4310906.57446  -3336788.48145  23655167.9544   23655170.8884   23655169.133
        37.5004         35.5004
 -22268955.31147 -17107799.42347  21139933.1914   21139934.9514   21139932.709
        47.5004         44.7004
  -4120256.30746  -2938828.89446  24199261.2394   24199264.9514   24199261.232
        39.0004         36.4004
  -8990403.69246  -6981570.63946  22563427.8734   22563428.7084   22563428.108
        40.8004         38.1004
  -7959376.16146  -5939468.43246  23154715.3974   23154718.3404   23154714.790
        40.1004         37.6004
   3745468.15645   3833312.79445  25363153.7164   25363157.5764   25363155.615
        35.0004         33.4004
 -18727457.81447 -14565918.54547  20967705.7874   20967704.7804   20967705.580
        47.5004         44.5004
 -20997903.16948 -15553373.61347  20585557.6364   20585558.4724   20585558.193
        48.6004         45.6004
    139493.89546    121082.00445  24532806.2764   24532810.0914   24532806.209
        37.8004         35.3004
 15  1  1  0  2 20.0000000  0 10G23G14G03G04G20G01G11G31G32G25
  -7675437.61246  -5782524.40346  23752241.5224   23752240.4364   23752242.111
        39.4004         36.7004
  -4308545.64646  -3334948.79745  23655617.2164   23655619.5814   23655618.385
        37.5004         35.3004
 -22270842.61247 -17109270.04847  21139573.9684   21139575.7894   21139573.551
        47.5004         44.7004
  -4117107.34446  -2936375.15246  24199860.2704   24199863.5534   24199860.444
        39.0004         36.6004
  -8993206.10446  -6983754.33546  22562894.6984   22562895.4774   22562894.840
        40.8004         38.1004
  -7957130.46446  -5937718.53846  23155142.9144   23155146.0044   23155142.105
        40.1004         37.6004
   3748144.89545   3835398.56345  25363663.4984   25363667.1794   25363665.020
        35.0004         33.4004
 -18725388.01447 -14564305.71547  20968099.2874   20968098.5134   20968099.430
        47.5004         44.5004
 -20997106.79448 -15552753.06147  20585709.1484   20585709.8144   20585709.751
        48.6004         45.6004
    142184.94846    123178.93145  24533318.3644   24533322.2584   24533318.343
        37.6004         35.3004
 15  1  1  0  2 21.0000000  0 10G23G14G03G04G20G01G11G31G32G25
  -7678037.85546  -5784550.56646  23751746.9424   23751745.7514   23751747.335
        39.4004         36.7004
  -4306184.60146  -3333109.02345  23656066.8744   23656068.7694   23656067.718
        37.5004         35.5004
 -22272729.42347 -17110740.28947  21139214.7934   21139217.1984   21139214.513
        47.5004         44.7004
  -4113958.33746  -2933921.37946  24200459.3214   24200462.9644   24200459.693
        39.0004         36.6004
  -8996008.16546  -6985937.76146  22562361.7584   22562362.4274   22562361.656
        40.8004         37.9004
  -7954884.39546  -5935968.35546  23155569.8834   23155572.9544   23155569.513
        40.1004         37.6004
   3750821.61845   3837484.32345  25364173.1714   25364175.5914   25364174.354
        35.0004         33.4004
 -18723317.86447 -14562692.61247  20968493.4394   20968492.5874   20968493.335
        47.5004         44.5004
 -20996309.89148 -15552132.09847  20585860.8034   20585861.5044   20585861.412
        48.6004         45.6004
    144876.45346    125276.20545  24533830.2554   24533833.8964   24533830.571
        37.6004         35.5004
 15  1  1  0  2 22.0000000  0 10G23G14G03G04G20G01G11G31G32G25
  -7680638.05746  -5786576.69146  23751252.0894   23751250.4374   23751252.634
        39.4004         36.7004
  -4303823.46046  -3331269.17345  23656516.3274   23656517.8504   23656516.966
        37.6004         35.5004
 -22274615.73847 -17112210.14147  21138856.2174   21138857.8274   21138855.567
        47.5004         44.7004
  -4110809.30546  -2931467.59046  24201058.9764   24201062.0354   24201058.908
        39.0004         36.4004
  -8998809.86446  -6988120.89746  22561828.7414   22561829.0954   22561828.542
        40.8004         37.9004
  -7952637.95646  -5934217.88746  23155997.0924   23156000.8154   23155996.960
        40.1004         37.6004
   3753498.27345   3839570.02245  25364682.2664   25364685.3094   25364683.694
        35.0004         33.4004
 -18721247.34147 -14561079.21547  20968887.8044   20968886.5424   20968887.321
        47.5004         44.5004
 -20995512.44248 -15551510.70647  20586012.5084   20586013.3314   20586013.157
        48.6004         45.6004
    147568.39146    127373.82545  24534342.3384   24534345.9224   24534342.678
        37.6004         35.5004
 15  1  1  0  2 23.0000000  0 10G23G14G03G04G20G01G11G31G32G25
  -7683238.25346  -5788602.81146  23750757.7584   23750755.4824   23750757.908
        39.4004         36.7004
  -4301462.20646  -3329429.23545  23656965.7154   23656967.0504   23656966.255
        37.6004         35.5004
 -22276501.57347 -17113679.62247  21138497.0294   21138498.9644   21138496.709
        47.5004         44.7004
  -4107660.19646  -2929013.73946  24201658.8924   24201661.6974   24201658.075
        39.0004         36.6004
  -9001611.22046  -6990303.77146  22561295.0544   22561295.8104   22561295.542
        40.8004         38.1004
  -7950391.16746  -5932467.14446  23156425.0264   23156428.5224   23156424.499
        40.1004         37.6004
   3756174.88445   3841655.69245  25365191.4244   25365195.9674   25365192.965
        35.0004         33.6004
 -18719176.48147 -14559465.55647  20969281.7754   20969280.6454   20969281.398
        47.5004         44.5004
 -20994714.48148 -15550888.91947  20586164.4054   20586165.4364   20586165.012
        48.6004         45.6004
    150260.78546    129471.79445  24534854.5894   24534857.6824   24534855.049
        37.6004         35.3004
 15  1  1  0  2 24.0000000  0 10G23G14G03G04G20G01G11G31G32G25
  -7685838.41946  -5790628.90846  23750263.5414   23750260.5054   23750263.189
        39.4004         36.7004
  -4299100.84746  -3327589.21345  23657415.0044   23657416.6724   23657415.598
        37.6004         35.5004
 -22278386.91047 -17115148.71847  21138138.5094   21138140.2234   21138137.937
        47.5004         44.7004
  -4104511.05546  -2926559.86146  24202258.4814   24202261.6594   24202257.272
        39.0004         36.6004
  -9004412.21446  -6992486.36446  22560761.6414   22560762.3804   22560762.537
        40.8004         38.1004
  -7948143.99646  -5930716.10346  23156852.5694   23156856.4144   23156852.116
        40.1004         37.6004
   3758851.44445   3843741.32345  25365701.2634   25365705.3484   25365702.439
        35.0004         33.4004
 -18717105.26247 -14557851.62047  20969675.9174   20969674.6674   20969675.533
        47.5004         44.5004
 -20993915.97148 -15550266.70447  20586316.3214   20586317.3264   20586316.982
        48.6004         45.6004
    152953.58246    131570.07745  24535366.5684   24535370.7964   24535367.435
        37.6004         35.3004
 15  1  1  0  2 25.0000000  0 10G23G14G03G04G20G01G11G31G32G25
  -7688438.55846  -5792654.98746  23749768.6514   23749765.4544   23749768.363
        39.4004         36.9004
  -4296739.39146  -3325749.11945  23657864.8204   23657866.4644   23657865.009
        37.6004         35.5004
 -22280271.76947 -17116617.43447  21137779.7854   21137781.5824   21137779.257
        47.5004         44.7004
  -4101361.90246  -2924105.98146  24202857.8794   24202860.4344   24202856.573
        39.0004         36.6004
  -9007212.86446  -6994668.68046  22560228.6914   22560228.9964   22560229.578
        40.8004         38.3004
  -7945896.45446  -5928964.77346  23157279.5174   23157284.2104   23157279.768
        40.1004         37.4004
   3761527.95645   3845826.91345  25366211.2674   25366214.1894   25366211.746
        35.0004         33.4004
 -18715033.69347 -14556237.41147  20970069.8414   20970068.5794   20970069.726
        47.5004         44.5004
 -20993116.92548 -15549644.06847  20586468.3334   20586469.2044   20586469.037
        48.6004         45.6004
    155646.87246    133668.74545  24535879.2424   24535883.0734   24535879.993
        37.6004         35.5004
 15  1  1  0  2 26.0000000  0 10G23G14G03G04G20G01G11G31G32G25
  -7691038.68946  -5794681.06446  23749272.9734   23749271.4634   23749273.614
        39.2004         36.7004
  -4294377.81446  -3323908.93045  23658314.1634   23658315.8544   23658314.471
        37.6004         35.7004
 -22282156.12947 -17118085.76547  21137421.2564   21137423.3154   21137420.675
        47.5004         44.7004
  -4098212.70346  -2921652.05846  24203456.4734   24203459.6354   24203455.826
        39.0004         36.6004
  -9010013.15446  -6996850.72346  22559695.1884   22559696.1704   22559696.685
        40.8004         38.3004
  -7943648.54646  -5927213.15646  23157707.5364   23157711.9854   23157707.529
        40.1004         37.4004
   3764204.39845   3847912.44845  25366720.9554   25366723.4134   25366721.076
        35.0004         33.4004
 -18712961.77647 -14554622.92947  20970463.8244   20970462.9944   20970463.986
        47.5004         44.5004
 -20992317.35848 -15549021.02947  20586620.5944   20586621.1264   20586621.179
        48.6004         45.6004
    158340.57446    135767.73545  24536391.9014   24536395.7624   24536392.518
        37.6004         35.3004
 15  1  1  0  2 27.0000000  0 10G23G14G03G04G20G01G11G31G32G25
  -7693638.76546  -5796707.09646  23748777.4064   23748776.7734   23748778.884
        39.2004         36.9004
  -4292016.13246  -3322068.65945  23658763.7394   23658765.2044   23658763.870
        37.6004         35.7004
 -22284040.00547 -17119553.71947  21137062.5524   21137064.7524   21137062.188
        47.5004         44.7004
  -4095063.46546  -2919198.11146  24204055.9394   24204058.8464   24204055.069
        39.0004         36.6004
  -9012813.08446  -6999032.48446  22559162.5294   22559163.5944   22559163.867
        40.8004         38.3004
  -7941400.27346  -5925461.25646  23158135.5284   23158140.3444   23158135.347
        40.1004         37.4004
   3766880.81745   3849997.96845  25367230.4064   25367232.4914   25367230.496
        35.0004         33.6004
 -18710889.49447 -14553008.16347  20970858.5594   20970857.3694   20970858.329
        47.5004         44.5004
 -20991517.25248 -15548397.57147  20586772.8724   20586773.6244   20586773.448
        48.6004         45.6004
    161034.70246    137867.06045  24536904.4504   24536908.2784   24536905.159
        37.6004         35.3004
 15  1  1  0  2 28.0000000  0 10G23G14G03G04G20G01G11G31G32G25
  -7696238.82646  -5798733.10846  23748282.9384   23748282.5834   23748284.229
        39.2004         36.9004
  -4289654.35146  -3320228.30745  23659213.2684   23659215.4214   23659213.336
        37.6004         35.7004
 -22285923.39047 -17121021.29147  21136704.3444   21136706.2924   21136703.791
        47.7004         44.7004
  -4091914.18646  -2916744.12946  24204655.2664   24204658.6414   24204654.372
        39.0004         36.6004
  -9015612.67246  -7001213.98346  22558629.9324   22558630.9274   22558631.132
        40.8004         38.3004
  -7939151.64346  -5923709.07446  23158563.7094   23158567.5934   23158563.233
        40.1004         37.4004
   3769557.17845   3852083.43945  25367739.5264   25367741.3434   25367739.614
        35.0004         33.6004
 -18708816.86347 -14551393.12747  20971252.9024   20971252.0304   20971252.739
        47.5004         44.5004
 -20990716.62948 -15547773.70747  20586925.2854   20586925.8574   20586925.822
        48.6004         45.6004
    163729.26646    139966.72145  24537417.4164   24537421.3294   24537417.891
        37.6004         35.3004
 15  1  1  0  2 29.0000000  0 10G23G14G03G04G20G01G11G31G32G25
  -7698838.85746  -5800759.10546  23747788.6264   23747787.6734   23747789.384
        39.4004         36.9004
  -4287292.44346  -3318387.85845  23659662.7234   23659664.6414   23659662.811
        37.6004         35.7004
 -22287806.28047 -17122488.47647  21136345.9484   21136347.8324   21136345.492
        47.7004         44.7004
  -4088764.85446  -2914290.10346  24205253.9424   24205258.0714   24205253.733
        39.0004         36.7004
  -9018411.89246  -7003395.19046  22558097.2614   22558098.1294   22558098.441
        40.8004         38.3004
  -7936902.62746  -5921956.59446  23158991.1904   23158995.6294   23158991.208
        40.1004         37.4004
   3772233.48145   3854168.86445  25368248.9834   25368250.3814   25368248.962
        35.0004         33.4004
 -18706743.87647 -14549777.81147  20971647.4064   20971646.5244   20971647.224
        47.5004         44.7004
 -20989915.45348 -15547149.41247  20587077.6034   20587078.2524   20587078.304
        48.8004         45.6004
    166424.29046    142066.74145  24537930.1274   24537934.1094   24537930.675
        37.6004         35.3004
 15  1  1  0  2 30.0000000  0 10G23G14G03G04G20G01G11G31G32G25
  -7701438.86546  -5802785.07746  23747294.2174   23747292.3974   23747294.537
        39.4004         37.1004
  -4284930.43146  -3316547.32945  23660112.2504   23660114.5874   23660112.280
        37.6004         35.7004
 -22289688.69247 -17123955.28947  21135987.8044   21135989.4304   21135987.291
        47.7004         44.7004
  -4085615.49846  -2911836.06246  24205852.9694   24205857.0344   24205853.033
        39.0004         36.7004
  -9021210.76546  -7005576.12746  22557565.3474   22557565.6284   22557565.815
        40.8004         38.3004
  -7934653.25046  -5920203.83446  23159419.3154   23159423.5134   23159419.237
        40.1004         37.4004
   3774909.73145   3856254.25745  25368758.1484   25368760.9024   25368758.387
        35.0004         33.4004
 -18704670.53347 -14548162.22147  20972042.1054   20972040.7684   20972041.753
        47.5004         44.5004
 -20989113.75548 -15546524.71347  20587230.3754   20587231.0584   20587230.849
        48.8004         45.6004
    169119.73546    144167.08845  24538442.8584   24538446.8284   24538443.633
        37.6004         35.3004
 15  1  1  0  2 31.0000000  0 10G23G14G03G04G20G01G11G31G32G25
  -7704038.85846  -5804811.04146  23746799.9694   23746797.4974   23746799.756
        39.4004         36.9004
  -4282568.31046  -3314706.71545  23660561.8324   23660563.7044   23660561.810
        37.8004         35.7004
 -22291570.60147 -17125421.70947  21135629.8114   21135631.2984   21135629.156
        47.7004         44.7004
  -4082466.10146  -2909381.98946  24206452.7824   24206456.2694   24206452.427
        39.0004         36.7004
  -9024009.27946  -7007756.78946  22557033.1054   22557032.8334   22557033.285
        40.8004         38.1004
  -7932403.50646  -5918450.78946  23159846.9204   23159851.7804   23159847.354
        40.1004         37.6004
   3777585.95845   3858339.62745  25369268.3134   25369270.1234   25369267.568
        35.0004         33.3004
 -18702596.83347 -14546546.35047  20972436.8044   20972435.3944   20972436.338
        47.5004         44.5004
 -20988311.52248 -15545899.59547  20587382.8674   20587383.5444   20587383.516
        48.8004         45.6004
    171815.61046    146267.77045  24538956.0494   24538960.4144   24538956.721
        37.6004         35.2004
 15  1  1  0  2 32.0000000  0 10G23G14G03G04G20G01G11G31G32G25
  -7706638.79946  -5806836.96246  23746305.3484   23746303.2204   23746305.002
        39.4004         36.9004
  -4280206.08246  -3312866.01245  23661010.9894   23661012.8134   23661011.304
        37.6004         35.7004
 -22293452.02647 -17126887.75147  21135271.7494   21135273.6284   21135271.120
        47.7004         44.7004
  -4079316.65546  -2906927.87746  24207052.4654   24207054.9514   24207051.763
        39.0004         36.7004
  -9026807.44246  -7009937.17346  22556500.8094   22556500.6954   22556500.850
        40.8004         38.1004
  -7930153.38646  -5916697.45046  23160274.9094   23160280.0104   23160275.610
        40.1004         37.6004
   3780262.11645   3860424.93945  25369778.2804   25369778.4904   25369776.623
        34.9004         33.3004
 -18700522.78847 -14544930.20947  20972831.3474   20972830.2454   20972830.989
        47.5004         44.7004
 -20987508.75248 -15545274.05947  20587535.5484   20587536.4604   20587536.275
        48.8004         45.6004
    174511.92746    148368.79745  24539469.2744   24539473.1854   24539469.904
        37.5004         35.2004
 15  1  1  0  2 33.0000000  0 10G23G14G03G04G20G01G11G31G32G25
  -7709238.73446  -5808862.88046  23745810.5484   23745808.6144   23745810.200
        39.4004         36.9004
  -4277843.75046  -3311025.23445  23661460.4514   23661462.4544   23661460.743
        37.6004         35.7004
 -22295332.95947 -17128353.41447  21134913.5884   21134915.7514   21134913.182
        47.7004         44.7004
  -4076167.19846  -2904473.76046  24207651.2764   24207654.4774   24207651.036
        39.0004         36.6004
  -9029605.23946  -7012117.27646  22555968.4544   22555968.7454   22555968.490
        40.8004         38.1004
  -7927902.90846  -5914943.82946  23160703.5764   23160708.4244   23160703.821
        40.1004         37.6004
   3782938.20245   3862510.19945  25370287.2954   25370288.7734   25370285.853
        34.9004         33.1004
 -18698448.38247 -14543313.78847  20973226.2684   20973224.9964   20973225.732
        47.5004         44.5004
 -20986705.46448 -15544648.11947  20587688.3944   20587689.3734   20587689.146
        48.8004         45.6004
    177208.67446    150470.16145  24539982.4394   24539986.0414   24539983.094
        37.5004         35.2004
 15  1  1  0  2 34.0000000  0 10G23G14G03G04G20G01G11G31G32G25
  -7711838.63646  -5810888.77346  23745315.6674   23745313.5794   23745315.526
        39.2004         36.7004
  -4275481.30546  -3309184.36845  23661910.7744   23661912.2614   23661910.388
        37.6004         35.7004
 -22297213.40747 -17129818.69647  21134555.8274   21134557.7894   21134555.337
        47.7004         44.7004
  -4073017.69346  -2902019.59646  24208250.3104   24208252.8364   24208250.330
        39.0004         36.4004
  -9032402.68746  -7014297.10146  22555435.9514   22555437.0784   22555436.247
        40.8004         38.1004
  -7925652.04846  -5913189.91346  23161131.7284   23161136.3304   23161132.157
        40.1004         37.6004
   3785614.27845   3864595.44745  25370796.9504   25370797.9094   25370795.101
        34.9004         33.3004
 -18696373.62647 -14541697.09547  20973620.7654   20973619.8694   20973620.556
        47.5004         44.7004
 -20985901.63448 -15544021.76047  20587841.4004   20587842.3364   20587842.139
        48.8004         45.6004
    179905.87346    152571.87645  24540495.0494   24540499.5024   24540496.270
        37.5004         35.2004
 15  1  1  0  2 35.0000000  0 10G23G14G03G04G20G01G11G31G32G25
  -7714438.51346  -5812914.65546  23744820.0774   23744819.8984   23744820.787
        39.2004         36.7004
  -4273118.75246  -3307343.42045  23662359.9754   23662361.9234   23662360.047
        37.8004         35.7004
 -22299093.35947 -17131283.59147  21134197.7764   21134200.3124   21134197.589
        47.7004         44.7004
  -4069868.16746  -2899565.41846  24208849.1214   24208852.6904   24208849.690
        39.0004         36.6004
  -9035199.78246  -7016476.65946  22554903.6764   22554904.3364   22554904.046
        40.8004         38.1004
  -7923400.84946  -5911435.72946  23161560.5224   23161564.6934   23161560.587
        40.1004         37.6004
   3788290.28245   3866680.64745  25371305.2844   25371307.3854   25371304.406
        34.9004         33.1004
 -18694298.51847 -14540080.12647  20974015.6534   20974014.7754   20974015.426
        47.5004         44.5004
 -20985097.28948 -15543394.99647  20587994.5684   20587995.1174   20587995.206
        48.8004         45.6004
    182603.52246    154673.94045  24541008.1504   24541013.2244   24541009.558
        37.5004         35.3004
 15  1  1  0  2 36.0000000  0 10G23G14G03G04G20G01G11G31G32G25
  -7717038.36946  -5814940.51146  23744325.0574   23744324.4474   23744326.040
        39.2004         36.7004
  -4270756.08846  -3305502.38445  23662809.5174   23662811.7004   23662809.643
        37.6004         35.7004
 -22300972.83247 -17132748.11647  21133840.4794   21133842.4674   21133839.948
        47.7004         44.7004
  -4066718.61546  -2897111.22446  24209448.1424   24209452.3884   24209448.980
        39.0004         36.6004
  -9037996.52646  -7018655.93446  22554370.7414   22554371.8884   22554371.876
        40.8004         38.3004
  -7921149.26646  -5909681.24746  23161988.7354   23161993.8094   23161989.074
        40.1004         37.6004
   3790966.23145   3868765.79845  25371813.9594   25371815.9874   25371813.601
        34.9004         33.3004
 -18692223.05247 -14538462.88247  20974410.4464   20974409.8084   20974410.373
        47.5004         44.5004
 -20984292.40048 -15542767.81147  20588147.6874   20588148.1454   20588148.376
        48.8004         45.6004
    185301.59246    156776.33545  24541521.3414   24541527.2924   24541522.972
        37.5004         35.2004
 15  1  1  0  2 37.0000000  0 10G23G14G03G04G20G01G11G31G32G25
  -7719638.17946  -5816966.33546  23743830.4644   23743828.6204   23743831.342
        39.2004         36.9004
  -4268393.33446  -3303661.27845  23663259.2544   23663261.1954   23663259.279
        37.6004         35.7004
 -22302851.80847 -17134212.25247  21133482.7414   21133484.9244   21133482.427
        47.7004         44.7004
  -4063568.99946  -2894656.97646  24210047.6634   24210051.8814   24210048.377
        39.0004         36.6004
  -9040792.90746  -7020834.93346  22553838.6934   22553839.9564   22553839.726
        40.8004         38.3004
  -7918897.32046  -5907926.48746  23162417.2654   23162422.5124   23162417.621
        40.1004         37.6004
   3793642.14345   3870850.92045  25372324.0054   25372324.6104   25372322.799
        34.9004         33.3004
 -18690147.23647 -14536845.36447  20974805.7734   20974804.8284   20974805.384
        47.5004         44.5004
 -20983486.97748 -15542140.20947  20588301.0384   20588301.8024   20588301.626
        48.8004         45.6004
    188000.11046    158879.07245  24542034.7224   24542040.1984   24542036.325
        37.5004         35.2004
 15  1  1  0  2 38.0000000  0 10G23G14G03G04G20G01G11G31G32G25
  -7722237.98646  -5818992.15646  23743335.8194   23743334.3104   23743336.625
        39.2004         36.7004
  -4266030.44746  -3301820.06845  23663708.9524   23663710.3684   23663708.969
        37.6004         35.7004
 -22304730.28647 -17135675.99647  21133125.5244   21133127.1134   21133125.001
        47.7004         44.7004
  -4060419.34246  -2892202.69746  24210646.5054   24210650.2804   24210647.759
        39.0004         36.6004
  -9043588.92146  -7023013.64446  22553306.9304   22553307.9414   22553307.632
        40.8004         38.3004
  -7916644.99146  -5906171.42146  23162845.8254   23162851.1664   23162846.188
        40.1004         37.6004
   3796318.00445   3872936.00445  25372833.3614   25372833.3534   25372831.955
        34.9004         33.3004
 -18688071.07547 -14535227.57547  20975200.7934   20975199.7374   20975200.445
        47.5004         44.5004
 -20982681.03148 -15541512.19447  20588454.2594   20588455.0664   20588454.966
        48.8004         45.8004
    190699.07446    160982.16145  24542548.6224   24542553.6074   24542549.819
        37.5004         35.2004
 15  1  1  0  2 39.0000000  0 10G23G14G03G04G20G01G11G31G32G25
  -7724837.77146  -5821017.95146  23742840.9224   23742839.0104   23742841.882
        39.2004         36.9004
  -4263667.47446  -3299978.78945  23664158.5094   23664159.9914   23664158.660
        37.6004         35.7004
 -22306608.28247 -17137139.36647  21132768.2694   21132769.8894   21132767.650
        47.7004         44.7004
  -4057269.66546  -2889748.41246  24211246.1434   24211249.9174   24211247.079
        39.0004         36.6004
  -9046384.59346  -7025192.07746  22552775.1044   22552775.7054   22552775.645
        40.8004         38.3004
  -7914392.31046  -5904416.08346  23163275.1364   23163279.2774   23163274.814
        40.1004         37.6004
   3798993.79545   3875021.03145  25373341.1554   25373343.9324   25373341.029
        34.7004         33.3004
 -18685994.55547 -14533609.50847  20975595.8504   20975594.6624   20975595.616
        47.5004         44.5004
 -20981874.55648 -15540883.77347  20588607.6874   20588608.6804   20588608.446
        48.8004         45.6004
    193398.46146    163085.58245  24543061.8884   24543067.4294   24543063.500
        37.5004         35.2004
 15  1  1  0  2 40.0000000  0 10G23G14G03G04G20G01G11G31G32G25
  -7727437.51546  -5823043.72846  23742346.2814   23742344.7094   23742347.112
        39.2004         36.9004
  -4261304.38146  -3298137.41745  23664608.1814   23664609.7514   23664608.348
        37.6004         35.7004
 -22308485.78447 -17138602.35947  21132410.9274   21132412.7194   21132410.405
        47.7004         44.9004
  -4054119.95246  -2887294.09146  24211844.9714   24211850.6264   24211846.475
        39.0004         36.6004
  -9049179.90646  -7027370.24146  22552243.2654   22552244.4124   22552243.728
        40.8004         38.3004
  -7912139.27046  -5902660.46946  23163704.6354   23163708.1584   23163703.601
        40.1004         37.8004
   3801669.55445   3877106.04245  25373849.7604   25373853.2604   25373850.008
        34.9004         33.3004
 -18683917.68847 -14531991.16947  20975991.1224   20975989.8614   20975990.848
        47.5004         44.5004
 -20981067.54748 -15540254.93747  20588761.4094   20588762.1964   20588762.019
        48.8004         45.6004
    196098.28046    165189.34045  24543576.1714   24543581.4574   24543577.321
        37.5004         35.3004
 15  1  1  0  2 41.0000000  0 10G23G14G03G04G20G01G11G31G32G25
  -7730037.23546  -5825069.47246  23741851.6104   23741851.0374   23741852.375
        39.2004         36.9004
  -4258941.19046  -3296295.96845  23665057.6074   23665058.9504   23665058.018
        37.6004         35.7004
 -22310362.80947 -17140064.97347  21132053.5844   21132055.6764   21132053.216
        47.7004         44.7004
  -4050970.17946  -2884839.71646  24212444.7624   24212450.8244   24212445.800
        39.0004         36.4004
  -9051974.85546  -7029548.12746  22551711.4104   22551712.8514   22551711.898
        40.8004         38.3004
  -7909885.86046  -5900904.56646  23164133.6424   23164137.1824   23164132.373
        40.1004         37.8004
   3804345.25945   3879191.00445  25374358.2544   25374362.2924   25374359.021
        34.9004         33.4004
 -18681840.46347 -14530372.54947  20976386.6254   20976385.2574   20976386.144
        47.5004         44.5004
 -20980260.00948 -15539625.68447  20588915.0544   20588915.8484   20588915.676
        48.8004         45.6004
    198798.52446    167293.42745  24544090.3574   24544095.7964   24544091.139
        37.5004         35.2004
 15  1  1  0  2 42.0000000  0 10G23G14G03G04G20G01G11G31G32G25
  -7732636.91146  -5827095.19246  23741357.6944   23741355.7974   23741357.689
        39.2004         36.9004
  -4256577.89446  -3294454.43645  23665506.9794   23665508.5484   23665507.681
        37.6004         35.7004
 -22312239.32047 -17141527.18647  21131696.2684   21131698.4014   21131696.139
        47.7004         44.7004
  -4047820.37846  -2882385.32246  24213045.0204   24213050.4424   24213045.211
        39.0004         36.4004
  -9054769.44946  -7031725.73046  22551180.1774   22551180.5504   22551180.158
        40.8004         38.3004
  -7907632.06646  -5899148.36246  23164561.7734   23164566.3424   23164561.183
        40.1004         37.8004
   3807020.90345   3881275.91845  25374867.6004   25374873.1664   25374868.119
        34.9004         33.4004
 -18679762.88547 -14528753.65647  20976781.9414   20976780.5394   20976781.517
        47.5004         44.5004
 -20979451.93148 -15538996.01347  20589068.7384   20589069.7864   20589069.459
        48.8004         45.6004
    201499.23546    169397.87545  24544604.6494   24544609.7764   24544605.171
        37.5004         35.2004
 15  1  1  0  2 43.0000000  0 10G23G14G03G04G20G01G11G31G32G25
  -7735236.59546  -5829120.91346  23740862.2964   23740861.6664   23740862.992
        39.4004         36.7004
  -4254214.49046  -3292612.82045  23665956.8274   23665957.6364   23665957.430
        37.8004         35.7004
 -22314115.35447 -17142989.03347  21131339.5584   21131341.5364   21131339.142
        47.7004         44.7004
  -4044670.56846  -2879930.92646  24213644.1944   24213649.1074   24213644.615
        39.0004         36.6004
  -9057563.69746  -7033903.06246  22550648.0854   22550648.2504   22550648.564
        40.8004         38.1004
  -7905377.91946  -5897391.88546  23164990.4584   23164995.3824   23164990.106
        40.1004         37.8004
   3809696.51545   3883360.80945  25375377.1624   25375382.0584   25375377.185
        34.9004         33.3004
 -18677684.95147 -14527134.49147  20977177.5394   20977176.0394   20977176.948
        47.5004         44.5004
 -20978643.32348 -15538365.93047  20589222.6244   20589223.4064   20589223.335
        48.8004         45.6004
    204200.35446    171502.64445  24545118.5984   24545124.3184   24545119.158
        37.3004         35.2004
 15  1  1  0  2 44.0000000  0 10G23G14G03G04G20G01G11G31G32G25
  -7737836.23846  -5831146.60746  23740368.4824   23740367.3024   23740368.278
        39.2004         36.9004
  -4251850.96946  -3290771.11845  23666406.7464   23666407.4414   23666407.209
        37.8004         35.7004
 -22315990.89647 -17144450.49247  21130982.4194   21130984.3704   21130982.241
        47.7004         44.7004
  -4041520.70046  -2877476.48246  24214244.6364   24214247.2014   24214244.026
        38.9004         36.4004
  -9060357.58346  -7036080.11346  22550116.4044   22550116.3424   22550116.932
        40.8004         38.1004
  -7903123.39746  -5895635.11546  23165419.1094   23165423.7224   23165419.190
        40.1004         37.6004
   3812372.03645   3885445.62745  25375885.3814   25375891.7564   25375886.368
        34.9004         33.3004
 -18675606.66547 -14525515.04347  20977573.0274   20977571.4404   20977572.438
        47.5004         44.5004
 -20977834.18448 -15537735.43047  20589376.7254   20589377.2044   20589377.318
        48.8004         45.6004
    206901.92846    173607.76945  24545632.3034   24545638.6494   24545633.198
        37.3004         35.0004
 15  1  1  0  2 45.0000000  0 10G23G14G03G04G20G01G11G31G32G25
  -7740435.85546  -5833172.27746  23739873.7294   23739872.2524   23739873.560
        39.2004         36.7004
  -4249487.35746  -3288929.34345  23666855.9834   23666857.2744   23666857.020
        37.8004         35.7004
 -22317865.94847 -17145911.56647  21130625.8344   21130627.6264   21130625.421
        47.7004         44.7004
  -4038370.81246  -2875022.02946  24214843.5814   24214847.6364   24214843.439
        39.0004         36.6004
  -9063151.12046  -7038256.89546  22549584.1414   22549585.0574   22549585.376
        40.8004         38.1004
  -7900868.52346  -5893878.07146  23165847.8964   23165852.4754   23165848.307
        40.1004         37.6004
   3815047.55045   3887530.44045  25376395.1724   25376399.8744   25376395.433
        34.9004         33.3004
 -18673528.02947 -14523895.32447  20977968.1704   20977967.3604   20977968.006
        47.5004         44.5004
 -20977024.52348 -15537104.52547  20589530.7584   20589531.3114   20589531.405
        48.8004         45.6004
    209603.93346    175713.22345  24546146.5814   24546153.0644   24546147.354
        37.3004         35.0004
 15  1  1  0  2 46.0000000  0 10G23G14G03G04G20G01G11G31G32G25
  -7743035.46346  -5835197.93946  23739379.2334   23739376.9784   23739378.833
        39.2004         36.9004
  -4247123.61146  -3287087.46345  23667305.7394   23667306.6884   23667306.744
        37.6004         35.5004
 -22319740.50347 -17147372.25847  21130269.0684   21130271.1734   21130268.693
        47.7004         44.7004
  -4035220.88046  -2872567.53846  24215443.3874   24215446.6284   24215442.871
        39.0004         36.7004
  -9065944.29946  -7040433.39946  22549052.5774   22549053.4404   22549053.929
        40.8004         38.1004
  -7898613.27746  -5892120.73646  23166276.9014   23166281.6134   23166277.520
        40.1004         37.6004
   3817722.96845   3889615.17845  25376905.2374   25376908.8224   25376904.490
        34.7004         33.1004
 -18671449.03647 -14522275.33347  20978363.9604   20978362.7274   20978363.655
        47.5004         44.5004
 -20976214.32348 -15536473.20147  20589684.9304   20589685.8064   20589685.583
        48.8004         45.6004
    212306.37946    177819.02545  24546660.6004   24546667.8544   24546661.582
        37.3004         35.0004
 15  1  1  0  2 47.0000000  0 10G23G14G03G04G20G01G11G31G32G25
  -7745635.01646  -5837223.55746  23738883.6354   23738881.1454   23738884.164
        39.2004         36.9004
  -4244759.77646  -3285245.51145  23667755.8814   23667756.1494   23667756.535
        37.8004         35.5004
 -22321614.57347 -17148832.57047  21129912.4134   21129914.3664   21129912.058
        47.7004         44.9004
  -4032070.92546  -2870113.03646  24216042.8344   24216045.5434   24216042.337
        39.0004         36.6004
  -9068737.12746  -7042609.63646  22548521.5804   22548522.0964   22548522.463
        40.8004         38.3004
  -7896357.65346  -5890363.10646  23166706.2014   23166710.9384   23166706.799
        40.1004         37.6004
   3820398.37145   3891699.90745  25377413.4254   25377419.0904   25377413.629
        34.7004         33.1004
 -18669369.68647 -14520655.05847  20978759.5774   20978758.3674   20978759.363
        47.5004         44.5004
 -20975403.58548 -15535841.45447  20589839.2814   20589839.8154   20589839.857
        48.8004         45.6004
    215009.26946    179925.17345  24547175.6144   24547181.6774   24547175.842
        37.3004         35.0004
 15  1  1  0  2 48.0000000  0 10G23G14G03G04G20G01G11G31G32G25
  -7748234.55746  -5839249.17146  23738389.6704   23738386.8944   23738389.524
        39.2004         36.9004
  -4242395.82746  -3283403.47045  23668205.8904   23668206.0274   23668206.378
        37.6004         35.7004
 -22323488.15147 -17150292.50047  21129555.9174   21129557.8104   21129555.527
        47.7004         44.9004
  -4028920.94546  -2867658.51046  24216642.5194   24216645.2054   24216641.824
        38.9004         36.6004
  -9071529.60546  -7044785.59746  22547989.9274   22547990.5684   22547991.054
        40.9004         38.3004
  -7894101.66146  -5888605.19246  23167135.3674   23167140.3474   23167136.061
        40.1004         37.6004
   3823073.70745   3893784.58545  25377923.3244   25377928.3504   25377922.554
        34.7004         33.1004
 -18667289.99247 -14519034.51747  20979155.3274   20979154.5284   20979155.146
        47.5004         44.5004
 -20974592.33148 -15535209.30647  20589993.7274   20589994.4234   20589994.244
        48.8004         45.6004
    217712.57746    182031.64845  24547689.7374   24547695.8574   24547690.153
        37.3004         34.8004
 15  1  1  0  2 49.0000000  0 10G23G14G03G04G20G01G11G31G32G25
  -7750834.06546  -5841274.75946  23737895.5724   23737891.9424   23737894.890
        39.2004         36.9004
  -4240031.76546  -3281561.34645  23668656.0074   23668655.8964   23668656.279
        37.8004         35.5004
 -22325361.23347 -17151752.04347  21129199.3904   21129201.2164   21129199.090
        47.7004         44.7004
  -4025770.92246  -2865203.95346  24217241.2574   24217244.9164   24217241.286
        38.9004         36.4004
  -9074321.72146  -7046961.26646  22547458.2194   22547459.1734   22547459.731
        40.9004         38.3004
  -7891845.33846  -5886847.01746  23167564.9084   23167569.7874   23167565.435
        40.1004         37.6004
   3825748.97145   3895869.20045  25378431.5894   25378437.1234   25378431.686
        34.7004         33.3004
 -18665209.94647 -14517413.70347  20979551.2814   20979550.3304   20979550.961
        47.5004         44.7004
 -20973780.53748 -15534576.74247  20590148.1144   20590148.8584   20590148.708
        48.8004         45.6004
    220416.31346    184138.45945  24548204.5894   24548209.6474   24548204.503
        37.1004         34.8004
 15  1  1  0  2 50.0000000  0 10G23G14G03G04G20G01G11G31G32G25
  -7753433.55446  -5843300.33046  23737400.8084   23737397.5804   23737400.162
        39.2004         36.9004
  -4237667.58046  -3279719.12245  23669105.8464   23669106.2004   23669106.159
        37.8004         35.7004
 -22327233.81747 -17153211.19947  21128843.1314   21128845.1244   21128842.799
        47.7004         44.9004
  -4022620.85646  -2862749.35546  24217841.2304   24217844.6694   24217840.780
        38.9004         36.6004
  -9077113.48646  -7049136.66846  22546926.4364   22546927.6984   22546928.390
        40.9004         38.3004
  -7889588.63046  -5885088.54246  23167994.6394   23167999.1244   23167994.889
        40.1004         37.6004
   3828424.20345   3897953.79345  25378941.2064   25378945.6514   25378940.737
        34.7004         33.3004
 -18663129.53947 -14515792.60647  20979947.0244   20979945.7664   20979946.847
        47.5004         44.7004
 -20972968.21448 -15533943.76547  20590302.5404   20590303.5164   20590303.272
        48.8004         45.6004
    223120.51046    186245.62645  24548719.6104   24548724.9384   24548719.195
        37.1004         34.8004
 15  1  1  0  2 51.0000000  0 10G23G14G03G04G20G01G11G31G32G25
  -7756033.01646  -5845325.88246  23736906.2344   23736903.4484   23736905.558
        39.2004         37.1004
  -4235303.29746  -3277876.82245  23669555.7464   23669556.0484   23669556.116
        37.8004         35.7004
 -22329105.92447 -17154669.98047  21128486.7534   21128488.7954   21128486.547
        47.7004         44.7004
  -4019470.76946  -2860294.74146  24218440.4304   24218443.6594   24218440.246
        38.9004         36.4004
  -9079904.89246  -7051311.79146  22546395.2054   22546396.8304   22546397.087
        40.9004         38.3004
  -7887331.54546  -5883329.77246  23168424.0254   23168428.2014   23168424.381
        40.1004         37.6004
   3831099.38945   3900038.35645  25379450.6544   25379453.7364   25379449.831
        34.9004         33.4004
 -18661048.78347 -14514171.23747  20980342.9194   20980341.8374   20980342.821
        47.5004         44.5004
 -20972155.35648 -15533310.36647  20590457.1544   20590458.4854   20590457.960
        48.8004         45.6004
    225825.15446    188353.14345  24549234.4774   24549239.4054   24549233.975
        37.1004         34.8004
 15  1  1  0  2 52.0000000  0 10G23G14G03G04G20G01G11G31G32G25
  -7758632.45746  -5847351.41446  23736411.2454   23736407.8934   23736410.923
        39.4004         37.1004
  -4232938.90446  -3276034.43845  23670005.5154   23670005.8984   23670006.047
        37.8004         35.7004
 -22330977.53847 -17156128.38447  21128130.8004   21128132.5754   21128130.370
        47.7004         44.7004
  -4016320.62246  -2857840.08646  24219039.2204   24219043.1404   24219039.739
        38.9004         36.4004
  -9082695.93046  -7053486.62146  22545864.3364   22545865.2334   22545865.916
        40.9004         38.5004
  -7885074.10146  -5881570.72146  23168853.0264   23168857.2894   23168853.905
        40.1004         37.4004
   3833774.50945   3902122.86345  25379959.1924   25379962.7194   25379958.791
        34.9004         33.4004
 -18658967.67547 -14512549.59847  20980738.7094   20980737.7744   20980738.828
        47.5004         44.7004
 -20971341.95948 -15532676.55147  20590612.1364   20590612.9354   20590612.736
        48.8004         45.6004
    228530.19446    190460.96545  24549749.0404   24549754.5394   24549748.702
        37.1004         34.8004
 15  1  1  0  2 53.0000000  0 10G23G14G03G04G20G01G11G31G32G25
  -7761231.85646  -5849376.91946  23735916.1604   23735912.7434   23735916.295
        39.4004         36.9004
  -4230574.40246  -3274191.96745  23670455.3134   23670455.5634   23670456.024
        37.6004         35.7004
 -22332848.65447 -17157586.39347  21127774.7674   21127776.6834   21127774.314
        47.7004         44.7004
  -4013170.44346  -2855385.40346  24219639.4334   24219642.4614   24219639.234
        38.9004         36.6004
  -9085486.61746  -7055661.18246  22545333.5964   22545335.0354   22545334.828
        40.9004         38.3004
  -7882816.29246  -5879811.39046  23169282.9894   23169287.5074   23169283.563
        40.1004         37.4004
   3836449.57745   3904207.33045  25380467.7614   25380472.0194   25380467.743
        34.9004         33.4004
 -18656886.22047 -14510927.68047  20981134.9894   20981133.9744   20981134.938
        47.5004         44.7004
 -20970528.03548 -15532042.32447  20590766.9154   20590767.5134   20590767.617
        48.8004         45.6004
    231235.70746    192569.15945  24550263.6714   24550269.0474   24550263.733
        37.1004         34.8004
 15  1  1  0  2 54.0000000  0 10G23G14G03G04G20G01G11G31G32G25
  -7763831.24346  -5851402.40746  23735421.7274   23735418.7964   23735421.687
        39.4004         36.9004
  -4228209.79846  -3272349.41745  23670904.9584   23670905.9284   23670906.099
        37.6004         35.7004
 -22334719.28447 -17159044.02347  21127418.7154   21127420.5464   21127418.373
        47.7004         44.9004
  -4010020.22646  -2852930.68946  24220239.9774   24220241.2004   24220238.723
        38.9004         36.4004
  -9088276.95446  -7057835.47046  22544802.9134   22544804.6914   22544803.838
        40.9004         38.3004
  -7880558.12446  -5878051.77746  23169713.2074   23169717.4094   23169713.242
        40.1004         37.4004
   3839124.60345   3906291.76745  25380978.2694   25380980.8364   25380976.802
        34.9004         33.6004
 -18654804.40347 -14509305.48447  20981531.4064   20981529.5094   20981531.111
        47.5004         44.5004
 -20969713.57348 -15531407.67547  20590921.9344   20590922.5504   20590922.597
        48.8004         45.6004
    233941.62546    194677.66945  24550778.9794   24550783.5234   24550778.896
        37.1004         34.6004
 15  1  1  0  2 55.0000000  0 10G23G14G03G04G20G01G11G31G32G25
  -7766430.59446  -5853427.86446  23734926.7564   23734924.4514   23734927.049
        39.4004         36.9004
  -4225845.08646  -3270506.78245  23671355.1254   23671355.8364   23671356.130
        37.6004         35.7004
 -22336589.43047 -17160501.27947  21127062.5674   21127064.6154   21127062.486
        47.7004         44.9004
  -4006869.97146  -2850475.94346  24220839.5064   24220840.2034   24220838.179
        38.9004         36.4004
  -9091066.91746  -7060009.46046  22544272.0194   22544273.2264   22544272.887
        40.9004         38.3004
  -7878299.59346  -5876291.88746  23170142.6264   23170147.5554   23170143.023
        40.1004         37.6004
   3841799.56445   3908376.14945  25381487.4314   25381489.6714   25381485.700
        34.9004         33.6004
 -18652722.23647 -14507683.01547  20981927.4324   20981925.8954   20981927.370
        47.5004         44.5004
 -20968898.58248 -15530772.61747  20591076.9334   20591077.8584   20591077.666
        48.8004         45.6004
    236647.98046    196786.51945  24551292.7434   24551298.2054   24551294.081
        37.0004         34.6004
 15  1  1  0  2 56.0000000  0 10G23G14G03G04G20G01G11G31G32G25
  -7769029.92446  -5855453.31246  23734431.4154   23734430.0924   23734432.471
        39.4004         36.9004
  -4223480.24146  -3268664.04645  23671805.2404   23671805.8454   23671806.150
        37.6004         35.7004
 -22338459.06947 -17161958.13747  21126706.8254   21126708.7834   21126706.692
        47.7004         44.7004
  -4003719.68846  -2848021.17846  24221438.6184   24221439.7544   24221437.692
        38.9004         36.4004
  -9093856.53346  -7062183.18346  22543740.5504   22543741.7694   22543742.002
        40.9004         38.1004
  -7876040.69046  -5874531.70146  23170572.2974   23170577.8874   23170572.932
        40.1004         37.6004
   3844474.47245   3910460.48745  25381996.6444   25381998.1384   25381994.756
        34.9004         33.6004
 -18650639.72047 -14506060.27447  20982324.0364   20982322.3194   20982323.688
        47.5004         44.5004
 -20968083.06848 -15530137.15147  20591232.1674   20591233.1574   20591232.824
        48.8004         45.6004
    239354.79446    198895.72845  24551808.6404   24551812.8204   24551809.327
        37.0004         34.6004
 15  1  1  0  2 57.0000000  0 10G23G14G03G04G20G01G11G31G32G25
  -7771629.23946  -5857478.74546  23733936.2264   23733936.5074   23733937.933
        39.4004         36.9004
  -4221115.30646  -3266821.23945  23672255.4164   23672255.7204   23672256.182
        37.6004         35.7004
 -22340328.22847 -17163414.62247  21126351.3864   21126353.0394   21126350.960
        47.7004         44.9004
  -4000569.37646  -2845566.39146  24222037.9884   24222039.6524   24222037.204
        38.9004         36.6004
  -9096645.78446  -7064356.62646  22543210.3044   22543210.9414   22543211.213
        40.9004         38.1004
  -7873781.42246  -5872771.23246  23171002.7414   23171007.8384   23171002.918
        40.1004         37.4004
   3847149.32345   3912544.78445  25382506.1984   25382507.8784   25382503.738
        34.9004         33.8004
 -18648556.84547 -14504437.25547  20982720.1974   20982718.9764   20982720.052
        47.5004         44.5004
 -20967267.01648 -15529501.26747  20591387.6444   20591388.1154   20591388.108
        48.8004         45.6004
    242062.04346    201005.27345  24552322.6494   24552328.5084   24552324.357
        37.0004         34.5004
 15  1  1  0  2 58.0000000  0 10G23G14G03G04G20G01G11G31G32G25
  -7774228.51446  -5859504.15046  23733441.6934   23733441.9554   23733443.384
        39.4004         37.1004
  -4218750.27046  -3264978.35545  23672705.1644   23672705.7814   23672706.258
        37.6004         35.7004
 -22342196.88747 -17164870.72147  21125995.8244   21125997.8334   21125995.368
        47.7004         44.7004
  -3997419.04846  -2843111.59346  24222637.5854   24222639.3754   24222636.790
        38.9004         36.6004
  -9099434.68846  -7066529.80146  22542679.8574   22542680.3834   22542680.500
        40.9004         38.3004
  -7871521.77846  -5871010.47546  23171432.8244   23171437.5204   23171432.885
        40.1004         37.4004
   3849824.14145   3914629.05545  25383015.2414   25383016.3984   25383012.805
        34.9004         33.8004
 -18646473.61047 -14502813.95347  20983116.7474   20983115.5904   20983116.461
        47.5004         44.5004
 -20966450.44248 -15528864.97647  20591542.7914   20591543.5324   20591543.490
        48.8004         45.6004
    244769.73946    203115.16645  24552837.3864   24552843.3714   24552839.493
        37.0004         34.5004
 15  1  1  0  2 59.0000000  0 10G23G14G03G04G20G01G11G31G32G25
  -7776827.76946  -5861529.53546  23732946.8634   23732946.3294   23732948.822
        39.4004         37.1004
  -4216385.12546  -3263135.38845  23673154.8194   23673156.0514   23673156.416
        37.6004         35.5004
 -22344065.05447 -17166326.43547  21125639.9774   21125642.3694   21125639.874
        47.7004         44.7004
  -3994268.68946  -2840656.76546  24223236.0924   24223239.6094   24223236.324
        38.9004         36.6004
  -9102223.23046  -7068702.69246  22542149.1504   22542150.4454   22542149.811
        40.9004         38.3004
  -7869261.79546  -5869249.45346  23171862.9304   23171867.7364   23171862.896
        40.1004         37.4004
   3852498.88445   3916713.27145  25383523.6874   25383525.0604   25383521.959
        34.9004         33.6004
 -18644390.02147 -14501190.38047  20983513.2964   20983511.9724   20983512.989
        47.5004         44.7004
 -20965633.32748 -15528228.26347  20591698.5024   20591699.2934   20591698.968
        48.8004         45.6004
    247477.83946    205225.37745  24553353.1694   24553356.5494   24553354.592
        36.8004         34.3004
 15  1  1  0  3  0.0000000  0 10G23G14G03G04G20G01G11G31G32G25
  -7779427.00646  -5863554.91646  23732452.4384   23732452.8474   23732454.261
        39.4004         37.1004
  -4214019.86846  -3261292.33145  23673605.7784   23673606.6574   23673606.546
        37.6004         35.5004
 -22345932.73247 -17167781.76347  21125284.3754   21125286.6994   21125284.474
        47.7004         44.9004
  -3991118.27846  -2838201.89646  24223834.9154   24223839.4624   24223835.782
        38.9004         36.6004
  -9105011.40346  -7070875.28446  22541618.5094   22541619.2424   22541619.199
        40.9004         38.3004
  -7867001.42446  -5867488.12246  23172293.8684   23172297.5264   23172293.056
        40.1004         37.4004
   3855173.60745   3918797.46745  25384033.2574   25384033.2274   25384031.053
        34.9004         33.4004
 -18642306.08347 -14499566.53047  20983909.9604   20983908.3014   20983909.566
        47.5004         44.5004
 -20964815.68348 -15527591.13547  20591854.0484   20591854.7694   20591854.543
        48.8004         45.6004
    250186.38546    207335.93745  24553868.7174   24553871.8594   24553869.873
        36.8004         34.5004
 15  1  1  0  3  1.0000000  0 10G23G14G03G04G20G01G11G31G32G25
  -7782026.20446  -5865580.26346  23731958.4204   23731958.6994   23731959.665
        39.4004         37.1004
  -4211654.50546  -3259449.18945  23674055.7544   23674056.3094   23674056.673
        37.6004         35.5004
 -22347799.90947 -17169236.70847  21124929.2864   21124931.2774   21124929.155
        47.7004         44.7004
  -3987967.84346  -2835747.01346  24224435.1944   24224438.1864   24224435.232
        38.9004         36.4004
  -9107799.23046  -7073047.61146  22541087.7604   22541088.5074   22541088.736
        40.9004         38.3004
  -7864740.69746  -5865726.51546  23172724.1344   23172728.0284   23172723.209
        40.1004         37.4004
   3857848.23145   3920881.59245  25384541.9294   25384542.1404   25384540.141
        34.9004         33.4004
 -18640221.79047 -14497942.40747  20984306.3484   20984304.9384   20984306.214
        47.5004         44.5004
 -20963997.51248 -15526953.59947  20592009.7234   20592010.6964   20592010.235
        48.8004         45.6004
    252895.35246    209446.82145  24554384.4354   24554386.9594   24554385.388
        36.8004         34.5004
 15  1  1  0  3  2.0000000  0 10G23G14G03G04G20G01G11G31G32G25
  -7784625.38746  -5867605.59146  23731463.9374   23731463.5564   23731465.027
        39.4004         36.9004
  -4209289.03946  -3257605.97145  23674506.3934   23674506.8994   23674506.893
        37.6004         35.5004
 -22349666.60147 -17170691.27447  21124574.2334   21124576.1824   21124573.913
        47.7004         44.7004
  -3984817.36046  -2833292.09846  24225034.2484   24225037.8174   24225034.816
        38.9004         36.4004
  -9110586.71146  -7075219.67646  22540557.5484   22540557.7194   22540558.293
        40.9004         38.3004
  -7862479.61146  -5863964.62846  23173154.4434   23173158.1394   23173153.458
        40.1004         37.4004
   3860522.82045   3922965.68845  25385050.6924   25385051.1184   25385049.111
        34.9004         33.4004
 -18638137.15547 -14496318.01247  20984702.7684   20984701.6704   20984702.929
        47.5004         44.5004
 -20963178.80048 -15526315.64247  20592165.3754   20592166.3494   20592166.030
        48.8004         45.8004
    255604.77646    211558.06045  24554900.7014   24554903.4164   24554900.988
        36.8004         34.3004
 15  1  1  0  3  3.0000000  0 10G23G14G03G04G20G01G11G31G32G25
  -7787224.52446  -5869630.88646  23730969.5664   23730969.1994   23730970.422
        39.4004         36.9004
  -4206923.46446  -3255762.66645  23674956.4464   23674957.4124   23674957.110
        37.6004         35.5004
 -22351532.79947 -17172145.45047  21124218.9854   21124221.2314   21124218.783
        47.7004         44.7004
  -3981666.84346  -2830837.14746  24225634.4854   24225637.7024   24225634.344
        38.9004         36.6004
  -9113373.82246  -7077391.44946  22540027.1714   22540027.3374   22540027.880
        40.9004         38.1004
  -7860218.15046  -5862202.45346  23173584.7334   23173588.1004   23173583.828
        40.1004         37.4004
   3863197.36745   3925049.74445  25385559.2134   25385561.2174   25385558.243
        34.9004         33.4004
 -18636052.16547 -14494693.34247  20985099.5654   20985098.6994   20985099.692
        47.5004         44.5004
 -20962359.55848 -15525677.26947  20592321.2734   20592322.0394   20592321.944
        48.8004         45.6004
    258314.62546    213669.63145  24555417.2194   24555419.2344   24555416.579
        36.8004         34.3004
 15  1  1  0  3  4.0000000  0 10G23G14G03G04G20G01G11G31G32G25
  -7789823.65246  -5871656.17446  23730475.1064   23730473.6014   23730475.880
        39.4004         36.9004
  -4204557.77746  -3253919.27645  23675407.2384   23675407.6734   23675407.373
        37.6004         35.5004
 -22353398.50847 -17173599.24847  21123864.2344   21123865.8654   21123863.707
        47.7004         44.7004
  -3978516.28546  -2828382.16646  24226233.8794   24226237.5574   24226233.882
        38.9004         36.6004
  -9116160.58046  -7079562.94546  22539497.1374   22539497.8534   22539497.519
        40.9004         38.1004
  -7857956.33746  -5860440.00046  23174014.7544   23174018.2654   23174014.164
        40.1004         37.6004
   3865871.82745   3927133.73545  25386068.7194   25386069.8934   25386067.086
        34.9004         33.4004
 -18633966.82647 -14493068.40347  20985496.2994   20985495.5164   20985496.542
        47.5004         44.5004
 -20961539.78348 -15525038.48247  20592477.2554   20592478.0474   20592477.964
        48.8004         45.6004
    261024.92946    215781.55445  24555932.7974   24555935.0594   24555932.371
        36.8004         34.5004
 15  1  1  0  3  5.0000000  0 10G23G14G03G04G20G01G11G31G32G25
  -7792422.74946  -5873681.44046  23729980.6674   23729978.5114   23729981.322
        39.4004         36.9004
  -4202191.97146  -3252075.79145  23675857.2694   23675857.7124   23675857.564
        37.6004         35.5004
 -22355263.71947 -17175052.65847  21123509.1564   21123510.9354   21123508.770
        47.7004         44.7004
  -3975365.70946  -2825927.17146  24226833.3084   24226836.2524   24226833.451
        38.9004         36.6004
  -9118946.96546  -7081734.15146  22538967.3204   22538967.6904   22538967.302
        40.9004         38.1004
  -7855694.15746  -5858677.26446  23174445.4954   23174448.9854   23174444.639
        40.1004         37.6004
   3868546.25845   3929217.70645  25386577.3754   25386578.0614   25386576.024
        34.9004         33.4004
 -18631881.13247 -14491443.19147  20985893.2024   20985892.0404   20985893.464
        47.5004         44.5004
 -20960719.48348 -15524399.28947  20592633.2114   20592634.2874   20592634.060
        48.8004         45.6004
    263735.60746    217893.77045  24556448.6574   24556450.6744   24556448.254
        36.8004         34.5004
 15  1  1  0  3  6.0000000  0 10G23G14G03G04G20G01G11G31G32G25
  -7795021.80946  -5875706.68546  23729486.0804   23729483.4024   23729486.792
        39.4004         37.1004
  -4199826.06346  -3250232.22945  23676307.4304   23676307.8534   23676307.837
        37.6004         35.5004
 -22357128.43547 -17176505.68247  21123154.5404   21123156.0304   21123153.915
        47.7004         44.7004
  -3972215.08846  -2823472.13846  24227433.1404   24227435.3714   24227433.039
        38.9004         36.6004
  -9121733.00546  -7083905.09046  22538436.8234   22538438.0434   22538437.147
        40.9004         38.3004
  -7853431.59946  -5856914.22646  23174876.4204   23174879.8674   23174875.179
        40.1004         37.6004
   3871220.65345   3931301.64645  25387085.8884   25387086.4254   25387085.038
        34.9004         33.4004
 -18629795.08947 -14489817.69847  20986290.6514   20986288.7744   20986290.405
        47.5004         44.5004
 -20959898.64048 -15523759.67147  20592789.5194   20592790.3044   20592790.246
        48.8004         45.6004
    266446.76546    220006.36045  24556964.6214   24556967.0344   24556964.225
        36.8004         34.5004
 15  1  1  0  3  7.0000000  0 10G23G14G03G04G20G01G11G31G32G25
  -7797620.85046  -5877731.91046  23728991.5734   23728988.7734   23728992.245
        39.4004         37.3004
  -4197460.06446  -3248388.59345  23676758.2994   23676758.2414   23676758.110
        37.8004         35.5004
 -22358992.67647 -17177958.33447  21122799.5444   21122801.5494   21122799.157
        47.7004         44.9004
  -3969064.44746  -2821017.10046  24228032.8884   24228036.3334   24228032.602
        38.9004         36.6004
  -9124518.68846  -7086075.75246  22537906.3314   22537907.1804   22537907.095
        40.9004         38.3004
  -7851168.68546  -5855150.91846  23175306.9744   23175310.4084   23175305.782
        40.1004         37.6004
   3873894.95245   3933385.51345  25387594.6444   25387595.0394   25387593.924
        34.9004         33.6004
 -18627708.70447 -14488191.94647  20986687.5464   20986686.1074   20986687.385
        47.5004         44.5004
 -20959077.27648 -15523119.64947  20592945.8484   20592946.5914   20592946.543
        48.8004         45.6004
    269158.34646    222119.28245  24557480.7684   24557483.2864   24557480.238
        36.8004         34.5004
 15  1  1  0  3  8.0000000  0 10G23G14G03G04G20G01G11G31G32G25
  -7800219.86346  -5879757.10946  23728497.1704   23728494.1744   23728497.679
        39.4004         37.1004
  -4195093.93746  -3246544.86045  23677207.5154   23677208.4954   23677208.369
        37.6004         35.5004
 -22360856.41147 -17179410.59447  21122444.9684   21122446.9484   21122444.480
        47.7004         44.7004
  -3965913.76746  -2818562.02646  24228632.0344   24228636.0264   24228632.069
        38.9004         36.6004
  -9127304.01146  -7088246.13546  22537376.3094   22537377.0644   22537377.063
        40.9004         38.3004
  -7848905.41646  -5853387.33146  23175737.7794   23175741.3204   23175736.506
        40.1004         37.4004
   3876569.22345   3935469.35445  25388102.6834   25388103.3524   25388102.966
        35.0004         33.6004
 -18625621.97247 -14486565.92347  20987084.5564   20987083.1304   20987084.461
        47.5004         44.5004
 -20958255.37448 -15522479.20547  20593102.6294   20593102.9904   20593102.944
        48.8004         45.6004
    271870.39146    224232.56345  24557996.1794   24557999.2034   24557996.289
        36.6004         34.5004
 15  1  1  0  3  9.0000000  0 10G23G14G03G04G20G01G11G31G32G25
  -7802818.85046  -5881782.28646  23728003.7124   23728000.0054   23728003.139
        39.4004         36.9004
  -4192727.69846  -3244701.03545  23677658.1744   23677658.7564   23677658.645
        37.6004         35.5004
 -22362719.64647 -17180862.46347  21122090.0834   21122092.1104   21122089.909
        47.7004         44.7004
  -3962763.05946  -2816106.93146  24229231.6384   24229236.2144   24229231.555
        38.9004         36.6004
  -9130088.97746  -7090416.23246  22536846.7334   22536847.2454   22536847.162
        40.9004         38.3004
  -7846641.78846  -5851623.46546  23176168.1874   23176172.5374   23176167.185
        40.1004         37.4004
   3879243.45445   3937553.16445  25388611.4664   25388611.8784   25388611.771
        34.9004         33.4004
 -18623534.88347 -14484939.61447  20987481.4834   20987480.5044   20987481.614
        47.5004         44.5004
 -20957432.93848 -15521838.34447  20593258.9164   20593259.6914   20593259.464
        48.8004         45.6004
    274582.84846    226346.17045  24558511.9754   24558515.2564   24558512.462
        36.6004         34.5004
 15  1  1  0  3 10.0000000  0 10G23G14G03G04G20G01G11G31G32G25
  -7805417.80746  -5883807.44246  23727508.3194   23727506.4054   23727508.615
        39.4004         36.9004
  -4190361.36846  -3242857.14445  23678108.5864   23678109.1074   23678108.998
        37.6004         35.5004
 -22364582.39747 -17182313.95447  21121735.6744   21121737.6704   21121735.410
        47.7004         44.7004
  -3959612.30746  -2813651.80646  24229831.0004   24229835.4754   24229831.108
        38.9004         36.6004
  -9132873.57446  -7092586.05046  22536316.9804   22536317.7284   22536317.248
        40.9004         38.3004
  -7844377.77646  -5849859.29846  23176598.7744   23176603.1514   23176597.924
        40.1004         37.6004
   3881917.60445   3939636.92045  25389119.6254   25389121.2364   25389120.609
        34.9004         33.4004
 -18621447.44647 -14483313.03947  20987878.7174   20987877.8554   20987878.824
        47.5004         44.5004
 -20956609.97648 -15521197.07347  20593415.3104   20593416.0844   20593416.060
        48.8004         45.6004
    277295.72646    228460.10245  24559028.1784   24559031.3964   24559028.880
        36.6004         34.5004
 15  1  1  0  3 11.0000000  0 10G23G14G03G04G20G01G11G31G32G25
  -7808016.74346  -5885832.58546  23727013.8434   23727010.6794   23727014.065
        39.4004         36.9004
  -4187994.90946  -3241013.15345  23678558.5664   23678559.4624   23678559.312
        37.6004         35.5004
 -22366444.65347 -17183765.06347  21121381.5454   21121383.3314   21121381.045
        47.7004         44.7004
  -3956461.56846  -2811196.68846  24230429.9014   24230434.8974   24230430.789
        38.9004         36.7004
  -9135657.82346  -7094755.58946  22535787.2764   22535787.6494   22535787.444
        40.9004         38.5004
  -7842113.40946  -5848094.85646  23177029.0764   23177033.9354   23177028.762
        40.1004         37.6004
   3884591.70745   3941720.63645  25389628.3384   25389630.3124   25389629.518
        34.9004         33.4004
 -18619359.65947 -14481686.19547  20988276.2634   20988274.6514   20988276.121
        47.5004         44.5004
 -20955786.47948 -15520555.38747  20593572.2574   20593572.8974   20593572.777
        48.8004         45.6004
    280009.03246    230574.36745  24559545.0284   24559547.9664   24559545.149
        36.6004         34.5004
 15  1  1  0  3 12.0000000  0 10G23G14G03G04G20G01G11G31G32G25
  -7810615.64846  -5887857.70246  23726519.5324   23726515.7104   23726519.524
        39.4004         36.7004
  -4185628.34846  -3239169.08045  23679010.0104   23679009.9614   23679009.645
        37.6004         35.5004
 -22368306.42047 -17185215.79147  21121027.3814   21121029.1634   21121026.758
        47.7004         44.7004
  -3953310.76546  -2808741.50846  24231029.7494   24231032.7054   24231030.361
        38.9004         36.6004
  -9138441.70746  -7096924.84446  22535256.9124   22535257.1894   22535257.686
        40.9004         38.3004
  -7839848.68446  -5846330.13446  23177460.0284   23177464.9054   23177459.776
        40.1004         37.6004
   3887265.77045   3943804.32245  25390137.0934   25390139.5704   25390138.376
        34.9004         33.4004
 -18617271.52647 -14480059.07747  20988673.5854   20988672.1694   20988673.470
        47.5004         44.5004
 -20954962.43748 -15519913.27747  20593729.0244   20593730.0074   20593729.579
        48.8004         45.6004
    282722.80846    232688.99945  24560061.3594   24560064.9854   24560061.626
        36.6004         34.5004
 15  1  1  0  3 13.0000000  0 10G23G14G03G04G20G01G11G31G32G25
  -7813214.54146  -5889882.81246  23726025.2754   23726020.8644   23726024.934
        39.4004         36.7004
  -4183261.68946  -3237324.92945  23679460.1224   23679460.1334   23679460.000
        37.6004         35.5004
 -22370167.68347 -17186666.12147  21120673.0224   21120675.0694   21120672.568
        47.7004         44.7004
  -3950159.95046  -2806286.33046  24231630.1694   24231632.2934   24231629.965
        38.9004         36.6004
  -9141225.24546  -7099093.83646  22534727.0294   22534727.4324   22534727.953
        40.9004         38.3004
  -7837583.60146  -5844565.13446  23177891.1014   23177895.5954   23177890.823
        40.1004         37.6004
   3889939.75945   3945887.94645  25390645.7174   25390648.4664   25390647.346
        34.9004         33.4004
 -18615183.04247 -14478431.68547  20989071.0914   20989069.7894   20989070.844
        47.5004         44.5004
 -20954137.87848 -15519270.76347  20593885.7564   20593886.7344   20593886.474
        48.8004         45.6004
    285437.01246    234803.96345  24560577.4304   24560581.5974   24560578.055
        36.6004         34.5004
 15  1  1  0  3 14.0000000  0 10G23G14G03G04G20G01G11G31G32G25
  -7815813.39046  -5891907.88146  23725530.1264   23725526.1094   23725530.384
        39.4004         36.7004
  -4180894.91346  -3235480.68745  23679910.0694   23679910.7524   23679910.442
        37.6004         35.5004
 -22372028.47347 -17188116.09047  21120318.9054   21120321.0274   21120318.444
        47.7004         44.9004
  -3947009.06846  -2803831.10146  24232229.8644   24232231.9684   24232229.644
        38.9004         36.4004
  -9144008.41446  -7101262.53846  22534196.8674   22534198.1394   22534198.321
        40.9004         38.3004
  -7835318.13846  -5842799.84046  23178322.0844   23178326.8204   23178321.968
        40.1004         37.4004
   3892613.67845   3947971.51945  25391155.6604   25391157.9474   25391156.155
        34.9004         33.4004
 -18613094.21147 -14476804.02747  20989468.7214   20989467.3904   20989468.334
        47.5004         44.5004
 -20953312.79148 -15518627.83747  20594042.7604   20594043.4434   20594043.490
        48.8004         45.6004
    288151.63846    236919.25745  24561093.8464   24561099.2694   24561094.571
        36.8004         34.5004
 15  1  1  0  3 15.0000000  0 10G23G14G03G04G20G01G11G31G32G25
  -7818412.22146  -5893932.93546  23725034.8874   23725032.8324   23725035.818
        39.4004         36.9004
  -4178528.03346  -3233636.35945  23680360.7644   23680361.5174   23680360.891
        37.6004         35.5004
 -22373888.75847 -17189565.66247  21119964.8594   21119966.7154   21119964.414
        47.7004         44.7004
  -3943858.16746  -2801375.85246  24232829.7964   24232831.8074   24232829.284
        38.9004         36.7004
  -9146791.22546  -7103430.95946  22533667.0104   22533668.8484   22533668.823
        40.9004         38.3004
  -7833052.32946  -5841034.27646  23178753.9064   23178758.1684   23178753.198
        40.1004         37.6004
   3895287.56545   3950055.06345  25391665.4334   25391666.6094   25391664.817
        34.9004         33.4004
 -18611005.02347 -14475176.08747  20989866.2234   20989864.6074   20989865.881
        47.5004         44.7004
 -20952487.17148 -15517984.49747  20594199.9184   20594200.7104   20594200.584
        48.8004         45.6004
    290866.70646    239034.89645  24561609.5674   24561616.2244   24561611.241
        36.6004         34.5004
 15  1  1  0  3 16.0000000  0 10G23G14G03G04G20G01G11G31G32G25
  -7821011.02046  -5895957.96946  23724540.1784   23724538.6454   23724541.264
        39.4004         36.9004
  -4176161.03646  -3231791.94545  23680811.2084   23680812.3334   23680811.359
        37.6004         35.5004
 -22375748.54647 -17191014.84547  21119611.1154   21119613.0314   21119610.495
        47.7004         44.7004
  -3940707.22146  -2798920.57046  24233429.5494   24233431.9104   24233428.863
        38.9004         36.7004
  -9149573.67246  -7105599.09946  22533137.9154   22533139.4654   22533139.376
        40.9004         38.5004
  -7830786.13646  -5839268.40746  23179185.2204   23179189.6994   23179184.482
        40.1004         37.4004
   3897961.42345   3952138.58945  25392173.4764   25392174.7224   25392173.425
        34.7004         33.3004
 -18608915.48747 -14473547.87347  20990263.6234   20990262.4174   20990263.502
        47.5004         44.5004
 -20951661.02248 -15517340.74147  20594357.1904   20594357.9704   20594357.802
        48.8004         45.6004
    293582.20346    241150.87145  24562125.8594   24562133.4244   24562127.883
        36.6004         34.6004
 15  1  1  0  3 17.0000000  0 10G23G14G03G04G20G01G11G31G32G25
  -7823609.79646  -5897982.98746  23724045.5424   23724044.7644   23724046.732
        39.4004         36.7004
  -4173793.93546  -3229947.44645  23681262.0954   23681262.3874   23681261.844
        37.6004         35.3004
 -22377607.84747 -17192463.64747  21119257.2394   21119259.0164   21119256.657
        47.7004         44.7004
  -3937556.24646  -2796465.26646  24234029.3784   24234031.4034   24234028.432
        38.9004         36.6004
  -9152355.77346  -7107766.97146  22532609.0504   22532610.2404   22532609.953
        40.9004         38.5004
  -7828519.59946  -5837502.27146  23179616.5524   23179620.6154   23179615.849
        40.1004         37.4004
   3900635.20045   3954222.05145  25392683.1374   25392683.5654   25392681.982
        34.7004         33.3004
 -18606825.60947 -14471919.39847  20990661.3644   20990659.9734   20990661.205
        47.5004         44.5004
 -20950834.34848 -15516696.58047  20594514.3434   20594515.3414   20594515.109
        48.8004         45.6004
    296298.11046    243267.16445  24562643.2074   24562649.3014   24562644.693
        36.6004         34.5004
 15  1  1  0  3 18.0000000  0 10G23G14G03G04G20G01G11G31G32G25
  -7826208.55246  -5900007.99046  23723550.9254   23723550.3914   23723552.137
        39.4004         36.9004
  -4171426.72946  -3228102.86945  23681712.3324   23681713.2434   23681712.280
        37.6004         35.3004
 -22379466.64947 -17193912.06347  21118903.4414   21118905.2414   21118902.937
        47.7004         44.7004
  -3934405.25046  -2794009.94346  24234628.5874   24234631.2504   24234628.042
        38.9004         36.4004
  -9155137.49646  -7109934.54846  22532079.1984   22532080.4504   22532080.629
        40.9004         38.3004
  -7826252.69346  -5835735.85446  23180047.5214   23180051.4044   23180047.263
        40.1004         37.4004
   3903308.91845   3956305.46645  25393191.9154   25393192.3514   25393190.613
        34.7004         33.3004
 -18604735.36947 -14470290.63747  20991059.2674   20991057.7724   20991058.964
        47.5004         44.5004
 -20950007.12748 -15516051.99247  20594671.9144   20594672.7924   20594672.502
        48.8004         45.6004
    299014.47846    245383.81845  24563160.0654   24563166.3114   24563161.583
        36.6004         34.5004
 15  1  1  0  3 19.0000000  0 10G23G14G03G04G20G01G11G31G32G25
  -7828807.26946  -5902032.96246  23723056.7044   23723055.9534   23723057.629
        39.4004         36.9004
  -4169059.41846  -3226258.21145  23682163.1464   23682163.9004   23682162.805
        37.6004         35.3004
 -22381324.96147 -17195360.09547  21118549.7964   21118551.5384   21118549.310
        47.7004         44.7004
  -3931254.22146  -2791554.59946  24235227.8074   24235230.6934   24235227.674
        38.9004         36.4004
  -9157918.86946  -7112101.85146  22531549.3784   22531551.4164   22531551.325
        40.9004         38.5004
  -7823985.42446  -5833969.15346  23180478.7864   23180482.7424   23180478.721
        40.1004         37.6004
   3905982.61145   3958388.86145  25393700.4434   25393700.6824   25393699.167
        34.7004         33.1004
 -18602644.78747 -14468661.61047  20991456.8064   20991455.7024   20991456.810
        47.5004         44.5004
 -20949179.38048 -15515406.99547  20594829.4734   20594830.2274   20594830.023
        48.8004         45.6004
    301731.27246    247500.80345  24563677.0064   24563683.7534   24563678.400
        36.6004         34.5004
 15  1  1  0  3 20.0000000  0 10G23G14G03G04G20G01G11G31G32G25
  -7831405.96746  -5904057.91546  23722562.4044   23722560.8324   23722563.073
        39.4004         36.9004
  -4166691.99746  -3224413.46745  23682613.3264   23682613.9854   23682613.283
        37.6004         35.3004
 -22383182.77647 -17196807.74547  21118196.1034   21118198.0144   21118195.755
        47.7004         44.7004
  -3928103.14846  -2789099.22146  24235827.7054   24235831.3164   24235827.344
        38.9004         36.4004
  -9160699.87046  -7114268.85746  22531020.3694   22531022.4624   22531022.064
        40.9004         38.3004
  -7821717.79446  -5832202.17046  23180910.4724   23180914.5634   23180910.267
        40.1004         37.6004
   3908656.21945   3960472.19145  25394209.2944   25394211.2314   25394207.811
        34.7004         33.1004
 -18600553.85747 -14467032.31647  20991854.6734   20991853.5314   20991854.692
        47.5004         44.5004
 -20948351.10448 -15514761.58747  20594987.2554   20594987.8464   20594987.627
        48.8004         45.6004
    304448.51146    249618.13345  24564193.8784   24564200.7264   24564195.426
        36.6004         34.3004
 15  1  1  0  3 21.0000000  0 10G23G14G03G04G20G01G11G31G32G25
  -7834004.63946  -5906082.85246  23722067.8914   23722065.4924   23722068.534
        39.4004         37.1004
  -4164324.46146  -3222568.63445  23683063.8324   23683064.0154   23683063.814
        37.6004         35.3004
 -22385040.10047 -17198255.01047  21117842.8484   21117844.7944   21117842.326
        47.7004         44.9004
  -3924952.06146  -2786643.83146  24236426.5944   24236429.8494   24236426.954
        38.9004         36.4004
  -9163480.52746  -7116435.59946  22530491.9204   22530493.1424   22530492.896
        40.9004         38.3004
  -7819449.80846  -5830434.91146  23181342.2474   23181345.6024   23181341.876
        40.1004         37.6004
   3911329.76245   3962555.46745  25394719.2094   25394720.5194   25394716.325
        34.5004         32.9004
 -18598462.57247 -14465402.74147  20992252.8524   20992251.5444   20992252.642
        47.5004         44.5004
 -20947522.30248 -15514115.76747  20595145.0574   20595145.3504   20595145.356
        48.8004         45.6004
    307166.17646    251735.79245  24564710.6564   24564717.9844   24564712.423
        36.6004         34.5004
 15  1  1  0  3 22.0000000  0 10G23G14G03G04G20G01G11G31G32G25
  -7836603.28646  -5908107.77246  23721574.1024   23721570.9164   23721573.994
        39.4004         36.9004
  -4161956.81746  -3220723.71745  23683514.1444   23683514.5694   23683514.396
        37.6004         35.3004
 -22386896.92647 -17199701.88447  21117489.4404   21117491.3784   21117488.958
        47.7004         44.7004
  -3921800.95446  -2784188.42446  24237026.3204   24237029.6924   24237026.618
        38.9004         36.4004
  -9166260.80746  -7118602.04946  22529963.5264   22529964.8364   22529963.757
        40.9004         38.3004
  -7817181.44346  -5828667.35346  23181773.8044   23181776.9994   23181773.544
        40.1004         37.4004
   3914003.30045   3964638.73945  25395227.5874   25395228.2934   25395224.876
        34.5004         32.9004
 -18596370.94247 -14463772.89747  20992650.8394   20992649.3834   20992650.637
        47.5004         44.5004
 -20946692.95748 -15513469.52047  20595302.7094   20595303.2424   20595303.167
        48.8004         45.6004
    309884.24346    253853.76745  24565228.2324   24565235.1354   24565229.697
        36.6004         34.5004
 15  1  1  0  3 23.0000000  0 10G23G14G03G04G20G01G11G31G32G25
  -7839201.91546  -5910132.67446  23721079.6004   23721076.3254   23721079.441
        39.4004         37.1004
  -4159589.05346  -3218878.70645  23683964.2924   23683965.6084   23683964.953
        37.6004         35.5004
 -22388753.25547 -17201148.37147  21117136.2454   21117138.2434   21117135.720
        47.7004         44.7004
  -3918649.80146  -2781732.97846  24237626.7144   24237629.1494   24237626.310
        38.9004         36.4004
  -9169040.74546  -7120768.23446  22529434.6964   22529435.4894   22529434.670
        40.9004         38.3004
  -7814912.72546  -5826899.52146  23182204.8474   23182208.5094   23182205.238
        40.1004         37.4004
   3916676.73945   3966721.94045  25395736.1204   25395736.3404   25395733.521
        34.5004         33.1004
 -18594278.96447 -14462142.78447  20993049.1634   20993047.3004   20993048.723
        47.5004         44.5004
 -20945863.08948 -15512822.87247  20595460.5414   20595461.2274   20595461.076
        48.8004         45.6004
    312602.78346    255972.11545  24565746.1504   24565752.2324   24565747.045
        36.6004         34.3004
 15  1  1  0  3 24.0000000  0 10G23G14G03G04G20G01G11G31G32G25
  -7841800.50646  -5912157.54646  23720584.5324   23720581.1314   23720584.883
        39.4004         37.1004
  -4157221.18446  -3217033.61445  23684414.5934   23684416.1704   23684415.569
        37.6004         35.3004
 -22390609.08647 -17202594.47447  21116782.9974   21116784.7964   21116782.554
        47.7004         44.9004
  -3915498.61146  -2779277.51046  24238226.2114   24238228.8564   24238225.921
        38.9004         36.6004
  -9171820.31546  -7122934.13346  22528905.9624   22528906.6954   22528905.752
        40.9004         38.3004
  -7812643.64946  -5825131.41446  23182636.7454   23182640.8364   23182636.982
        40.1004         37.4004
   3919350.11845   3968805.08645  25396244.6554   25396245.8124   25396242.181
        34.5004         33.1004
 -18592186.63747 -14460512.40347  20993446.9954   20993445.5534   20993446.841
        47.5004         44.5004
 -20945032.68248 -15512175.80047  20595618.5644   20595619.3924   20595619.076
        48.8004         45.6004
    315321.74746    258090.78845  24566263.5284   24566269.4404   24566264.482
        36.4004         34.3004
 15  1  1  0  3 25.0000000  0 10G23G14G03G04G20G01G11G31G32G25
  -7844399.07446  -5914182.39646  23720089.8154   23720086.6434   23720090.381
        39.4004         37.1004
  -4154853.22846  -3215188.45645  23684865.1384   23684866.4394   23684866.307
        37.6004         35.5004
 -22392464.44047 -17204040.20347  21116429.8974   21116431.6674   21116429.468
        47.7004         44.7004
  -3912347.42546  -2776822.04746  24238825.5694   24238828.6384   24238825.527
        38.9004         36.4004
  -9174599.52446  -7125099.75246  22528376.6644   22528377.7034   22528376.846
        40.9004         38.3004
  -7810374.20546  -5823363.01646  23183068.6414   23183073.2574   23183068.809
        40.1004         37.4004
   3922023.46945   3970888.21345  25396753.0094   25396755.3254   25396750.792
        34.5004         33.1004
 -18590093.96247 -14458881.74647  20993845.1684   20993844.0614   20993845.039
        47.5004         44.5004
 -20944201.74248 -15511528.31047  20595776.6354   20595777.6294   20595777.203
        48.8004         45.6004
    318041.14146    260209.79445  24566781.0564   24566787.1594   24566782.010
        36.4004         34.3004
 15  1  1  0  3 26.0000000  0 10G23G14G03G04G20G01G11G31G32G25
  -7846997.62446  -5916207.23246  23719595.9464   23719592.6844   23719595.890
        39.4004         36.9004
  -4152485.15246  -3213343.20645  23685315.9184   23685317.0864   23685316.984
        37.8004         35.5004
 -22394319.29147 -17205485.54147  21116076.6794   21116078.8934   21116076.477
        47.7004         44.7004
  -3909196.17146  -2774366.52846  24239425.8744   24239428.6454   24239425.214
        38.9004         36.4004
  -9177378.39146  -7127265.10346  22527847.6154   22527848.5134   22527847.998
        40.9004         38.1004
  -7808104.39846  -5821594.33646  23183500.5944   23183505.0604   23183500.749
        40.1004         37.6004
   3924696.75545   3972971.28845  25397261.3884   25397265.2504   25397259.474
        34.5004         33.3004
 -18588000.93547 -14457250.81147  20994243.3954   20994242.2534   20994243.336
        47.5004         44.5004
 -20943370.27948 -15510880.41947  20595934.9164   20595935.7654   20595935.433
        48.8004         45.6004
    320760.96946    262329.14245  24567299.2354   24567304.6974   24567299.559
        36.4004         34.3004
 15  1  1  0  3 27.0000000  0 10G23G14G03G04G20G01G11G31G32G25
  -7849596.14346  -5918232.04746  23719101.0634   23719098.0374   23719101.405
        39.4004         36.7004
  -4150116.97346  -3211497.87245  23685766.0594   23685767.5134   23685767.695
        37.8004         35.7004
 -22396173.65147 -17206930.49247  21115724.2364   21115726.0994   21115723.606
        47.7004         44.7004
  -3906044.91346  -2771911.00146  24240025.0144   24240028.0774   24240024.857
        38.9004         36.6004
  -9180156.87746  -7129430.15446  22527318.5004   22527319.0424   22527319.304
        40.9004         38.1004
  -7805834.23146  -5819825.37446  23183932.3884   23183937.1014   23183932.703
        40.1004         37.4004
   3927369.96845   3975054.30745  25397770.0594   25397772.7894   25397768.385
        34.5004         33.1004
 -18585907.55847 -14455619.61147  20994641.6624   20994640.7454   20994641.657
        47.5004         44.5004
 -20942538.27748 -15510232.10547  20596093.0964   20596093.8504   20596093.744
        48.8004         45.6004
    323481.19146    264448.79245  24567816.2164   24567822.5354   24567817.212
        36.4004         34.3004
 15  1  1  0  3 28.0000000  0 10G23G14G03G04G20G01G11G31G32G25
  -7852194.64346  -5920256.84846  23718606.1044   23718603.1454   23718606.943
        39.4004         36.9004
  -4147748.67146  -3209652.44145  23686216.6664   23686218.3024   23686218.361
        37.8004         35.7004
 -22398027.51247 -17208375.05947  21115371.3774   21115373.5994   21115370.843
        47.7004         44.7004
  -3902893.59546  -2769455.43146  24240624.3464   24240627.8384   24240624.530
        38.9004         36.6004
  -9182935.00646  -7131594.92746  22526790.0704   22526790.5234   22526790.639
        40.9004         38.1004
  -7803563.71346  -5818056.14146  23184364.2874   23184369.4054   23184364.721
        40.1004         37.6004
   3930043.12445   3977137.27845  25398277.7874   25398280.9494   25398277.038
        34.5004         33.1004
 -18583813.83447 -14453988.13747  20995040.1904   20995039.4804   20995040.051
        47.5004         44.5004
 -20941705.74948 -15509583.38147  20596251.3624   20596252.4114   20596252.142
        48.8004         45.6004
    326201.90746    266568.83145  24568334.0824   24568340.7594   24568334.895
        36.4004         34.5004
 15  1  1  0  3 29.0000000  0 10G23G14G03G04G20G01G11G31G32G25
  -7854793.11046  -5922281.62846  23718112.0014   23718109.5454   23718112.438
        39.4004         36.7004
  -4145380.26546  -3207806.93245  23686667.0474   23686668.7864   23686669.023
        37.6004         35.7004
 -22399880.88447 -17209819.24247  21115018.6854   21115020.8614   21115018.178
        47.7004         44.7004
  -3899742.23246  -2766999.82546  24241224.0604   24241227.3884   24241224.241
        38.9004         36.6004
  -9185712.77546  -7133759.42446  22526261.6694   22526261.9924   22526262.072
        40.9004         38.1004
  -7801292.81546  -5816286.61046  23184796.7344   23184801.9524   23184796.851
        40.1004         37.6004
   3932716.23145   3979220.21745  25398786.1934   25398790.7534   25398785.830
        34.5004         33.1004
 -18581719.75947 -14452356.38947  20995438.8334   20995437.8544   20995438.526
        47.5004         44.5004
 -20940872.68248 -15508934.23847  20596410.0044   20596411.0194   20596410.657
        48.8004         45.6004
    328923.02446    268689.18245  24568851.6434   24568858.2794   24568852.628
        36.4004         34.5004
 15  1  1  0  3 30.0000000  0 10G23G14G03G04G20G01G11G31G32G25
  -7857391.54646  -5924306.37946  23717617.1854   23717615.1644   23717617.923
        39.4004         36.7004
  -4143011.77546  -3205961.35945  23687117.2134   23687119.6294   23687119.799
        37.6004         35.7004
 -22401733.75947 -17211263.04247  21114666.0044   21114667.9894   21114665.581
        47.7004         44.7004
  -3896590.87946  -2764544.22846  24241823.5434   24241827.4114   24241823.936
        38.9004         36.4004
  -9188490.20246  -7135923.65646  22525733.1584   22525733.1264   22525733.553
        40.9004         38.1004
  -7799021.58946  -5814516.82546  23185228.9484   23185233.7944   23185229.026
        40.1004         37.4004
   3935389.28045   3981303.11145  25399295.2854   25399298.4724   25399294.511
        34.5004         33.1004
 -18579625.33847 -14450724.37647  20995837.6964   20995836.2354   20995837.076
        47.5004         44.5004
 -20940039.08648 -15508284.68547  20596568.8284   20596569.3294   20596569.275
        48.8004         45.6004
    331644.58646    270809.88145  24569369.7214   24569375.0894   24569370.415
        36.4004         34.5004
 15  1  1  0  3 31.0000000  0 10G23G14G03G04G20G01G11G31G32G25
  -7859989.95546  -5926331.11046  23717122.5474   23717122.3144   23717123.481
        39.4004         36.9004
  -4140643.16346  -3204115.68545  23687567.6904   23687569.9024   23687570.553
        37.6004         35.7004
 -22403586.13947 -17212706.45647  21114313.6434   21114315.2024   21114313.082
        47.7004         44.7004
  -3893439.47246  -2762088.58646  24242423.5964   24242427.3284   24242423.673
        38.9004         36.6004
  -9191267.24246  -7138087.58146  22525204.4194   22525204.8194   22525205.063
        40.9004         38.3004
  -7796749.97346  -5812746.72846  23185661.5144   23185666.1314   23185661.350
        40.1004         37.4004
   3938062.27445   3983385.95945  25399803.4784   25399807.9404   25399802.942
        34.5004         33.1004
 -18577530.56547 -14449092.08247  20996235.9934   20996234.7164   20996235.691
        47.5004         44.4004
 -20939204.95748 -15507634.71347  20596727.4524   20596728.0924   20596728.008
        48.8004         45.6004
    334366.57046    272930.90945  24569887.3764   24569893.9404   24569888.333
        36.4004         34.5004
 15  1  1  0  3 32.0000000  0 10G23G14G03G04G20G01G11G31G32G25
  -7862588.35346  -5928355.82146  23716628.5844   23716627.7474   23716629.017
        39.4004         36.9004
  -4138274.42746  -3202269.91645  23688018.2344   23688020.2854   23688021.301
        37.6004         35.5004
 -22405438.02647 -17214149.48247  21113961.1334   21113962.8744   21113960.693
        47.7004         44.7004
  -3890288.03846  -2759632.92646  24243023.7224   24243025.5134   24243023.412
        38.9004         36.6004
  -9194043.93746  -7140251.23246  22524675.9664   22524676.2794   22524676.662
        40.9004         38.3004
  -7794477.99246  -5810976.35046  23186093.7924   23186098.2514   23186093.705
        40.1004         37.6004
   3940735.22145   3985468.76445  25400311.4044   25400316.0344   25400311.724
        34.7004         33.1004
 -18575435.44747 -14447459.51847  20996634.4224   20996633.3174   20996634.380
        47.5004         44.5004
 -20938370.29648 -15506984.32547  20596886.3204   20596887.0454   20596886.855
        48.8004         45.6004
    337089.00446    275052.28945  24570405.7854   24570411.8934   24570406.336
        36.4004         34.5004
 15  1  1  0  3 33.0000000  0 10G23G14G03G04G20G01G11G31G32G25
  -7865186.71446  -5930380.51846  23716133.8744   23716133.9234   23716134.512
        39.4004         36.9004
  -4135905.60046  -3200424.07545  23688469.6294   23688470.4284   23688472.023
        37.6004         35.5004
 -22407289.40747 -17215592.11547  21113608.7544   21113611.1064   21113608.409
        47.7004         44.7004
  -3887136.57046  -2757177.23946  24243623.1764   24243625.5454   24243623.215
        38.9004         36.6004
  -9196820.26946  -7142414.60946  22524146.7874   22524148.1704   22524148.329
        40.9004         38.3004
  -7792205.65246  -5809205.69346  23186526.1394   23186531.5394   23186526.078
        40.1004         37.4004
   3943408.08545   3987551.51145  25400820.6034   25400824.1064   25400820.604
        34.7004         33.1004
 -18573339.98647 -14445826.68947  20997033.3774   20997032.4294   20997033.140
        47.5004         44.5004
 -20937535.11548 -15506333.53547  20597045.2764   20597046.0194   20597045.764
        48.8004         45.6004
    339811.85146    277173.98645  24570923.9584   24570929.8814   24570924.477
        36.4004         34.3004
 15  1  1  0  3 34.0000000  0 10G23G14G03G04G20G01G11G31G32G25
  -7867785.05246  -5932405.19446  23715639.0634   23715639.1784   23715640.034
        39.4004         36.7004
  -4133536.65946  -3198578.14745  23688920.6854   23688921.3454   23688922.775
        37.6004         35.5004
 -22409140.30647 -17217034.37047  21113257.0114   21113258.8274   21113256.165
        47.7004         44.7004
  -3883985.05646  -2754721.51846  24244223.3514   24244226.2544   24244222.935
        38.9004         36.6004
  -9199596.24046  -7144577.69946  22523618.9024   22523620.4084   22523620.015
        40.9004         38.3004
  -7789932.96046  -5807434.76746  23186958.8774   23186963.9304   23186958.486
        40.1004         37.4004
   3946080.92845   3989634.23945  25401326.9624   25401333.8434   25401329.453
        34.7004         32.9004
 -18571244.16847 -14444193.58747  20997432.2724   20997431.3434   20997431.957
        47.5004         44.5004
 -20936699.39548 -15505682.32347  20597204.2284   20597204.8764   20597204.776
        48.8004         45.6004
    342535.12646    279296.01945  24571442.2284   24571447.6644   24571442.761
        36.3004         34.3004
 15  1  1  0  3 35.0000000  0 10G23G14G03G04G20G01G11G31G32G25
  -7870383.36246  -5934429.84846  23715144.3184   23715143.4534   23715145.545
        39.4004         36.9004
  -4131167.60346  -3196732.12945  23689371.0204   23689372.3424   23689373.576
        37.6004         35.5004
 -22410990.69947 -17218476.23247  21112904.6134   21112906.3784   21112904.035
        47.7004         44.7004
  -3880833.54746  -2752265.79246  24244823.4524   24244825.0184   24244822.704
        38.9004         36.4004
  -9202371.84546  -7146740.50346  22523090.8944   22523091.9794   22523091.766
        40.9004         38.3004
  -7787659.90846  -5805663.55646  23187391.6664   23187396.3394   23187390.963
        40.1004         37.4004
   3948753.68645   3991716.90545  25401835.6194   25401841.2534   25401838.190
        34.5004         33.1004
 -18569148.01547 -14442560.22047  20997830.9354   20997829.8744   20997830.831
        47.5004         44.5004
 -20935863.14448 -15505030.69747  20597363.2534   20597364.0394   20597363.898
        48.8004         45.6004
    345258.85646    281418.40645  24571961.1094   24571965.2954   24571961.105
        36.3004         34.3004
 15  1  1  0  3 36.0000000  0 10G23G14G03G04G20G01G11G31G32G25
  -7872981.65746  -5936454.48746  23714651.1954   23714648.5904   23714651.074
        39.4004         36.7004
  -4128798.43746  -3194886.02545  23689821.9814   23689823.0084   23689824.362
        37.6004         35.3004
 -22412840.60947 -17219917.72147  21112552.3154   21112554.4434   21112552.038
        47.7004         44.7004
  -3877681.97646  -2749810.01846  24245422.5724   24245424.5584   24245422.451
        38.9004         36.4004
  -9205147.08446  -7148903.02646  22522562.8284   22522564.2234   22522563.678
        40.9004         38.3004
  -7785386.48946  -5803892.06146  23187824.3304   23187828.3764   23187823.632
        40.1004         37.6004
   3951426.39145   3993799.52745  25402343.5404   25402350.6474   25402346.780
        34.5004         33.1004
 -18567051.51047 -14440926.57847  20998229.7704   20998228.9334   20998229.754
        47.5004         44.5004
 -20935026.35648 -15504378.65647  20597522.8164   20597523.5254   20597523.131
        48.8004         45.6004
    347983.02046    283541.13145  24572479.6114   24572483.4684   24572479.274
        36.3004         34.1004
 15  1  1  0  3 37.0000000  0 10G23G14G03G04G20G01G11G31G32G25
  -7875579.90546  -5938479.08946  23714156.1044   23714153.5874   23714156.655
        39.4004         36.9004
  -4126429.16746  -3193039.84145  23690272.5454   23690273.8424   23690275.186
        37.6004         35.3004
 -22414690.01547 -17221358.81647  21112200.6664   21112202.3964   21112200.105
        47.7004         44.7004
  -3874530.38246  -2747354.22846  24246021.9904   24246023.8004   24246022.101
        38.9004         36.4004
  -9207921.97746  -7151065.27546  22522034.9114   22522035.5114   22522035.654
        40.9004         38.1004
  -7783112.70846  -5802120.28446  23188257.4014   23188260.9874   23188256.331
        40.1004         37.6004
   3954099.04145   3995882.10945  25402852.7554   25402860.0414   25402855.340
        34.5004         33.1004
 -18564954.66647 -14439292.67547  20998629.3514   20998628.1064   20998628.754
        47.5004         44.5004
 -20934189.03948 -15503726.20447  20597682.0134   20597682.7554   20597682.448
        48.8004         45.6004
    350707.59346    285664.17745  24572998.8724   24573001.7304   24572997.674
        36.3004         34.1004
 15  1  1  0  3 38.0000000  0 10G23G14G03G04G20G01G11G31G32G25
  -7878178.13646  -5940503.68346  23713662.4254   23713659.6994   23713662.247
        39.4004         36.9004
  -4124059.80446  -3191193.58545  23690723.8714   23690724.8474   23690726.010
        37.6004         35.5004
 -22416538.93347 -17222799.53147  21111848.6864   21111850.8694   21111848.269
        47.7004         44.9004
  -3871378.76946  -2744898.42646  24246622.7614   24246623.9404   24246621.888
        38.9004         36.4004
  -9210696.51046  -7153227.25046  22521506.9764   22521507.8634   22521507.650
        40.9004         38.3004
  -7780838.57946  -5800348.23746  23188690.1114   23188693.9934   23188689.032
        40.1004         37.6004
   3956771.64245   3997964.65745  25403362.1954   25403368.4164   25403363.929
        34.5004         33.1004
 -18562857.47247 -14437658.49947  20999028.1904   20999026.7524   20999027.851
        47.5004         44.5004
 -20933351.18848 -15503073.33247  20597841.3814   20597842.0324   20597841.893
        48.8004         45.6004
    353432.58246    287787.54545  24573516.4824   24573520.3824   24573516.339
        36.3004         34.1004
 15  1  1  0  3 39.0000000  0 10G23G14G03G04G20G01G11G31G32G25
  -7880776.34346  -5942528.25746  23713168.1004   23713166.3364   23713167.838
        39.4004         37.1004
  -4121690.29646  -3189347.21745  23691175.1824   23691175.9964   23691176.865
        37.6004         35.5004
 -22418387.33847 -17224239.84547  21111497.2064   21111498.9984   21111496.526
        47.7004         44.7004
  -3868227.12446  -2742442.60046  24247222.6934   24247223.2284   24247221.637
        38.9004         36.4004
  -9213470.67146  -7155388.93046  22520980.0154   22520980.1544   22520979.751
        40.9004         38.1004
  -7778564.07446  -5798575.89846  23189122.8804   23189127.0564   23189121.871
        40.1004         37.6004
   3959444.17145   4000047.14345  25403870.7834   25403875.9794   25403872.479
        34.5004         32.9004
 -18560759.92147 -14436024.04447  20999427.1614   20999426.1894   20999427.001
        47.5004         44.5004
 -20932512.80548 -15502420.04547  20598000.8744   20598001.5934   20598001.469
        48.8004         45.6004
    356158.04646    289911.28045  24574035.2884   24574038.8664   24574035.044
        36.1004         34.1004
 15  1  1  0  3 40.0000000  0 10G23G14G03G04G20G01G11G31G32G25
  -7883374.51946  -5944552.80146  23712673.3704   23712671.6404   23712673.383
        39.4004         37.1004
  -4119320.70246  -3187500.77945  23691626.9104   23691626.5104   23691627.718
        37.6004         35.5004
 -22420235.26847 -17225679.78547  21111145.4804   21111147.3014   21111144.893
        47.7004         44.7004
  -3865075.47246  -2739986.76746  24247821.9894   24247823.2084   24247821.420
        38.9004         36.4004
  -9216244.47246  -7157550.33246  22520451.9804   22520452.3474   22520451.936
        40.9004         38.3004
  -7776289.22546  -5796803.28546  23189555.7244   23189559.6124   23189554.724
        40.1004         37.6004
   3962116.67345   4002129.61145  25404380.7344   25404381.7904   25404381.218
        34.3004         32.9004
 -18558662.03147 -14434389.32347  20999826.3744   20999825.2234   20999826.199
        47.5004         44.5004
 -20931673.89948 -15501766.35047  20598160.6014   20598161.2984   20598161.104
        48.8004         45.6004
    358883.90746    292035.32745  24574554.2444   24574557.1094   24574553.865
        36.3004         34.1004
 15  1  1  0  3 41.0000000  0 10G23G14G03G04G20G01G11G31G32G25
  -7885972.67246  -5946577.32946  23712178.3194   23712178.3914   23712178.949
        39.4004         36.9004
  -4116951.00646  -3185654.26145  23692078.0114   23692077.3284   23692078.574
        37.6004         35.5004
 -22422082.69747 -17227119.33847  21110793.9884   21110795.8344   21110793.353
        47.7004         44.7004
  -3861923.77246  -2737530.89746  24248421.8104   24248422.1484   24248421.126
        38.9004         36.4004
  -9219017.92546  -7159711.46346  22519924.0794   22519924.6344   22519924.231
        40.9004         38.3004
  -7774014.02146  -5795030.40346  23189989.0214   23189991.8864   23189987.676
        40.1004         37.4004
   3964789.08645   4004212.00845  25404889.6664   25404889.7664   25404889.782
        34.3004         32.7004
 -18556563.78347 -14432754.32147  21000225.8574   21000224.4754   21000225.494
        47.5004         44.5004
 -20930834.45448 -15501112.23547  20598320.4304   20598321.0824   20598320.869
        48.8004         45.6004
    361610.20146    294159.71345  24575071.6864   24575075.8624   24575072.737
        36.1004         34.1004
 15  1  1  0  3 42.0000000  0 10G23G14G03G04G20G01G11G31G32G25
  -7888570.79646  -5948601.83846  23711684.3444   23711683.6664   23711684.560
        39.4004         36.9004
  -4114581.20046  -3183807.65645  23692528.9844   23692528.2314   23692529.435
        37.6004         35.5004
 -22423929.62747 -17228558.50447  21110442.5774   21110444.1194   21110441.901
        47.7004         44.7004
  -3858772.04546  -2735075.01046  24249021.0134   24249022.4524   24249020.872
        38.7004         36.4004
  -9221790.99946  -7161872.29846  22519395.7604   22519397.4344   22519396.530
        40.9004         38.1004
  -7771738.43446  -5793257.21846  23190422.1164   23190424.5774   23190420.732
        40.1004         37.4004
   3967461.45945   4006294.36945  25405396.7014   25405398.5294   25405398.385
        34.3004         32.7004
 -18554465.19547 -14431119.05847  21000625.0604   21000624.2394   21000624.841
        47.5004         44.5004
 -20929994.49048 -15500457.71747  20598480.2814   20598481.1334   20598480.700
        48.8004         45.6004
    364336.95346    296284.45745  24575591.2714   24575595.4904   24575591.724
        36.1004         34.1004
 15  1  1  0  3 43.0000000  0 10G23G14G03G04G20G01G11G31G32G25
  -7891168.88346  -5950626.32446  23711190.0634   23711188.0344   23711190.244
        39.4004         36.9004
  -4112211.29946  -3181960.98245  23692980.0134   23692979.1834   23692980.364
        37.6004         35.5004
 -22425776.06747 -17229997.28747  21110090.8854   21110092.7994   21110090.556
        47.7004         44.7004
  -3855620.27646  -2732619.09046  24249620.7364   24249622.3104   24249620.710
        38.7004         36.4004
  -9224563.74046  -7164032.87346  22518868.1094   22518869.3634   22518868.880
        40.9004         38.3004
  -7769462.49346  -5791483.75946  23190855.3164   23190857.5704   23190853.850
        40.1004         37.4004
   3970133.75845   4008376.68245  25405905.9414   25405905.2244   25405906.955
        34.3004         32.7004
 -18552366.24947 -14429483.51647  21001024.3414   21001023.4614   21001024.258
        47.5004         44.5004
 -20929153.99248 -15499802.78547  20598640.1414   20598641.0154   20598640.659
        48.8004         45.6004
    367064.09746    298409.50845  24576110.7444   24576115.8054   24576110.719
        36.3004         34.1004
 15  1  1  0  3 44.0000000  0 10G23G14G03G04G20G01G11G31G32G25
  -7893766.95246  -5952650.78646  23710694.9294   23710694.0264   23710695.885
        39.4004         36.7004
  -4109841.26546  -3180114.20145  23693431.1024   23693430.4174   23693431.305
        37.6004         35.5004
 -22427622.01047 -17231435.68347  21109739.7034   21109741.7344   21109739.269
        47.7004         44.7004
  -3852468.48246  -2730163.14546  24250221.0854   24250223.5534   24250220.535
        38.7004         36.4004
  -9227336.09646  -7166193.14746  22518340.4344   22518340.9344   22518341.293
        40.9004         38.3004
  -7767186.20346  -5789710.02546  23191288.1964   23191290.6654   23191287.009
        40.1004         37.6004
   3972806.01545   4010458.96445  25406415.1824   25406414.5384   25406415.585
        34.3004         32.7004
 -18550266.95947 -14427847.70547  21001423.7894   21001422.7734   21001423.717
        47.5004         44.5004
 -20928312.96048 -15499147.43447  20598800.0744   20598801.0204   20598800.723
        48.8004         45.6004
    369791.71546    300534.92645  24576629.8634   24576634.9514   24576629.741
        36.1004         34.1004
 15  1  1  0  3 45.0000000  0 10G23G14G03G04G20G01G11G31G32G25
  -7896364.99646  -5954675.23646  23710199.9454   23710199.1044   23710201.455
        39.4004         36.9004
  -4107471.13546  -3178267.34645  23693881.9694   23693882.2994   23693882.258
        37.6004         35.5004
 -22429467.45447 -17232873.69147  21109388.4534   21109390.5804   21109388.073
        47.7004         44.7004
  -3849316.64546  -2727707.16446  24250820.5004   24250822.5594   24250820.263
        38.7004         36.6004
  -9230108.10246  -7168353.15246  22517812.2734   22517814.4044   22517813.736
        40.9004         38.3004
  -7764909.54846  -5787936.01046  23191721.1264   23191724.2384   23191720.304
        40.1004         37.6004
   3975478.20345   4012541.18745  25406924.3204   25406922.3424   25406924.283
        34.3004         32.7004
 -18548167.31747 -14426211.62247  21001823.4334   21001822.3084   21001823.255
        47.5004         44.5004
 -20927471.39148 -15498491.66647  20598960.2744   20598960.9704   20598960.857
        48.8004         45.6004
    372519.72146    302660.64945  24577148.4264   24577153.3014   24577148.738
        36.1004         34.1004
 15  1  1  0  3 46.0000000  0 10G23G14G03G04G20G01G11G31G32G25
  -7898963.01446  -5956699.66546  23709706.1584   23709704.5384   23709707.047
        39.4004         36.9004
  -4105100.89846  -3176420.41145  23694332.7984   23694333.4314   23694333.205
        37.6004         35.5004
 -22431312.40047 -17234311.31147  21109037.3944   21109039.5034   21109037.012
        47.7004         44.7004
  -3846164.78946  -2725251.17446  24251419.7274   24251422.5324   24251420.046
        38.7004         36.2004
  -9232879.75146  -7170512.88546  22517284.7104   22517286.2004   22517286.317
        40.9004         38.3004
  -7762632.53146  -5786161.71146  23192154.1364   23192157.4014   23192153.634
        40.1004         37.4004
   3978150.33445   4014623.36345  25407431.4084   25407431.6914   25407432.988
        34.3004         32.6004
 -18546067.33047 -14424575.26847  21002223.2404   21002221.9634   21002222.884
        47.5004         44.5004
 -20926629.29248 -15497835.48847  20599120.4174   20599121.2614   20599121.085
        48.8004         45.6004
    375248.17946    304786.72545  24577667.3094   24577672.3974   24577667.727
        36.1004         34.1004
 15  1  1  0  3 47.0000000  0 10G23G14G03G04G20G01G11G31G32G25
  -7901561.00746  -5958724.07246  23709211.7654   23709210.7444   23709212.649
        39.4004         36.7004
  -4102730.53746  -3174573.37445  23694784.1414   23694785.0384   23694784.166
        37.6004         35.5004
 -22433156.85347 -17235748.54647  21108686.6844   21108688.4304   21108686.033
        47.7004         44.7004
  -3843012.91146  -2722795.16246  24252020.1004   24252022.2464   24252019.783
        38.9004         36.2004
  -9235651.01546  -7172672.31246  22516757.5734   22516758.8714   22516758.942
        40.9004         38.3004
  -7760355.16246  -5784387.13846  23192587.5364   23192590.8514   23192587.079
        40.1004         37.4004
   3980822.42745   4016705.50945  25407940.3644   25407941.9754   25407941.490
        34.2004         32.6004
 -18543966.98847 -14422938.63347  21002622.8854   21002621.6284   21002622.588
        47.5004         44.5004
 -20925786.65548 -15497178.88447  20599280.8584   20599281.6694   20599281.404
        48.8004         45.6004
    377977.07146    306913.13445  24578187.1204   24578191.4314   24578186.680
        36.1004         34.1004
 15  1  1  0  3 48.0000000  0 10G23G14G03G04G20G01G11G31G32G25
  -7904158.97846  -5960748.45446  23708717.6044   23708715.4814   23708718.221
        39.4004         36.6004
  -4100360.08246  -3172726.26745  23695235.2464   23695235.7144   23695235.225
        37.6004         35.3004
 -22435000.80947 -17237185.39147  21108335.4384   21108337.3384   21108335.131
        47.7004         44.7004
  -3839861.03846  -2720339.15246  24252619.5384   24252622.0594   24252619.547
        38.7004         36.2004
  -9238421.94046  -7174831.47246  22516230.7304   22516231.5214   22516231.670
        40.9004         38.1004
  -7758077.42546  -5782612.28046  23193020.8384   23193024.8164   23193020.562
        40.1004         37.6004
   3983494.45245   4018787.60745  25408447.6154   25408450.1974   25408450.070
        34.2004         32.6004
 -18541866.30747 -14421301.74047  21003022.8344   21003021.0894   21003022.344
        47.5004         44.5004
 -20924943.48348 -15496521.86747  20599441.3264   20599442.0404   20599441.840
        48.8004         45.6004
    380706.41946    309039.89945  24578706.8864   24578710.0374   24578706.000
        36.1004         34.0004
 15  1  1  0  3 49.0000000  0 10G23G14G03G04G20G01G11G31G32G25
  -7906756.91846  -5962772.81846  23708222.6094   23708221.0284   23708223.786
        39.4004         36.9004
  -4097989.51546  -3170879.06845  23695686.1464   23695686.3024   23695686.285
        37.6004         35.3004
 -22436844.26747 -17238621.85547  21107984.8864   21107986.5104   21107984.325
        47.7004         44.7004
  -3836709.10646  -2717883.10246  24253218.9064   24253221.7344   24253219.344
        38.7004         36.4004
  -9241192.49046  -7176990.33346  22515703.8654   22515704.3044   22515704.496
        40.9004         38.3004
  -7755799.33446  -5780837.14946  23193454.1914   23193458.6554   23193454.097
        40.1004         37.4004
   3986166.40145   4020869.63845  25408956.3424   25408959.5834   25408958.397
        34.2004         32.7004
 -18539765.27847 -14419664.57647  21003422.7584   21003421.4714   21003422.152
        47.5004         44.5004
 -20924099.78048 -15495864.43547  20599601.8974   20599602.8494   20599602.381
        48.8004         45.6004
    383436.15946    311166.96945  24579226.1274   24579229.8954   24579225.183
        36.1004         34.1004
 15  1  1  0  3 50.0000000  0 10G23G14G03G04G20G01G11G31G32G25
  -7909354.83546  -5964797.16646  23707728.4794   23707726.5444   23707729.395
        39.4004         36.7004
  -4095618.83446  -3169031.78345  23696137.6044   23696137.9004   23696137.405
        37.6004         35.3004
 -22438687.23547 -17240057.92747  21107634.1094   21107635.6564   21107633.611
        47.7004         44.7004
  -3833557.14446  -2715427.03646  24253818.8594   24253821.3234   24253819.080
        38.7004         36.4004
  -9243962.66746  -7179148.91546  22515176.7734   22515177.7704   22515177.412
        40.9004         38.3004
  -7753520.87746  -5779061.72646  23193887.5544   23193891.5144   23193887.634
        40.1004         37.4004
   3988838.30545   4022951.64145  25409465.1264   25409468.5044   25409466.865
        34.3004         32.7004
 -18537663.90247 -14418027.13747  21003822.4624   21003821.4464   21003822.051
        47.5004         44.5004
 -20923255.56148 -15495206.59947  20599762.4214   20599763.2024   20599763.032
        48.8004         45.6004
    386166.36746    313294.40545  24579745.4734   24579749.4764   24579744.924
        36.1004         34.1004
 15  1  1  0  3 51.0000000  0 10G23G14G03G04G20G01G11G31G32G25
  -7911952.71646  -5966821.47846  23707234.3754   23707231.8934   23707235.010
        39.4004         36.9004
  -4093248.04746  -3167184.41545  23696588.8964   23696589.3144   23696588.565
        37.6004         35.3004
 -22440529.70547 -17241493.61847  21107283.4944   21107285.5294   21107282.970
        47.7004         44.7004
  -3830405.16246  -2712970.94546  24254417.8064   24254420.5964   24254418.862
        38.7004         36.4004
  -9246732.48946  -7181307.21446  22514650.0464   22514650.4214   22514650.356
        40.9004         38.3004
  -7751242.07046  -5777286.03446  23194321.4964   23194324.8754   23194321.289
        40.1004         37.6004
   3991510.14945   4025033.59845  25409972.6924   25409976.9164   25409975.192
        34.3004         32.7004
 -18535562.17247 -14416389.42547  21004222.2244   21004221.3424   21004221.994
        47.5004         44.5004
 -20922410.79948 -15494548.34447  20599923.3084   20599923.9964   20599923.775
        48.8004         45.6004
    388896.98046    315422.15845  24580265.5754   24580269.7464   24580264.501
        36.1004         34.1004
 15  1  1  0  3 52.0000000  0 10G23G14G03G04G20G01G11G31G32G25
  -7914550.56746  -5968845.78046  23706740.2304   23706739.2404   23706740.601
        39.4004         36.9004
  -4090877.15246  -3165336.96845  23697040.3214   23697041.0824   23697039.776
        37.6004         35.5004
 -22442371.67647 -17242928.91947  21106932.9414   21106934.8424   21106932.462
        47.7004         44.7004
  -3827253.15346  -2710514.84346  24255017.6374   24255021.0544   24255018.627
        38.7004         36.6004
  -9249501.95346  -7183465.23146  22514122.5154   22514123.5554   22514123.364
        40.9004         38.3004
  -7748962.87946  -5775510.04346  23194755.1074   23194758.4664   23194755.035
        40.1004         37.6004
   3994181.92545   4027115.50145  25410481.5664   25410485.8054   25410483.575
        34.3004         32.7004
 -18533460.10047 -14414751.45047  21004622.3404   21004620.9704   21004622.028
        47.5004         44.5004
 -20921565.51148 -15493889.67847  20600084.2534   20600084.9854   20600084.588
        48.8004         45.6004
    391628.00246    317550.22445  24580785.5344   24580788.9544   24580784.232
        36.1004         34.1004
 15  1  1  0  3 53.0000000  0 10G23G14G03G04G20G01G11G31G32G25
  -7917148.39446  -5970870.06046  23706246.0354   23706244.3914   23706246.247
        39.4004         36.9004
  -4088506.15446  -3163489.43745  23697491.0184   23697492.0274   23697490.944
        37.6004         35.3004
 -22444213.14547 -17244363.82747  21106582.5054   21106584.4684   21106582.027
        47.7004         44.7004
  -3824101.11546  -2708058.70946  24255617.6004   24255620.8314   24255618.445
        38.7004         36.4004
  -9252271.04646  -7185622.96446  22513595.8294   22513596.6174   22513596.441
        40.9004         38.3004
  -7746683.35346  -5773733.78946  23195189.0214   23195191.8854   23195188.782
        40.1004         37.6004
   3996853.66445   4029197.37245  25410990.8884   25410994.7544   25410991.959
        34.3004         32.7004
 -18531357.68447 -14413113.20147  21005022.1894   21005020.8694   21005022.148
        47.5004         44.5004
 -20920719.69548 -15493230.60047  20600245.0304   20600245.8624   20600245.551
        48.8004         45.6004
    394359.50245    319678.66345  24581305.3014   24581308.7254   24581304.269
        35.9004         34.1004
 15  1  1  0  3 54.0000000  0 10G23G14G03G04G20G01G11G31G32G25
  -7919746.19646  -5972894.31246  23705750.4514   23705750.7614   23705751.956
        39.4004         36.9004
  -4086135.04446  -3161641.81845  23697942.2094   23697943.6424   23697942.111
        37.6004         35.3004
 -22446054.11647 -17245798.35047  21106232.2094   21106234.3664   21106231.696
        47.7004         44.7004
  -3820949.06646  -2705602.56946  24256217.9584   24256220.9954   24256218.232
        38.7004         36.4004
  -9255039.79046  -7187780.42746  22513069.0064   22513069.2484   22513069.596
        40.9004         38.3004
  -7744403.47446  -5771957.25646  23195622.8164   23195625.6674   23195622.667
        40.1004         37.6004
   3999525.33345   4031279.19145  25411499.0144   25411503.8444   25411500.329
        34.3004         32.9004
 -18529254.90847 -14411474.67247  21005422.2984   21005421.0474   21005422.279
        47.5004         44.5004
 -20919873.34348 -15492571.10347  20600406.1004   20600406.9154   20600406.615
        48.8004         45.6004
    397091.37045    321807.39345  24581825.1044   24581828.1524   24581824.235
        35.9004         34.1004
 15  1  1  0  3 55.0000000  0 10G23G14G03G04G20G01G11G31G32G25
  -7922343.97746  -5974918.55346  23705256.2694   23705256.3964   23705257.579
        39.4004         36.9004
  -4083763.83646  -3159794.12445  23698393.5844   23698394.8994   23698393.387
        37.6004         35.3004
 -22447894.60547 -17247232.49747  21105881.9224   21105883.8384   21105881.468
        47.7004         44.7004
  -3817796.97646  -2703146.39646  24256819.2534   24256820.9464   24256818.114
        38.7004         36.4004
  -9257808.16546  -7189937.60546  22512541.9114   22512542.3904   22512542.794
        40.9004         38.5004
  -7742123.21446  -5770180.43446  23196056.8594   23196059.8264   23196056.641
        40.1004         37.4004
   4002196.94445   4033360.96145  25412006.6674   25412011.6714   25412008.717
        34.3004         32.7004
 -18527151.80047 -14409835.88747  21005822.5514   21005821.5964   21005822.496
        47.5004         44.5004
 -20919026.47548 -15491911.20847  20600566.9574   20600567.9834   20600567.756
        48.8004         45.6004
    399823.70545    323936.48345  24582345.0324   24582347.7994   24582344.278
        35.9004         34.0004
 15  1  1  0  3 56.0000000  0 10G23G14G03G04G20G01G11G31G32G25
  -7924941.72746  -5976942.77146  23704762.3924   23704761.6414   23704763.177
        39.2004         36.6004
  -4081392.50846  -3157946.33645  23698844.6154   23698846.1494   23698844.581
        37.6004         35.3004
 -22449734.58047 -17248666.24247  21105531.7564   21105533.9254   21105531.332
        47.7004         44.7004
  -3814644.86546  -2700690.20846  24257418.9754   24257420.4164   24257417.934
        38.7004         36.2004
  -9260576.17946  -7192094.49646  22512015.2214   22512015.6354   22512015.999
        40.9004         38.1004
  -7739842.61346  -5768403.33946  23196490.9094   23196493.9104   23196490.654
        40.1004         37.4004
   4004868.48545   4035442.68345  25412515.2294   25412519.4974   25412517.000
        34.3004         32.9004
 -18525048.34247 -14408196.82947  21006222.5454   21006221.8324   21006222.759
        47.5004         44.5004
 -20918179.07148 -15491250.89047  20600728.3244   20600729.4184   20600728.983
        48.8004         45.6004
    402556.46945    326065.91045  24582864.4184   24582867.8274   24582864.381
        35.9004         34.0004
 15  1  1  0  3 57.0000000  0 10G23G14G03G04G20G01G11G31G32G25
  -7927539.46046  -5978966.97446  23704266.8074   23704266.8514   23704268.797
        39.2004         36.7004
  -4079021.08646  -3156098.47145  23699295.8534   23699297.9084   23699295.863
        37.6004         35.3004
 -22451574.07347 -17250099.61447  21105181.6924   21105184.0704   21105181.318
        47.7004         44.7004
  -3811492.72746  -2698234.00546  24258018.4584   24258020.5604   24258017.815
        38.7004         36.4004
  -9263343.82846  -7194251.10646  22511488.5164   22511489.4594   22511489.365
        40.9004         38.1004
  -7737561.64046  -5766625.95846  23196924.7644   23196928.2274   23196924.748
        40.1004         37.6004
   4007539.99945   4037524.38045  25413024.3624   25413027.4774   25413025.360
        34.3004         32.7004
 -18522944.54047 -14406557.50347  21006623.2694   21006622.1654   21006623.106
        47.5004         44.5004
 -20917331.13348 -15490590.15947  20600889.7904   20600890.5614   20600890.343
        48.8004         45.6004
    405289.66245    328195.67145  24583385.6164   24583388.4074   24583384.450
        35.9004         34.0004
 15  1  1  0  3 58.0000000  0 10G23G14G03G04G20G01G11G31G32G25
  -7930137.15546  -5980991.14946  23703772.7294   23703773.0844   23703774.530
        39.2004         36.9004
  -4076649.54746  -3154250.51845  23699746.7194   23699749.2984   23699747.155
        37.6004         35.3004
 -22453413.06947 -17251532.59647  21104831.5944   21104834.0204   21104831.343
        47.7004         44.7004
  -3808340.55346  -2695777.77046  24258618.8244   24258619.3884   24258617.696
        38.7004         36.4004
  -9266111.09746  -7196407.41946  22510961.6894   22510962.3904   22510962.756
        40.9004         38.1004
  -7735280.32246  -5764848.30446  23197359.2534   23197362.6724   23197358.922
        40.1004         37.6004
   4010211.41745   4039606.00045  25413532.9304   25413536.3424   25413533.663
        34.2004         32.6004
 -18520840.38847 -14404917.90047  21007023.6354   21007022.3074   21007023.516
        47.5004         44.5004
 -20916482.65648 -15489929.00747  20601051.1834   20601052.0414   20601051.798
        48.6004         45.6004
    408023.28145    330325.76545  24583905.5134   24583909.2624   24583904.660
        35.9004         34.0004
 15  1  1  0  3 59.0000000  0 10G23G14G03G04G20G01G11G31G32G25
  -7932734.82646  -5983015.29846  23703278.5394   23703277.5164   23703280.185
        39.2004         36.9004
  -4074277.89846  -3152402.47845  23700197.6894   23700199.8174   23700198.466
        37.6004         35.3004
 -22455251.56747 -17252965.18747  21104481.8384   21104483.9194   21104481.491
        47.7004         44.7004
  -3805188.35846  -2693321.51746  24259218.1994   24259219.6144   24259217.572
        38.7004         36.4004
  -9268878.01746  -7198563.46146  22510434.7144   22510436.6954   22510436.222
        40.9004         38.3004
  -7732998.64846  -5763070.37846  23197793.1304   23197796.9764   23197793.069
        40.1004         37.8004
   4012882.75645   4041687.56245  25414039.7114   25414043.8194   25414042.076
        34.2004         32.6004
 -18518735.88847 -14403278.02847  21007423.9984   21007422.9774   21007423.966
        47.5004         44.5004
 -20915633.65348 -15489267.44647  20601212.9594   20601213.6464   20601213.362
        48.6004         45.6004
    410757.35545    332456.21245  24584425.9374   24584430.4434   24584424.841
        35.9004         34.0004
 15  1  1  0  4  0.0000000  0 10G23G14G03G04G20G01G11G31G32G25
  -7935332.47646  -5985039.44446  23702784.5254   23702784.6474   23702785.906
        39.2004         36.7004
  -4071906.14046  -3150554.35345  23700648.8814   23700650.7114   23700649.795
        37.6004         35.3004
 -22457089.56347 -17254397.39147  21104132.0254   21104133.9584   21104131.732
        47.7004         44.7004
  -3802036.10146  -2690865.21446  24259818.5974   24259819.2854   24259817.423
        38.7004         36.4004
  -9271644.57746  -7200719.21546  22509909.3484   22509910.5384   22509909.799
        40.9004         38.3004
  -7730716.61846  -5761292.17146  23198227.3564   23198231.4094   23198227.342
        40.1004         37.8004
   4015554.10945   4043769.13345  25414547.9214   25414552.6304   25414550.244
        34.2004         32.6004
 -18516631.04347 -14401637.89147  21007824.8024   21007823.2974   21007824.492
        47.5004         44.5004
 -20914784.11548 -15488605.47147  20601374.6284   20601375.3464   20601375.030
        48.6004         45.6004
    413491.83745    334586.97845  24584946.3424   24584951.3474   24584945.024
        35.7004         34.0004
 15  1  1  0  4  1.0000000  0 10G23G14G03G04G20G01G11G31G32G25
  -7937930.09746  -5987063.56246  23702290.3674   23702289.6314   23702291.601
        39.2004         36.9004
  -4069534.27146  -3148706.14145  23701100.3104   23701102.3514   23701101.183
        37.6004         35.3004
 -22458927.05947 -17255829.20947  21103782.3584   21103784.2194   21103782.074
        47.7004         44.7004
  -3798883.86046  -2688408.92346  24260418.9524   24260419.1784   24260417.347
        38.7004         36.4004
  -9274410.75446  -7202874.67646  22509382.4004   22509384.5094   22509383.474
        40.9004         38.3004
  -7728434.21446  -5759513.67746  23198661.5344   23198665.8124   23198661.720
        40.1004         37.6004
   4018225.36645   4045850.62745  25415056.0394   25415060.1164   25415058.381
        34.2004         32.6004
 -18514525.84947 -14399997.48047  21008225.1624   21008224.1304   21008225.088
        47.5004         44.5004
 -20913934.04848 -15487943.08347  20601536.3744   20601537.2134   20601536.800
        48.6004         45.6004
    416226.74945    336718.07745  24585465.9164   24585471.5694   24585465.461
        35.7004         34.0004
 15  1  1  0  4  2.0000000  0 10G23G14G03G04G20G01G11G31G32G25
  -7940527.69346  -5989087.66446  23701796.1904   23701795.0004   23701797.276
        39.2004         36.7004
  -4067162.29146  -3146857.84645  23701551.3594   23701553.6594   23701552.497
        37.6004         35.5004
 -22460764.05847 -17257260.63547  21103432.8374   21103434.9864   21103432.534
        47.7004         44.7004
  -3795731.57646  -2685952.60046  24261018.7794   24261019.2064   24261017.227
        38.7004         36.2004
  -9277176.58446  -7205029.86346  22508856.2454   22508858.6424   22508857.217
        40.9004         38.1004
  -7726151.44846  -5757734.89846  23199096.9314   23199100.4004   23199096.133
        40.1004         37.6004
   4020896.54445   4047932.06545  25415564.6554   25415568.7024   25415566.616
        34.0004         32.6004
 -18512420.31747 -14398356.80547  21008625.8784   21008624.5484   21008625.750
        47.5004         44.5004
 -20913083.46548 -15487280.28947  20601698.1514   20601699.0554   20601698.670
        48.6004         45.6004
    418962.10145    338849.52445  24585986.8084   24585992.0264   24585985.745
        35.7004         33.8004
 15  1  1  0  4  3.0000000  0 10G23G14G03G04G20G01G11G31G32G25
  -7943125.26046  -5991111.74246  23701301.6824   23701300.7614   23701302.990
        39.2004         36.7004
  -4064790.22046  -3145009.47745  23702002.9124   23702005.1014   23702003.934
        37.6004         35.5004
 -22462600.56847 -17258691.67847  21103083.3694   21103085.5164   21103083.051
        47.7004         44.7004
  -3792579.24246  -2683496.23546  24261617.9154   24261618.1624   24261617.146
        38.7004         36.2004
  -9279942.04346  -7207184.76946  22508330.4924   22508331.8014   22508330.995
        40.9004         38.1004
  -7723868.34246  -5755955.85246  23199531.2814   23199535.0934   23199530.588
        40.1004         37.6004
   4023567.68545   4050013.47445  25416073.1174   25416075.9794   25416074.909
        34.2004         32.6004
 -18510314.43447 -14396715.85847  21009026.6944   21009025.2614   21009026.453
        47.5004         44.5004
 -20912232.34948 -15486617.07647  20601859.9514   20601860.8834   20601860.642
        48.8004         45.6004
    421697.86945    340981.29245  24586508.5104   24586511.8644   24586506.714
        35.7004         34.0004
 15  1  1  0  4  4.0000000  0 10G23G14G03G04G20G01G11G31G32G25
  -7945722.80746  -5993135.80146  23700808.2764   23700807.0694   23700808.721
        39.2004         36.7004
  -4062418.01446  -3143161.00645  23702454.0624   23702456.0814   23702455.416
        37.6004         35.5004
 -22464436.57947 -17260122.33647  21102733.9554   21102735.9574   21102733.643
        47.7004         44.7004
  -3789426.88446  -2681039.85146  24262218.0084   24262217.3694   24262217.092
        38.7004         36.0004
  -9282707.15646  -7209339.40246  22507804.2564   22507805.8364   22507804.796
        40.9004         38.1004
  -7721584.88046  -5754176.53346  23199965.7164   23199969.6274   23199965.222
        40.1004         37.8004
   4026238.77445   4052094.83645  25416581.0194   25416583.4924   25416583.257
        34.0004         32.4004
 -18508208.21547 -14395074.64847  21009427.5784   21009426.2584   21009427.250
        47.5004         44.5004
 -20911380.69148 -15485953.44947  20602021.9984   20602022.8594   20602022.720
        48.8004         45.6004
    424434.04145    343113.36945  24587029.7574   24587033.5554   24587027.799
        35.7004         33.8004
 15  1  1  0  4  5.0000000  0 10G23G14G03G04G20G01G11G31G32G25
  -7948320.31746  -5995159.81546  23700314.0144   23700311.9954   23700314.377
        39.2004         36.7004
  -4060045.70946  -3141312.45645  23702904.9904   23702908.0264   23702906.841
        37.6004         35.5004
 -22466272.08547 -17261552.60047  21102384.4554   21102386.8184   21102384.365
        47.7004         44.7004
  -3786274.52546  -2678583.46546  24262817.2184   24262818.1054   24262816.965
        38.7004         36.2004
  -9285471.89146  -7211493.73746  22507278.4744   22507279.1784   22507278.666
        40.9004         38.1004
  -7719301.06646  -5752396.93746  23200400.0634   23200403.7784   23200399.764
        40.1004         37.8004
   4028909.78745   4054176.14445  25417089.5184   25417092.2064   25417091.380
        34.0004         32.4004
 -18506101.63647 -14393433.15747  21009828.2394   21009827.1874   21009828.103
        47.5004         44.5004
 -20910528.49848 -15485289.40147  20602184.3664   20602185.1704   20602184.903
        48.8004         45.6004
    427170.67445    345245.81145  24587550.1014   24587554.6174   24587548.894
        35.7004         33.8004
 15  1  1  0  4  6.0000000  0 10G23G14G03G04G20G01G11G31G32G25
  -7950917.79146  -5997183.80946  23699820.3134   23699818.3034   23699820.080
        39.2004         36.9004
  -4057673.28346  -3139463.81145  23703356.4034   23703359.2344   23703358.310
        37.6004         35.5004
 -22468107.10547 -17262982.48447  21102035.5044   21102037.8344   21102035.165
        47.7004         44.7004
  -3783122.10546  -2676127.03746  24263417.2264   24263417.4024   24263416.876
        38.7004         36.0004
  -9288236.26346  -7213647.78846  22506751.6184   22506753.2704   22506752.579
        40.9004         38.1004
  -7717016.85746  -5750617.03246  23200834.1954   23200837.7174   23200834.442
        40.1004         37.6004
   4031580.74345   4056257.40845  25417597.4874   25417600.9084   25417599.634
        34.0004         32.4004
 -18503994.71547 -14391791.39847  21010229.6574   21010228.3354   21010229.012
        47.5004         44.5004
 -20909675.77748 -15484624.94347  20602346.7194   20602347.2244   20602347.189
        48.8004         45.6004
    429907.71445    347378.57245  24588071.3574   24588074.8634   24588069.958
        35.7004         33.6004
 15  1  1  0  4  7.0000000  0 10G23G14G03G04G20G01G11G31G32G25
  -7953515.25146  -5999207.80346  23699325.1904   23699324.4754   23699325.829
        39.2004         36.7004
  -4055300.77446  -3137615.10145  23703808.1464   23703810.3854   23703809.819
        37.6004         35.5004
 -22469941.62947 -17264411.98247  21101686.3424   21101688.2984   21101686.064
        47.7004         44.7004
  -3779969.70646  -2673670.62246  24264016.8614   24264018.4774   24264016.790
        38.7004         36.2004
  -9291000.28646  -7215801.57146  22506225.4654   22506226.1514   22506226.539
        40.9004         38.1004
  -7714732.33246  -5748836.88346  23201269.0354   23201272.6514   23201269.171
        40.1004         37.6004
   4034251.63145   4058338.61745  25418106.0874   25418109.1554   25418107.882
        34.0004         32.4004
 -18501887.45347 -14390149.37747  21010630.4554   21010629.0414   21010629.990
        47.5004         44.5004
 -20908822.51448 -15483960.06647  20602509.0864   20602509.5964   20602509.584
        48.8004         45.6004
    432645.19445    349511.67845  24588591.3564   24588595.6124   24588591.022
        35.6004         33.6004
 15  1  1  0  4  8.0000000  0 10G23G14G03G04G20G01G11G31G32G25
  -7956112.67046  -6001231.76746  23698830.7554   23698829.9064   23698831.502
        39.2004         36.7004
  -4052928.15846  -3135766.31045  23704260.0564   23704262.3314   23704261.276
        37.6004         35.5004
 -22471775.63647 -17265841.07747  21101337.7374   21101339.4704   21101337.053
        47.7004         44.9004
  -3776817.23946  -2671214.15546  24264616.2694   24264618.2654   24264616.614
        38.7004         36.2004
  -9293763.93746  -7217955.06846  22505699.7694   22505700.5754   22505700.623
        40.9004         38.1004
  -7712447.43146  -5747056.44246  23201703.5524   23201707.3484   23201703.913
        40.1004         37.4004
   4036922.45045   4060419.77945  25418614.6404   25418617.3634   25418616.145
        34.0004         32.4004
 -18499779.84847 -14388507.08747  21011031.1744   21011030.1274   21011031.066
        47.5004         44.5004
 -20907968.71848 -15483294.76947  20602671.5774   20602672.3164   20602672.060
        48.8004         45.6004
    435383.08745    351645.10245  24589112.4974   24589116.4834   24589112.151
        35.6004         33.4004
 15  1  1  0  4  9.0000000  0 10G23G14G03G04G20G01G11G31G32G25
  -7958710.07546  -6003255.71746  23698336.6954   23698336.3904   23698337.222
        39.2004         36.7004
  -4050555.40946  -3133917.41445  23704711.9254   23704714.0854   23704712.811
        37.6004         35.5004
 -22473609.15247 -17267269.79047  21100988.7384   21100990.7144   21100988.139
        47.7004         44.9004
  -3773664.75646  -2668757.67846  24265215.9564   24265218.3204   24265216.470
        38.7004         36.2004
  -9296527.20746  -7220108.26346  22505174.0294   22505174.6364   22505174.796
        40.9004         38.1004
  -7710162.18246  -5745275.73146  23202139.2084   23202142.7754   23202138.736
        40.1004         37.6004
   4039593.22645   4062500.89845  25419123.3274   25419126.8704   25419124.198
        34.2004         32.6004
 -18497671.89347 -14386864.52247  21011432.2634   21011431.1864   21011432.201
        47.5004         44.5004
 -20907114.39548 -15482629.06047  20602834.0234   20602834.7684   20602834.622
        48.8004         45.6004
    438121.47845    353778.91745  24589633.1184   24589637.1934   24589633.264
        35.6004         33.4004
 15  1  1  0  4 10.0000000  0 10G23G14G03G04G20G01G11G31G32G25
  -7961307.45346  -6005279.64446  23697843.0524   23697840.7994   23697842.923
        39.2004         36.7004
  -4048182.56246  -3132068.43845  23705163.3704   23705165.4764   23705164.327
        37.6004         35.3004
 -22475442.17247 -17268698.11847  21100639.6864   21100641.6824   21100639.332
        47.7004         44.7004
  -3770512.27446  -2666301.20346  24265816.1444   24265818.8554   24265816.401
        38.7004         36.2004
  -9299290.11746  -7222261.17546  22504649.0234   22504648.8034   22504649.030
        40.9004         38.1004
  -7707876.55946  -5743494.72546  23202574.2834   23202577.2564   23202573.663
        40.1004         37.4004
   4042263.95645   4064581.98245  25419630.9654   25419635.7004   25419632.405
        34.0004         32.6004
 -18495563.58647 -14385221.68447  21011833.5974   21011832.1974   21011833.393
        47.5004         44.5004
 -20906259.53748 -15481962.93947  20602996.7274   20602997.6174   20602997.297
        48.8004         45.6004
    440860.25445    355913.03345  24590153.3184   24590157.9974   24590154.222
        35.6004         33.6004
 15  1  1  0  4 11.0000000  0 10G23G14G03G04G20G01G11G31G32G25
  -7963904.79346  -6007303.54646  23697348.8584   23697347.7524   23697348.645
        39.2004         36.7004
  -4045809.59546  -3130219.37645  23705614.7614   23705616.9254   23705615.915
        37.6004         35.3004
 -22477274.68847 -17270126.04947  21100291.2754   21100293.1714   21100290.598
        47.7004         44.7004
  -3767359.72946  -2663844.67146  24266415.9174   24266418.4704   24266416.306
        38.7004         36.2004
  -9302052.68346  -7224413.82546  22504123.1504   22504123.5754   22504123.327
        40.9004         38.1004
  -7705590.58946  -5741713.44846  23203009.0864   23203012.6064   23203008.579
        40.1004         37.4004
   4044934.63245   4066663.02345  25420137.6764   25420143.8424   25420140.655
        34.2004         32.6004
 -18493454.93747 -14383578.58147  21012234.9824   21012233.7034   21012234.630
        47.5004         44.5004
 -20905404.15348 -15481296.40347  20603159.3894   20603160.3164   20603160.061
        48.8004         45.6004
    443599.46145    358047.47945  24590674.7354   24590678.7404   24590675.398
        35.6004         33.4004
 15  1  1  0  4 12.0000000  0 10G23G14G03G04G20G01G11G31G32G25
  -7966502.11246  -6009327.42046  23696853.6014   23696852.2904   23696854.377
        39.2004         36.9004
  -4043436.52946  -3128370.23045  23706066.6774   23706067.9124   23706067.465
        37.6004         35.3004
 -22479106.71647 -17271553.59647  21099942.6544   21099944.5354   21099941.955
        47.7004         44.7004
  -3764207.16546  -2661388.12946  24267015.7284   24267017.7694   24267016.272
        38.7004         36.2004
  -9304814.86646  -7226566.16946  22503597.0844   22503597.4724   22503597.706
        40.9004         38.3004
  -7703304.24846  -5739931.88246  23203444.3984   23203448.1574   23203443.693
        40.1004         37.4004
   4047605.22545   4068744.00045  25420646.2294   25420651.8754   25420648.979
        34.2004         32.7004
 -18491345.93147 -14381935.19647  21012636.7874   21012635.0754   21012635.946
        47.5004         44.5004
 -20904548.22648 -15480629.44547  20603322.3484   20603323.0674   20603322.950
        48.8004         45.6004
    446339.08045    360182.24445  24591196.2044   24591200.3384   24591196.713
        35.6004         33.6004
 15  1  1  0  4 13.0000000  0 10G23G14G03G04G20G01G11G31G32G25
  -7969099.40146  -6011351.28846  23696359.2444   23696357.9974   23696360.154
        39.2004         36.7004
  -4041063.35946  -3126521.00345  23706518.8074   23706519.4684   23706519.091
        37.6004         35.3004
 -22480938.24347 -17272980.76047  21099594.1394   21099595.9064   21099593.445
        47.7004         44.7004
  -3761054.56446  -2658931.55746  24267615.6084   24267616.8974   24267616.170
        38.7004         36.4004
  -9307576.68946  -7228718.23946  22503071.6494   22503071.9484   22503072.142
        40.9004         38.3004
  -7701017.57946  -5738150.06246  23203879.2364   23203883.4074   23203878.820
        40.1004         37.4004
   4050275.72345   4070824.90745  25421154.8604   25421160.2774   25421157.143
        34.0004         32.6004
 -18489236.59747 -14380291.55947  21013038.0164   21013036.6794   21013037.328
        47.5004         44.5004
 -20903691.77948 -15479962.08347  20603485.2984   20603486.1004   20603485.916
        48.8004         45.6004
    449079.17145    362317.38045  24591716.8924   24591722.0994   24591718.143
        35.6004         33.6004
