     2.11           OBSERVATION DATA    G (GPS)             RINEX VERSION / TYPE
teqc  2013Mar15     gpsops              20150101 00:42:04UTCPGM / RUN BY / DATE
Linux 2.4.21-27.ELsmp|Opteron|gcc -static|Linux x86_64|=+   COMMENT
BIT 2 OF LLI FLAGS DATA COLLECTED UNDER A/S CONDITION       COMMENT
FAIR                                                        MARKER NAME
40408M001                                                   MARKER NUMBER
GGN                 JPL                                     OBSERVER / AGENCY
IR2200709003        ASHTECH UZ-12       CQ00                REC # / TYPE / VERS
CR5200348003        ASH701945G_M    JPLA                    ANT # / TYPE
 -2281621.7717 -1453595.9493  5756961.9444                  APPROX POSITION XYZ
        0.0863        0.0000        0.0000                  ANTENNA: DELTA H/E/N
     1     1                                                WAVELENGTH FACT L1/2
     7    L1    L2    P1    P2    C1    S1    S2            # / TYPES OF OBSERV
     1.0000                                                 INTERVAL
                                                            COMMENT
This data is provided as a public service by NASA/JPL.      COMMENT
No warranty is expressed or implied regarding suitability   COMMENT
for use.  For further information, contact:                 COMMENT
Dave Stowers, NASA/JPL m/s 238-600                          COMMENT
4800 Oak Grove Drive, Pasadena CA 91109 USA                 COMMENT
                                                            COMMENT
 SNR is mapped to RINEX snr flag value [0-9]                COMMENT
  L1 & L2: min(max(int(snr_dBHz/6), 0), 9)                  COMMENT
pseudorange smoothing corrections not applied               COMMENT
  2015     1     1     0     0    0.0000000     GPS         TIME OF FIRST OBS
                                                            END OF HEADER
 15  1  1  0  0  0.0000000  0 10G25G17G32G01G20G09G23G06G03G31
  -4210806.21747  -3254732.93246  23580892.1024   23580897.7534   23580891.839
        45.0004         40.0004
  -2861663.91447  -2191474.49946  24260332.4874   24260339.7154   24260332.018
        44.0004         40.0004
  -7047304.74648  -5471571.68447  22585106.0034   22585111.9154   22585107.752
        50.0004         45.0004
  -6926735.02947  -5344155.32246  23640108.4114   23640116.5454   23640108.234
        45.0004         41.0004
 -25142177.77449 -19528316.93148  20394842.0164   20394846.5544   20394842.416
        55.0004         51.0004
  -1208762.15447   -929017.86746  24124019.6934   24124029.4474   24124020.996
        43.0004         39.0004
 -16430675.71848 -12744758.61848  21939726.8264   21939729.3244   21939726.696
        52.0004         48.0004
   -999269.55148   -771301.03447  22603836.0184   22603843.6384   22603834.905
        49.0004         45.0004
 -20613237.26049 -15989593.19548  20423198.3094   20423204.7274   20423197.655
        57.0004         52.0004
 -12511416.57048  -9740954.44248  21722816.6814   21722820.0474   21722815.749
        53.0004         49.0004
 15  1  1  0  0  1.0000000  0 10G25G17G32G01G20G09G23G06G03G31
  -4210337.67147  -3254367.83246  23580980.4254   23580987.1934   23580980.781
        45.0004         40.0004
  -2858817.94947  -2189256.86746  24260874.7354   24260881.3414   24260873.467
        44.0004         40.0004
  -7044210.57548  -5469160.63247  22585695.0014   22585701.1394   22585696.481
        50.0004         46.0004
  -6923028.85047  -5341267.39546  23640813.9004   23640821.3594   23640813.570
        45.0004         41.0004
 -25142898.02949 -19528878.16548  20394704.6634   20394709.4994   20394705.439
        55.0004         51.0004
  -1212474.41647   -931910.53646  24123312.7624   24123322.0334   24123314.602
        43.0004         39.0004
 -16433323.62348 -12746821.91248  21939223.0414   21939225.2564   21939222.839
        52.0004         48.0004
  -1001569.39048   -773093.11047  22603397.9024   22603406.1814   22603397.269
        49.0004         45.0004
 -20612454.52449 -15988983.26748  20423347.0184   20423353.5784   20423346.553
        57.0004         52.0004
 -12510561.20748  -9740287.92248  21722979.2274   21722983.2614   21722978.615
        53.0004         49.0004
 15  1  1  0  0  2.0000000  0 10G25G17G32G01G20G09G23G06G03G31
  -4209868.55147  -3254002.28346  23581069.2734   23581077.3274   23581069.760
        45.0004         40.0004
  -2855971.70647  -2187039.01846  24261416.4344   24261423.3164   24261415.048
        44.0004         40.0004
  -7041116.24848  -5466749.46947  22586284.6994   22586289.9974   22586285.283
        50.0004         46.0004
  -6919322.55447  -5338379.37646  23641518.8844   23641526.9444   23641518.745
        45.0004         41.0004
 -25143617.78849 -19529439.01348  20394567.8984   20394572.6314   20394568.541
        55.0004         51.0004
  -1216186.63447   -934803.17046  24122606.1964   24122615.9374   24122607.934
        43.0004         39.0004
 -16435971.27348 -12748885.00848  21938719.1454   21938721.5514   21938719.060
        52.0004         48.0004
  -1003868.82248   -774884.86947  22602960.7684   22602968.8914   22602959.813
        49.0004         45.0004
 -20611671.32349 -15988372.97848  20423496.1344   20423502.6424   20423495.560
        57.0004         52.0004
 -12509705.29548  -9739620.97348  21723142.4724   21723146.0914   21723141.552
        53.0004         49.0004
 15  1  1  0  0  3.0000000  0 10G25G17G32G01G20G09G23G06G03G31
  -4209398.94547  -3253636.35546  23581158.8714   23581167.0424   23581158.824
        45.0004         40.0004
  -2853125.37847  -2184821.10346  24261958.2484   24261965.0104   24261956.644
        44.0004         40.0004
  -7038021.88748  -5464338.28247  22586873.2984   22586878.4554   22586874.152
        50.0004         46.0004
  -6915616.29947  -5335491.38746  23642224.0154   23642232.3934   23642224.076
        45.0004         41.0004
 -25144337.18649 -19529999.58248  20394431.0094   20394435.5324   20394431.655
        55.0004         51.0004
  -1219898.92947   -937695.86246  24121899.4044   24121909.2974   24121901.138
        43.0004         39.0004
 -16438618.79048 -12750948.00448  21938214.6284   21938217.9124   21938215.225
        52.0004         48.0004
  -1006167.95948   -776676.40547  22602523.7424   22602531.1344   22602522.300
        49.0004         45.0004
 -20610887.77449 -15987762.42248  20423645.3394   20423651.8194   20423644.663
        57.0004         52.0004
 -12508848.94248  -9738953.68548  21723305.3094   21723308.7014   21723304.607
        53.0004         49.0004
 15  1  1  0  0  4.0000000  0 10G25G17G32G01G20G09G23G06G03G31
  -4208928.54647  -3253269.80846  23581248.1244   23581256.0624   23581248.053
        45.0004         40.0004
  -2850278.64247  -2182602.87046  24262499.3944   24262506.4824   24262498.363
        44.0004         40.0004
  -7034927.15648  -5461926.80147  22587462.4464   22587468.2584   22587463.073
        50.0004         46.0004
  -6911909.74447  -5332603.16446  23642929.0834   23642937.1874   23642929.307
        45.0004         41.0004
 -25145055.89949 -19530559.61748  20394294.2614   20394298.9814   20394294.890
        55.0004         51.0004
  -1223611.02247   -940588.39446  24121192.8104   24121202.6904   24121194.394
        44.0004         39.0004
 -16441265.85948 -12753010.65248  21937711.6224   21937714.5224   21937711.544
        52.0004         48.0004
  -1008466.49248   -778467.47647  22602085.2144   22602093.4714   22602084.994
        49.0004         45.0004
 -20610103.56849 -15987151.35348  20423794.5934   20423801.0354   20423793.915
        57.0004         52.0004
 -12507991.82948  -9738285.80448  21723468.2644   21723472.0174   21723467.792
        53.0004         49.0004
 15  1  1  0  0  5.0000000  0 10G25G17G32G01G20G09G23G06G03G31
  -4208456.82247  -3252902.22946  23581337.7974   23581346.4474   23581337.592
        45.0004         40.0004
  -2847430.88447  -2180383.83646  24263040.9314   24263048.3794   24263040.371
        44.0004         40.0004
  -7031831.51248  -5459514.61047  22588051.0854   22588056.8694   22588052.163
        50.0004         46.0004
  -6908202.33847  -5329714.27946  23643634.2304   23643643.2084   23643634.522
        45.0004         41.0004
 -25145773.36549 -19531118.68448  20394157.6614   20394162.4424   20394158.335
        55.0004         51.0004
  -1227322.33247   -943480.31846  24120486.7854   24120496.5134   24120487.954
        44.0004         39.0004
 -16443911.92148 -12755072.51648  21937208.0494   21937210.5024   21937208.063
        52.0004         48.0004
  -1010763.86048   -780257.63247  22601649.0594   22601656.4144   22601647.876
        49.0004         45.0004
 -20609318.13549 -15986539.33148  20423944.0744   20423950.3754   20423943.397
        57.0004         52.0004
 -12507133.40748  -9737616.90748  21723631.2924   21723635.4794   21723631.249
        53.0004         49.0004
 15  1  1  0  0  6.0000000  0 10G25G17G32G01G20G09G23G06G03G31
  -4207984.79547  -3252534.41346  23581427.8124   23581436.3054   23581427.174
        45.0004         40.0004
  -2844583.20747  -2178164.86946  24263582.7724   24263590.0954   24263582.355
        44.0004         40.0004
  -7028735.99448  -5457102.51747  22588640.8574   22588645.5834   22588641.259
        50.0004         46.0004
  -6904495.14247  -5326825.55746  23644340.2334   23644349.0674   23644340.121
        45.0004         41.0004
 -25146490.64349 -19531677.60448  20394021.1224   20394025.8184   20394021.825
        55.0004         51.0004
  -1231033.87947   -946372.42846  24119781.0614   24119790.1624   24119781.683
        44.0004         39.0004
 -16446558.02148 -12757134.41048  21936704.6034   21936707.0684   21936704.559
        52.0004         48.0004
  -1013061.11448   -782047.69647  22601211.9264   22601219.6854   22601210.688
        49.0004         45.0004
 -20608532.54349 -15985927.18348  20424093.5254   20424099.8714   20424092.905
        57.0004         52.0004
 -12506274.71548  -9736947.79848  21723794.9854   21723798.7004   21723794.581
        53.0004         49.0004
 15  1  1  0  0  7.0000000  0 10G25G17G32G01G20G09G23G06G03G31
  -4207511.76147  -3252165.81146  23581517.5434   23581526.4814   23581517.071
        45.0004         40.0004
  -2841734.92147  -2175945.42546  24264124.3884   24264131.2114   24264124.119
        44.0004         40.0004
  -7025639.92148  -5454689.98847  22589229.3774   22589235.0244   22589230.337
        50.0004         46.0004
  -6900787.45247  -5323936.45046  23645045.3224   23645054.2794   23645045.495
        45.0004         41.0004
 -25147207.01649 -19532235.81348  20393884.8074   20393889.7034   20393885.471
        55.0004         51.0004
  -1234745.02947   -949264.22646  24119075.6654   24119084.4264   24119075.678
        44.0004         39.0004
 -16449203.46548 -12759195.78648  21936201.0804   21936203.8484   21936201.190
        52.0004         48.0004
  -1015357.53748   -783837.11847  22600774.2254   22600781.5724   22600773.703
        49.0004         45.0004
 -20607746.06949 -15985314.34048  20424243.1844   20424249.5374   20424242.626
        57.0004         52.0004
 -12505415.05548  -9736277.92948  21723958.6174   21723962.5794   21723958.134
        53.0004         49.0004
 15  1  1  0  0  8.0000000  0 10G25G17G32G01G20G09G23G06G03G31
  -4207037.98547  -3251796.63346  23581608.1984   23581616.4734   23581606.989
        45.0004         40.0004
  -2838886.18547  -2173725.63446  24264666.0174   24264673.2764   24264665.957
        45.0004         40.0004
  -7022543.48448  -5452277.17647  22589818.2334   22589824.0254   22589819.582
        50.0004         46.0004
  -6897079.45447  -5321047.10646  23645750.7334   23645759.3124   23645750.917
        45.0004         41.0004
 -25147922.72049 -19532793.50448  20393748.5164   20393753.3234   20393749.208
        55.0004         51.0004
  -1238455.94947   -952155.84846  24118369.0994   24118378.1834   24118369.447
        43.0004         39.0004
 -16451848.46848 -12761256.82448  21935697.5704   21935700.7764   21935697.822
        52.0004         48.0004
  -1017653.36548   -785626.07447  22600337.2914   22600345.7004   22600336.804
        49.0004         45.0004
 -20606958.95849 -15984701.00548  20424393.0204   20424399.2884   20424392.441
        57.0004         52.0004
 -12504554.66848  -9735607.49748  21724122.3644   21724126.3154   21724121.869
        53.0004         49.0004
 15  1  1  0  0  9.0000000  0 10G25G17G32G01G20G09G23G06G03G31
  -4206564.01547  -3251427.30446  23581698.0234   23581706.4714   23581697.018
        45.0004         40.0004
  -2836037.65647  -2171506.00446  24265209.0114   24265215.4924   24265207.768
        44.0004         40.0004
  -7019447.30348  -5449864.56647  22590408.2704   22590413.4684   22590408.712
        50.0004         46.0004
  -6893371.77947  -5318158.01246  23646457.0144   23646464.2844   23646456.361
        45.0004         41.0004
 -25148638.33149 -19533351.12248  20393612.3564   20393617.2104   20393613.014
        55.0004         51.0004
  -1242167.25247   -955047.76846  24117662.8624   24117672.4854   24117663.313
        44.0004         39.0004
 -16454493.61948 -12763317.97748  21935193.9894   21935196.9484   21935194.302
        52.0004         48.0004
  -1019949.19548   -787415.03147  22599900.4524   22599908.8744   22599899.932
        49.0004         45.0004
 -20606171.77949 -15984087.61948  20424542.6514   20424549.0994   20424542.234
        57.0004         52.0004
 -12503694.11148  -9734936.93448  21724286.3254   21724289.5584   21724285.646
        53.0004         49.0004
 15  1  1  0  0 10.0000000  0 10G25G17G32G01G20G09G23G06G03G31
  -4206089.27047  -3251057.36746  23581788.8304   23581797.1414   23581787.267
        45.0004         40.0004
  -2833188.69547  -2169286.03946  24265750.3254   24265757.9684   24265749.576
        44.0004         40.0004
  -7016350.77148  -5447451.68447  22590997.1774   22591002.7304   22590997.875
        50.0004         46.0004
  -6889663.81147  -5315268.69146  23647162.2164   23647170.2214   23647161.876
        45.0004         41.0004
 -25149353.27749 -19533908.22248  20393476.6424   20393481.1964   20393476.906
        55.0004         51.0004
  -1245878.34147   -957939.51946  24116956.7154   24116966.4584   24116957.217
        43.0004         39.0004
 -16457138.33748 -12765378.78748  21934691.2734   21934693.6104   21934690.897
        52.0004         48.0004
  -1022244.41948   -789203.51247  22599464.0334   22599471.7744   22599463.148
        49.0004         45.0004
 -20605383.94849 -15983473.72148  20424692.6924   20424698.9804   20424692.197
        57.0004         52.0004
 -12502832.81748  -9734265.79548  21724450.0454   21724453.9834   21724449.516
        53.0004         49.0004
 15  1  1  0  0 11.0000000  0 10G25G17G32G01G20G09G23G06G03G31
  -4205613.99047  -3250687.01546  23581879.0874   23581887.6924   23581877.603
        45.0004         40.0004
  -2830339.56647  -2167065.94146  24266292.7424   24266299.7044   24266291.744
        44.0004         40.0004
  -7013254.13548  -5445038.72347  22591586.2664   22591591.8634   22591587.154
        50.0004         46.0004
  -6885955.81647  -5312379.34746  23647868.1964   23647875.5624   23647867.510
        45.0004         41.0004
 -25150067.77949 -19534464.97748  20393340.4834   20393345.0944   20393340.898
        55.0004         51.0004
  -1249589.41747   -960831.26046  24116250.1444   24116260.3974   24116251.396
        43.0004         39.0004
 -16459782.84348 -12767439.43948  21934187.6894   21934190.6434   21934187.484
        52.0004         48.0004
  -1024539.27248   -790991.70747  22599027.3404   22599035.0844   22599026.576
        50.0004         45.0004
 -20604595.69949 -15982859.50148  20424842.6064   20424849.0394   20424842.248
        57.0004         52.0004
 -12501971.00948  -9733594.25548  21724614.1574   21724617.9044   21724613.515
        53.0004         49.0004
 15  1  1  0  0 12.0000000  0 10G25G17G32G01G20G09G23G06G03G31
  -4205137.65747  -3250315.84546  23581969.8034   23581978.8514   23581968.119
        45.0004         40.0004
  -2827489.75447  -2164845.31346  24266835.0004   24266842.2604   24266834.023
        44.0004         40.0004
  -7010156.87548  -5442625.27347  22592175.9294   22592181.7754   22592176.492
        50.0004         46.0004
  -6882247.24147  -5309489.55246  23648573.2434   23648581.6254   23648573.038
        45.0004         41.0004
 -25150781.33749 -19535020.99548  20393204.6734   20393209.2854   20393205.121
        55.0004         51.0004
  -1253300.07547   -963722.67446  24115544.6844   24115554.9364   24115545.711
        44.0004         39.0004
 -16462426.65048 -12769499.54248  21933684.7114   21933687.0444   21933684.340
        52.0004         48.0004
  -1026833.26148   -792779.23447  22598590.8284   22598598.4394   22598590.028
        50.0004         45.0004
 -20603806.53049 -15982244.56548  20424992.9164   20424999.2024   20424992.486
        57.0004         52.0004
 -12501108.19448  -9732921.93048  21724778.2044   21724782.2144   21724777.695
        53.0004         49.0004
 15  1  1  0  0 13.0000000  0 10G25G17G32G01G20G09G23G06G03G31
  -4204660.53447  -3249944.05746  23582060.4774   23582069.5004   23582059.064
        45.0004         40.0004
  -2824639.51847  -2162624.35446  24267377.3254   24267384.8794   24267376.946
        44.0004         40.0004
  -7007059.23848  -5440211.52947  22592765.5784   22592770.7934   22592765.857
        50.0004         46.0004
  -6878538.40247  -5306599.54946  23649278.1794   23649286.8624   23649278.604
        45.0004         40.0004
 -25151494.20449 -19535576.47848  20393069.2464   20393073.5394   20393069.457
        55.0004         51.0004
  -1257010.43547   -966613.85546  24114839.0954   24114848.8464   24114840.081
        44.0004         39.0004
 -16465069.99248 -12771559.28448  21933181.4714   21933184.4324   21933181.304
        52.0004         48.0004
  -1029126.63648   -794566.28147  22598154.3374   22598163.0384   22598153.529
        50.0004         45.0004
 -20603016.69549 -15981629.10948  20425143.0934   20425149.4444   20425142.784
        57.0004         52.0004
 -12500244.62348  -9732249.01648  21724942.3464   21724946.1554   21724941.969
        53.0004         49.0004
 15  1  1  0  0 14.0000000  0 10G25G17G32G01G20G09G23G06G03G31
  -4204183.00847  -3249571.95646  23582151.3364   23582160.5264   23582149.990
        45.0004         40.0004
  -2821789.21747  -2160403.34646  24267920.2054   24267927.5004   24267919.599
        44.0004         40.0004
  -7003961.62448  -5437797.80447  22593354.5294   22593360.0804   22593355.355
        50.0004         46.0004
  -6874829.62047  -5303709.59146  23649984.2644   23649991.9474   23649984.471
        45.0004         40.0004
 -25152206.76149 -19536131.71748  20392933.5104   20392938.0304   20392933.868
        55.0004         51.0004
  -1260720.98647   -969505.18946  24114133.2244   24114143.1054   24114134.538
        44.0004         39.0004
 -16467713.26348 -12773618.97448  21932678.5914   21932681.2864   21932678.239
        52.0004         48.0004
  -1031419.77148   -796353.13947  22597718.3074   22597725.0404   22597717.106
        50.0004         45.0004
 -20602226.57549 -15981013.43048  20425293.5274   20425299.8834   20425293.132
        57.0004         52.0004
 -12499380.67148  -9731575.80748  21725106.5514   21725110.6914   21725106.359
        53.0004         49.0004
 15  1  1  0  0 15.0000000  0 10G25G17G32G01G20G09G23G06G03G31
  -4203704.30247  -3249198.93546  23582241.9344   23582251.7954   23582241.082
        45.0004         40.0004
  -2818938.13847  -2158181.73146  24268463.5314   24268469.9734   24268462.412
        44.0004         40.0004
  -7000863.25548  -5435383.49147  22593944.6494   22593950.4384   22593944.915
        50.0004         46.0004
  -6871120.17247  -5300819.11446  23650690.3224   23650697.5584   23650690.447
        45.0004         40.0004
 -25152918.24349 -19536686.12048  20392798.0144   20392802.9724   20392798.508
        55.0004         51.0004
  -1264430.90747   -972396.02946  24113426.7364   24113436.6654   24113428.829
        44.0004         39.0004
 -16470355.69448 -12775678.00948  21932175.9214   21932178.4374   21932175.491
        52.0004         48.0004
  -1033711.91548   -798139.22147  22597282.2614   22597289.8144   22597280.938
        50.0004         45.0004
 -20601435.40249 -15980396.93448  20425444.0584   20425450.5434   20425443.697
        57.0004         52.0004
 -12498515.57348  -9730901.70648  21725271.5804   21725275.0824   21725270.916
        53.0004         49.0004
 15  1  1  0  0 16.0000000  0 10G25G17G32G01G20G09G23G06G03G31
  -4203224.66147  -3248825.18746  23582333.1484   23582342.9344   23582332.707
        45.0004         40.0004
  -2816086.46347  -2155959.64946  24269005.8974   24269012.4284   24269005.311
        44.0004         40.0004
  -6997764.38648  -5432968.78547  22594534.2274   22594540.4424   22594534.589
        50.0004         46.0004
  -6867410.27247  -5297928.28746  23651396.3694   23651403.9704   23651396.495
        45.0004         40.0004
 -25153628.89149 -19537239.87348  20392662.9174   20392667.5204   20392663.307
        55.0004         51.0004
  -1268140.45547   -975286.58046  24112720.7514   24112730.1194   24112723.136
        44.0004         39.0004
 -16472997.53548 -12777736.57948  21931673.2474   21931676.1424   21931672.853
        52.0004         48.0004
  -1036003.30648   -799924.72147  22596846.0494   22596854.0034   22596844.939
        50.0004         45.0004
 -20600643.42249 -15979779.80548  20425594.7634   20425601.0284   20425594.401
        57.0004         52.0004
 -12497649.58548  -9730226.90648  21725436.1034   21725439.9114   21725435.625
        53.0004         49.0004
 15  1  1  0  0 17.0000000  0 10G25G17G32G01G20G09G23G06G03G31
  -4202744.19947  -3248450.79846  23582424.3264   23582434.1354   23582424.163
        45.0004         40.0004
  -2813234.32647  -2153737.20946  24269548.4084   24269555.2114   24269548.044
        44.0004         40.0004
  -6994665.10848  -5430553.75947  22595124.1764   22595129.4224   22595124.327
        50.0004         46.0004
  -6863700.03447  -5295037.19546  23652102.5964   23652110.5144   23652102.787
        45.0004         40.0004
 -25154338.80449 -19537793.05048  20392527.6784   20392532.4464   20392528.236
        55.0004         51.0004
  -1271849.72647   -978176.91246  24112014.6334   24112023.7634   24112017.272
        44.0004         39.0004
 -16475638.87448 -12779794.76148  21931170.2984   21931173.2624   21931170.264
        52.0004         48.0004
  -1038294.04048   -801709.70947  22596409.9394   22596417.7764   22596409.123
        50.0004         45.0004
 -20599850.73249 -15979162.12248  20425745.8514   20425752.0724   20425745.236
        57.0004         52.0004
 -12496782.78748  -9729551.47648  21725601.0274   21725605.1464   21725600.560
        53.0004         49.0004
 15  1  1  0  0 18.0000000  0 10G25G17G32G01G20G09G23G06G03G31
  -4202263.48247  -3248076.21346  23582515.8354   23582526.2384   23582515.980
        45.0004         40.0004
  -2810382.30147  -2151514.85446  24270091.0044   24270097.2584   24270090.565
        44.0004         40.0004
  -6991566.02348  -5428138.88647  22595713.3404   22595719.4604   22595714.024
        50.0004         46.0004
  -6859990.05047  -5292146.29946  23652809.5394   23652816.7514   23652809.061
        45.0004         40.0004
 -25155048.56749 -19538346.11048  20392392.7384   20392397.3744   20392393.139
        55.0004         51.0004
  -1275559.33047   -981067.50646  24111308.6374   24111317.2764   24111311.421
        44.0004         39.0004
 -16478280.29948 -12781853.01148  21930667.8644   21930670.5234   21930667.738
        52.0004         48.0004
  -1040584.68448   -803494.62447  22595973.6514   22595981.8944   22595973.239
        50.0004         45.0004
 -20599057.92349 -15978544.34948  20425896.4284   20425902.9734   20425896.058
        57.0004         52.0004
 -12495915.77148  -9728875.87948  21725766.2114   21725769.7924   21725765.462
        53.0004         49.0004
 15  1  1  0  0 19.0000000  0 10G25G17G32G01G20G09G23G06G03G31
  -4201781.83547  -3247700.90246  23582607.2834   23582617.3524   23582607.591
        45.0004         40.0004
  -2807529.70847  -2149292.05846  24270633.8554   24270640.1524   24270633.072
        44.0004         40.0004
  -6988466.42448  -5425723.61547  22596303.2264   22596308.9824   22596303.733
        50.0004         46.0004
  -6856279.63347  -5289255.06346  23653515.2324   23653522.8924   23653515.469
        45.0004         40.0004
 -25155757.50149 -19538898.52348  20392257.9074   20392262.3824   20392258.272
        55.0004         51.0004
  -1279268.54047   -983957.79346  24110602.5034   24110611.8764   24110605.694
        44.0004         39.0004
 -16480921.12748 -12783910.79248  21930165.4644   21930168.1214   21930165.272
        52.0004         48.0004
  -1042874.57848   -805278.95447  22595538.2474   22595546.0424   22595537.516
        50.0004         45.0004
 -20598264.30149 -15977925.93948  20426047.5584   20426053.9534   20426047.012
        57.0004         52.0004
 -12495047.85648  -9728199.57748  21725931.0524   21725935.0224   21725930.613
        53.0004         49.0004
 15  1  1  0  0 20.0000000  0 10G25G17G32G01G20G09G23G06G03G31
  -4201299.41847  -3247324.99246  23582699.8944   23582708.7644   23582699.571
        45.0004         40.0004
  -2804676.67547  -2147068.91746  24271176.6504   24271182.8544   24271175.692
        44.0004         40.0004
  -6985366.48448  -5423308.07847  22596893.7934   22596899.2674   22596893.559
        50.0004         46.0004
  -6852568.91147  -5286363.58846  23654220.5944   23654228.3404   23654221.795
        45.0004         40.0004
 -25156465.75949 -19539450.41548  20392123.2034   20392127.6524   20392123.447
        55.0004         51.0004
  -1282977.55847   -986847.93046  24109896.6844   24109906.4354   24109900.003
        43.0004         39.0004
 -16483561.52748 -12785968.24348  21929662.4304   21929665.6474   21929662.938
        52.0004         48.0004
  -1045163.89148   -807062.83447  22595102.5584   22595110.9244   22595102.000
        50.0004         45.0004
 -20597470.02949 -15977307.02948  20426198.7564   20426205.2294   20426198.071
        57.0004         52.0004
 -12494179.20348  -9727522.70548  21726096.3264   21726100.6494   21726095.864
        53.0004         49.0004
 15  1  1  0  0 21.0000000  0 10G25G17G32G01G20G09G23G06G03G31
  -4200816.47547  -3246948.67046  23582790.8104   23582800.8244   23582791.671
        45.0004         40.0004
  -2801823.54247  -2144845.70046  24271720.1174   24271725.2834   24271718.615
        44.0004         40.0004
  -6982266.44848  -5420892.46647  22597482.7204   22597488.1514   22597483.376
        50.0004         46.0004
  -6848858.19547  -5283472.12146  23654926.7434   23654934.3744   23654927.982
        45.0004         40.0004
 -25157173.60549 -19540001.98348  20391988.3594   20391993.0604   20391988.714
        55.0004         51.0004
  -1286686.60147   -989738.08746  24109191.1414   24109199.7194   24109194.014
        43.0004         39.0004
 -16486201.74348 -12788025.55148  21929160.1914   21929163.4604   21929160.697
        52.0004         48.0004
  -1047452.85048   -808846.43747  22594666.3504   22594675.4154   22594666.550
        50.0004         45.0004
 -20596675.36749 -15976687.81148  20426349.9734   20426356.3294   20426349.281
        57.0004         52.0004
 -12493310.05848  -9726845.44448  21726261.9784   21726265.8124   21726261.157
        53.0004         49.0004
 15  1  1  0  0 22.0000000  0 10G25G17G32G01G20G09G23G06G03G31
  -4200333.04047  -3246571.96746  23582883.5024   23582892.6684   23582883.601
        45.0004         40.0004
  -2798970.26047  -2142622.36646  24272263.5514   24272268.6594   24272261.499
        44.0004         40.0004
  -6979166.34748  -5418476.80247  22598072.4254   22598078.9514   22598073.217
        50.0004         46.0004
  -6845147.48147  -5280580.65546  23655632.3474   23655640.0474   23655633.996
        45.0004         40.0004
 -25157881.04149 -19540553.22948  20391853.8204   20391858.3284   20391854.095
        55.0004         51.0004
  -1290395.70947   -992628.29446  24108484.5014   24108493.8414   24108487.755
        43.0004         39.0004
 -16488841.79348 -12790082.72748  21928657.9424   21928660.7214   21928658.435
        52.0004         48.0004
  -1049741.48848   -810629.79547  22594231.4544   22594239.3044   22594231.068
        50.0004         45.0004
 -20595880.32449 -15976068.29748  20426501.1144   20426507.5234   20426500.568
        57.0004         52.0004
 -12492440.44948  -9726167.82548  21726427.3534   21726430.9134   21726426.452
        53.0004         49.0004
 15  1  1  0  0 23.0000000  0 10G25G17G32G01G20G09G23G06G03G31
  -4199848.68047  -3246194.53946  23582976.0054   23582985.0244   23582975.979
        45.0004         40.0004
  -2796116.36247  -2140398.55246  24272806.8754   24272811.7254   24272804.537
        44.0004         40.0004
  -6976065.73648  -5416060.74047  22598663.5214   22598669.3954   22598663.234
        50.0004         46.0004
  -6841436.30347  -5277688.82746  23656339.1634   23656346.5464   23656340.399
        45.0004         40.0004
 -25158587.64549 -19541103.82848  20391719.3744   20391723.9314   20391719.661
        55.0004         51.0004
  -1294104.44047   -995518.20646  24107778.8944   24107787.9854   24107781.665
        43.0004         39.0004
 -16491481.23848 -12792139.43048  21928155.9004   21928158.4044   21928156.227
        52.0004         48.0004
  -1052029.37448   -812412.55947  22593796.9394   22593803.7224   22593795.687
        50.0004         45.0004
 -20595084.46649 -15975448.14748  20426652.5194   20426659.1104   20426651.994
        57.0004         52.0004
 -12491569.94048  -9725489.50648  21726593.2204   21726597.2054   21726592.051
        53.0004         49.0004
 15  1  1  0  0 24.0000000  0 10G25G17G32G01G20G09G23G06G03G31
  -4199363.54147  -3245816.50946  23583068.2154   23583077.4874   23583068.302
        45.0004         40.0004
  -2793262.05747  -2138174.42146  24273349.5964   24273355.4814   24273347.699
        44.0004         40.0004
  -6972964.77948  -5413644.40647  22599252.3614   22599258.6404   22599253.386
        50.0004         45.0004
  -6837724.82947  -5274796.76946  23657045.6054   23657053.5254   23657046.705
        45.0004         40.0004
 -25159293.57149 -19541653.89948  20391584.8134   20391589.5214   20391585.364
        55.0004         51.0004
  -1297812.96447   -998407.95846  24107073.4824   24107082.3904   24107075.677
        43.0004         39.0004
 -16494120.23948 -12794195.78948  21927653.5664   21927656.1914   21927654.077
        52.0004         48.0004
  -1054316.64148   -814194.84347  22593360.9974   22593368.7104   22593360.496
        50.0004         45.0004
 -20594287.96949 -15974827.50048  20426804.1564   20426810.5494   20426803.559
        57.0004         52.0004
 -12490698.67648  -9724810.60048  21726758.6934   21726762.4194   21726757.860
        53.0004         49.0004
 15  1  1  0  0 25.0000000  0 10G25G17G32G01G20G09G23G06G03G31
  -4198877.90947  -3245438.09446  23583160.9654   23583169.5634   23583160.923
        45.0004         40.0004
  -2790407.65747  -2135950.21546  24273892.9694   24273898.6634   24273890.952
        44.0004         40.0004
  -6969863.74548  -5411228.01647  22599842.6234   22599849.2404   22599843.412
        50.0004         46.0004
  -6834013.37847  -5271904.73046  23657751.9924   23657760.3424   23657753.120
        45.0004         40.0004
 -25159999.10049 -19542203.66248  20391450.6434   20391455.2214   20391451.202
        55.0004         51.0004
  -1301521.54347  -1001297.75246  24106368.0414   24106376.8114   24106369.727
        43.0004         39.0004
 -16496759.08448 -12796252.03048  21927151.3364   21927153.5194   21927151.846
        52.0004         48.0004
  -1056603.59748   -815976.88447  22592925.3934   22592934.2984   22592925.363
        50.0004         45.0004
 -20593491.09149 -15974206.55948  20426955.9134   20426962.3014   20426955.168
        57.0004         52.0004
 -12489826.95448  -9724131.33748  21726924.9194   21726928.4454   21726923.789
        53.0004         49.0004
 15  1  1  0  0 26.0000000  0 10G25G17G32G01G20G09G23G06G03G31
  -4198391.49947  -3245059.07046  23583253.7754   23583261.8594   23583253.445
        45.0004         40.0004
  -2787552.83747  -2133725.68146  24274436.1474   24274441.4344   24274434.253
        44.0004         40.0004
  -6966762.36248  -5408811.35747  22600433.3604   22600440.4644   22600433.465
        50.0004         46.0004
  -6830301.64747  -5269012.46946  23658458.5934   23658465.7824   23658459.140
        45.0004         40.0004
 -25160703.95949 -19542752.90348  20391316.6044   20391321.0174   20391317.108
        55.0004         51.0004
  -1305229.92247  -1004187.39046  24105662.3904   24105670.8534   24105663.496
        43.0004         39.0004
 -16499397.48648 -12798307.92248  21926649.3654   21926651.9624   21926649.775
        52.0004         48.0004
  -1058889.95148   -817758.45647  22592491.0854   22592498.0334   22592490.353
        50.0004         45.0004
 -20592693.57149 -15973585.11348  20427107.5874   20427114.1094   20427106.961
        57.0004         52.0004
 -12488954.48348  -9723451.48948  21727090.6524   21727094.5884   21727089.916
        53.0004         49.0004
 15  1  1  0  0 27.0000000  0 10G25G17G32G01G20G09G23G06G03G31
  -4197904.09347  -3244679.27246  23583346.8694   23583354.8084   23583346.231
        45.0004         40.0004
  -2784697.37947  -2131500.65246  24274979.5994   24274985.1114   24274977.372
        44.0004         40.0004
  -6963660.40348  -5406394.24347  22601023.4314   22601029.8524   22601023.518
        50.0004         46.0004
  -6826589.41347  -5266119.81846  23659165.2744   23659172.0354   23659165.318
        45.0004         40.0004
 -25161407.91249 -19543301.43748  20391182.9534   20391187.2914   20391183.197
        55.0004         51.0004
  -1308937.86847  -1007076.69046  24104956.3294   24104965.6474   24104957.275
        43.0004         39.0004
 -16502035.22948 -12800363.30148  21926147.4704   21926150.1994   21926147.836
        52.0004         48.0004
  -1061175.47748   -819539.38747  22592055.8034   22592064.3514   22592055.569
        50.0004         45.0004
 -20591895.16649 -15972962.98148  20427259.6204   20427265.8384   20427258.887
        57.0004         52.0004
 -12488081.05648  -9722770.89548  21727257.2064   21727260.6094   21727256.216
        53.0004         49.0004
 15  1  1  0  0 28.0000000  0 10G25G17G32G01G20G09G23G06G03G31
  -4197416.53647  -3244299.35946  23583438.1874   23583447.6324   23583438.681
        45.0004         40.0004
  -2781842.12547  -2129275.78246  24275522.4314   24275528.6304   24275520.566
        44.0004         40.0004
  -6960558.73848  -5403977.36447  22601613.5154   22601619.9894   22601613.574
        50.0004         46.0004
  -6822877.51447  -5263227.43046  23659870.0254   23659878.8114   23659871.477
        45.0004         40.0004
 -25162111.83149 -19543849.94848  20391048.5594   20391053.0254   20391049.362
        55.0004         51.0004
  -1312646.18247  -1009966.27846  24104250.4964   24104260.4184   24104251.003
        44.0004         39.0004
 -16504673.15848 -12802418.82848  21925645.2904   21925648.3634   21925645.798
        52.0004         48.0004
  -1063461.04448   -821320.35147  22591621.3094   22591628.1964   22591620.801
        50.0004         45.0004
 -20591096.75149 -15972340.84048  20427411.4424   20427418.0464   20427410.858
        57.0004         52.0004
 -12487207.50748  -9722090.20648  21727422.8464   21727427.4824   21727422.646
        53.0004         49.0004
 15  1  1  0  0 29.0000000  0 10G25G17G32G01G20G09G23G06G03G31
  -4196928.63847  -3243919.17646  23583531.3264   23583539.7864   23583531.470
        45.0004         40.0004
  -2778986.89147  -2127050.92746  24276065.9244   24276071.8534   24276063.801
        44.0004         40.0004
  -6957457.15448  -5401560.53947  22602203.2354   22602210.6904   22602203.637
        50.0004         46.0004
  -6819165.74847  -5260335.14746  23660576.0334   23660585.1704   23660577.516
        45.0004         40.0004
 -25162815.49349 -19544398.25448  20390914.7724   20390919.4744   20390915.514
        55.0004         51.0004
  -1316354.72147  -1012856.04346  24103544.9034   24103555.3614   24103544.556
        44.0004         39.0004
 -16507311.07548 -12804474.34348  21925143.6964   21925146.2234   21925143.769
        52.0004         48.0004
  -1065746.42248   -823101.16247  22591185.7374   22591193.8594   22591185.909
        50.0004         45.0004
 -20590298.10149 -15971718.51348  20427563.3284   20427569.8444   20427562.896
        57.0004         52.0004
 -12486333.64448  -9721409.26948  21727589.6824   21727593.3364   21727589.133
        53.0004         49.0004
 15  1  1  0  0 30.0000000  0 10G25G17G32G01G20G09G23G06G03G31
  -4196439.97047  -3243538.39846  23583624.5914   23583632.6904   23583624.297
        45.0004         40.0004
  -2776131.25847  -2124825.76046  24276609.2764   24276615.1194   24276607.093
        44.0004         40.0004
  -6954355.22248  -5399143.45847  22602793.9264   22602800.2054   22602793.698
        50.0004         46.0004
  -6815453.74247  -5257442.67646  23661282.2134   23661291.7224   23661283.510
        45.0004         40.0004
 -25163518.48749 -19544946.04148  20390780.9464   20390785.6154   20390781.695
        55.0004         51.0004
  -1320063.06247  -1015745.64946  24102839.4704   24102849.8044   24102838.563
        44.0004         39.0004
 -16509948.56248 -12806529.52748  21924641.8594   21924644.3924   21924641.805
        52.0004         48.0004
  -1068031.21648   -824881.52047  22590750.2864   22590759.1314   22590751.039
        50.0004         45.0004
 -20589498.81749 -15971095.69548  20427715.4944   20427722.1294   20427715.024
        57.0004         52.0004
 -12485459.04948  -9720727.76448  21727755.8784   21727759.7074   21727755.699
        53.0004         49.0004
 15  1  1  0  0 31.0000000  0 10G25G17G32G01G20G09G23G06G03G31
  -4195950.49147  -3243156.98546  23583717.2314   23583725.6314   23583717.127
        45.0004         40.0004
  -2773275.15947  -2122600.23246  24277151.8844   24277159.2754   24277150.382
        44.0004         40.0004
  -6951252.90448  -5396726.07247  22603384.3524   22603390.9764   22603384.005
        50.0004         45.0004
  -6811741.41547  -5254549.95746  23661988.2654   23661999.1264   23661989.708
        45.0004         40.0004
 -25164220.76049 -19545493.26648  20390647.2744   20390651.8424   20390648.155
        55.0004         51.0004
  -1323771.16447  -1018635.07146  24102134.4964   24102144.4514   24102132.731
        44.0004         39.0004
 -16512585.57548 -12808584.33648  21924140.0414   21924142.8444   21924139.878
        52.0004         48.0004
  -1070315.36748   -826661.37647  22590316.6134   22590324.4924   22590316.276
        50.0004         45.0004
 -20588698.83349 -15970472.33248  20427867.6384   20427874.1394   20427867.213
        57.0004         52.0004
 -12484583.66248  -9720045.64448  21727922.6444   21727926.5124   21727922.386
        53.0004         49.0004
 15  1  1  0  0 32.0000000  0 10G25G17G32G01G20G09G23G06G03G31
  -4195460.22247  -3242774.95746  23583810.0964   23583818.7534   23583810.072
        44.0004         40.0004
  -2770418.66847  -2120374.39646  24277696.1414   24277703.5214   24277693.966
        44.0004         40.0004
  -6948150.24148  -5394308.41047  22603975.3474   22603982.1214   22603974.497
        50.0004         45.0004
  -6808028.78047  -5251657.00046  23662694.6684   23662705.7544   23662695.936
        45.0004         40.0004
 -25164922.35349 -19546039.96148  20390513.9424   20390518.3514   20390514.636
        55.0004         51.0004
  -1327479.01947  -1021524.30046  24101428.6474   24101438.5104   24101426.841
        44.0004         39.0004
 -16515222.12948 -12810638.78748  21923638.4234   21923640.9414   21923638.103
        52.0004         48.0004
  -1072598.90648   -828440.75147  22589881.5144   22589889.5324   22589881.653
        50.0004         45.0004
 -20587898.18549 -15969848.44748  20428020.2394   20428026.6324   20428019.561
        57.0004         52.0004
 -12483707.53448  -9719362.94548  21728089.1884   21728093.2834   21728089.227
        53.0004         49.0004
 15  1  1  0  0 33.0000000  0 10G25G17G32G01G20G09G23G06G03G31
  -4194968.95747  -3242392.14946  23583904.2804   23583912.2574   23583903.323
        44.0004         40.0004
  -2767561.50847  -2118148.04046  24278240.0094   24278247.1114   24278237.718
        44.0004         40.0004
  -6945046.98748  -5391890.29147  22604565.6174   22604571.6644   22604565.089
        50.0004         46.0004
  -6804315.63047  -5248763.64346  23663402.2264   23663412.3954   23663402.300
        45.0004         40.0004
 -25165623.03049 -19546585.94448  20390380.4304   20390384.9924   20390381.321
        55.0004         51.0004
  -1331186.42547  -1024413.17646  24100723.1704   24100733.3224   24100720.835
        44.0004         39.0004
 -16517858.01048 -12812692.71648  21923136.7644   21923139.2714   21923136.516
        52.0004         48.0004
  -1074881.60948   -830219.48547  22589446.4824   22589455.5724   22589447.178
        50.0004         45.0004
 -20587096.65349 -15969223.87848  20428172.8494   20428179.1274   20428172.119
        57.0004         52.0004
 -12482830.41948  -9718679.47848  21728256.3254   21728259.7524   21728256.283
        53.0004         49.0004
 15  1  1  0  0 34.0000000  0 10G25G17G32G01G20G09G23G06G03G31
  -4194476.90147  -3242008.72946  23583997.5454   23584006.1604   23583996.904
        44.0004         40.0004
  -2764703.97447  -2115921.39246  24278784.0404   24278790.7054   24278781.548
        44.0004         40.0004
  -6941943.38848  -5389471.90247  22605155.7914   22605162.0734   22605155.914
        50.0004         46.0004
  -6800602.18947  -5245870.05746  23664108.4924   23664118.7274   23664108.620
        45.0004         40.0004
 -25166323.02449 -19547131.39548  20390247.2444   20390251.8914   20390248.105
        55.0004         51.0004
  -1334893.59947  -1027301.87446  24100017.4674   24100027.8284   24100015.243
        44.0004         39.0004
 -16520493.45248 -12814746.30548  21922635.3744   21922637.9164   21922634.973
        52.0004         48.0004
  -1077163.71548   -831997.74847  22589012.5474   22589020.6244   22589012.751
        50.0004         45.0004
 -20586294.46849 -15968598.79848  20428325.3594   20428331.8634   20428324.776
        57.0004         52.0004
 -12481952.56248  -9717995.43648  21728423.3224   21728426.5864   21728423.474
        53.0004         49.0004
 15  1  1  0  0 35.0000000  0 10G25G17G32G01G20G09G23G06G03G31
  -4193983.47347  -3241624.23846  23584091.7964   23584100.8294   23584090.848
        44.0004         40.0004
  -2761845.38747  -2113693.92346  24279327.7384   24279334.5164   24279325.178
        44.0004         40.0004
  -6938838.84348  -5387052.77447  22605746.3854   22605752.9464   22605747.051
        50.0004         46.0004
  -6796887.89247  -5242975.80646  23664815.5914   23664825.5324   23664815.412
        45.0004         40.0004
 -25167021.73649 -19547675.84348  20390114.5784   20390118.9774   20390115.129
        55.0004         51.0004
  -1338599.97247  -1030189.94846  24099312.7514   24099322.9414   24099310.063
        44.0004         39.0004
 -16523127.85548 -12816799.08148  21922133.4994   21922136.4634   21922133.654
        52.0004         48.0004
  -1079444.61648   -833775.07147  22588578.2014   22588586.6684   22588578.537
        50.0004         45.0004
 -20585491.02749 -15967972.73848  20428478.1664   20428484.5884   20428477.736
        57.0004         52.0004
 -12481073.35948  -9717310.34048  21728590.3514   21728594.2934   21728590.965
        53.0004         49.0004
 15  1  1  0  0 36.0000000  0 10G25G17G32G01G20G09G23G06G03G31
  -4193489.18047  -3241239.07346  23584186.0224   23584194.7104   23584184.766
        44.0004         40.0004
  -2758986.28247  -2111466.05146  24279871.6844   24279878.9274   24279869.012
        44.0004         40.0004
  -6935733.84148  -5384633.28947  22606337.5524   22606344.0194   22606338.222
        50.0004         46.0004
  -6793173.19947  -5240081.25046  23665522.7794   23665532.6394   23665522.369
        45.0004         40.0004
 -25167719.66949 -19548219.68848  20389981.5544   20389985.8754   20389982.389
        55.0004         51.0004
  -1342306.00947  -1033077.76146  24098607.5834   24098617.5244   24098604.848
        44.0004         39.0004
 -16525761.70948 -12818851.43448  21921632.5614   21921634.9374   21921632.501
        52.0004         48.0004
  -1081724.80948   -835551.84447  22588145.0514   22588153.0124   22588144.321
        50.0004         45.0004
 -20584686.83649 -15967346.09848  20428631.2704   20428637.7724   20428630.782
        57.0004         52.0004
 -12480193.31348  -9716624.58948  21728758.2704   21728761.7314   21728758.521
        53.0004         49.0004
 15  1  1  0  0 37.0000000  0 10G25G17G32G01G20G09G23G06G03G31
  -4192994.48747  -3240853.59746  23584279.9684   23584288.5294   23584279.112
        44.0004         40.0004
  -2756127.12847  -2109238.14046  24280416.0774   24280422.9704   24280413.042
        44.0004         40.0004
  -6932628.86748  -5382213.82847  22606928.6614   22606934.1884   22606929.300
        50.0004         45.0004
  -6789458.59347  -5237186.75746  23666229.1494   23666239.7484   23666229.180
        45.0004         40.0004
 -25168417.30249 -19548763.29848  20389848.7944   20389853.2124   20389849.587
        55.0004         51.0004
  -1346012.21147  -1035965.70046  24097902.9204   24097912.7694   24097900.216
        44.0004         39.0004
 -16528395.49848 -12820903.73248  21921131.7854   21921133.8744   21921131.320
        53.0004         48.0004
  -1084004.78548   -837328.44847  22587711.4084   22587718.3734   22587710.247
        50.0004         45.0004
 -20583882.37449 -15966719.24548  20428784.3864   20428790.8684   20428783.843
        57.0004         52.0004
 -12479312.91148  -9715938.56348  21728925.5084   21728929.0974   21728926.108
        53.0004         49.0004
 15  1  1  0  0 38.0000000  0 10G25G17G32G01G20G09G23G06G03G31
  -4192498.63847  -3240467.21746  23584373.8364   23584382.9044   23584373.772
        44.0004         40.0004
  -2753267.20147  -2107009.62746  24280960.4404   24280967.0884   24280957.578
        44.0004         40.0004
  -6929523.18348  -5379793.80847  22607519.8044   22607526.4684   22607520.427
        50.0004         45.0004
  -6785743.36047  -5234291.77846  23666936.7524   23666946.7694   23666936.121
        45.0004         40.0004
 -25169113.88149 -19549306.08348  20389716.3694   20389720.9174   20389716.988
        55.0004         51.0004
  -1349717.84647  -1038853.19746  24097197.5204   24097207.6554   24097195.353
        44.0004         39.0004
 -16531028.47348 -12822955.39548  21920630.2594   21920633.1254   21920630.267
        53.0004         48.0004
  -1086283.78048   -839104.28847  22587276.8014   22587284.9314   22587276.281
        50.0004         45.0004
 -20583076.88049 -15966091.58448  20428937.7144   20428944.1524   20428937.056
        57.0004         52.0004
 -12478431.38348  -9715251.65548  21729093.1254   21729096.7274   21729093.860
        53.0004         49.0004
 15  1  1  0  0 39.0000000  0 10G25G17G32G01G20G09G23G06G03G31
  -4192002.35447  -3240080.49846  23584468.1504   23584477.0564   23584468.152
        44.0004         40.0004
  -2750407.24347  -2104781.09246  24281503.9584   24281511.4894   24281501.703
        44.0004         40.0004
  -6926417.48948  -5377373.79247  22608110.4044   22608116.6514   22608111.371
        50.0004         46.0004
  -6782028.17747  -5231396.83646  23667644.0724   23667654.0254   23667643.499
        45.0004         40.0004
 -25169810.13449 -19549848.61848  20389583.8994   20389588.4484   20389584.388
        55.0004         51.0004
  -1353423.56947  -1041740.76746  24096492.3234   24096502.2614   24096490.445
        44.0004         39.0004
 -16533661.35648 -12825006.98948  21920129.5094   21920131.9724   21920129.371
        53.0004         48.0004
  -1088562.50048   -840879.91647  22586843.3124   22586851.9644   22586842.381
        50.0004         45.0004
 -20582271.08349 -15965463.69248  20429091.0094   20429097.3054   20429090.378
        57.0004         52.0004
 -12477549.46048  -9714564.44348  21729261.5014   21729264.7434   21729261.579
        53.0004         49.0004
 15  1  1  0  0 40.0000000  0 10G25G17G32G01G20G09G23G06G03G31
  -4191505.75147  -3239693.53446  23584563.3734   23584572.1104   23584562.795
        44.0004         40.0004
  -2747547.25747  -2102552.53546  24282048.3384   24282055.4104   24282045.881
        44.0004         40.0004
  -6923311.88548  -5374953.83747  22608701.1314   22608707.8604   22608702.269
        50.0004         45.0004
  -6778313.16847  -5228502.02846  23668351.2454   23668360.3114   23668350.827
        45.0004         40.0004
 -25170506.15149 -19550390.96948  20389451.2024   20389455.8164   20389451.942
        55.0004         51.0004
  -1357129.55547  -1044628.54046  24095787.1334   24095796.5804   24095785.589
        44.0004         39.0004
 -16536294.24548 -12827058.58448  21919627.9794   21919630.9354   21919628.370
        53.0004         48.0004
  -1090841.08748   -842655.43947  22586410.6364   22586417.7054   22586408.428
        50.0004         45.0004
 -20581465.08449 -15964835.63848  20429244.3254   20429250.8114   20429243.699
        57.0004         52.0004
 -12476667.24648  -9713877.00348  21729429.2914   21729432.4604   21729429.244
        53.0004         49.0004
 15  1  1  0  0 41.0000000  0 10G25G17G32G01G20G09G23G06G03G31
  -4191008.40447  -3239305.98846  23584658.3304   23584666.8434   23584657.832
        44.0004         40.0004
  -2744686.93247  -2100323.71346  24282593.0544   24282599.3924   24282590.228
        44.0004         40.0004
  -6920205.98448  -5372533.65547  22609291.7064   22609299.1114   22609293.112
        50.0004         46.0004
  -6774597.91047  -5225607.02946  23669057.4694   23669066.8774   23669057.983
        45.0004         40.0004
 -25171201.51949 -19550932.81448  20389318.8414   20389323.5624   20389319.637
        55.0004         51.0004
  -1360835.34147  -1047516.15946  24095081.7534   24095091.6254   24095080.699
        44.0004         39.0004
 -16538926.72748 -12829109.86648  21919127.1794   21919130.1064   21919127.377
        53.0004         48.0004
  -1093119.10848   -844430.51647  22585976.7124   22585983.6174   22585974.818
        50.0004         45.0004
 -20580658.45849 -15964207.09748  20429397.6444   20429404.3084   20429397.134
        57.0004         52.0004
 -12475784.32648  -9713189.01548  21729596.9094   21729600.8654   21729597.059
        53.0004         49.0004
 15  1  1  0  0 42.0000000  0 10G25G17G32G01G20G09G23G06G03G31
  -4190510.50147  -3238918.00846  23584752.4604   23584760.9514   23584752.530
        44.0004         40.0004
  -2741826.39547  -2098094.72946  24283137.2954   24283143.6064   24283134.580
        44.0004         40.0004
  -6917099.93548  -5370113.35947  22609883.6054   22609889.7024   22609884.016
        50.0004         45.0004
  -6770882.59247  -5222711.97946  23669765.1714   23669773.4534   23669765.187
        45.0004         40.0004
 -25171896.43449 -19551474.30548  20389186.8634   20389191.4534   20389187.411
        55.0004         51.0004
  -1364541.13947  -1050403.78846  24094376.8964   24094386.5314   24094376.050
        44.0004         39.0004
 -16541558.99348 -12831160.98048  21918626.5714   21918628.9024   21918626.397
        53.0004         48.0004
  -1095396.74148   -846205.29247  22585542.4414   22585551.2804   22585541.372
        50.0004         45.0004
 -20579851.40749 -15963578.22848  20429551.5124   20429557.7104   20429550.681
        57.0004         52.0004
 -12474900.88048  -9712500.61548  21729765.5464   21729768.8044   21729764.952
        53.0004         49.0004
 15  1  1  0  0 43.0000000  0 10G25G17G32G01G20G09G23G06G03G31
  -4190012.32447  -3238529.81946  23584847.7424   23584856.6864   23584847.543
        44.0004         40.0004
  -2738966.00247  -2095865.85746  24283681.3234   24283687.7464   24283678.812
        44.0004         40.0004
  -6913994.05048  -5367693.19147  22610474.3814   22610480.9444   22610474.921
        50.0004         46.0004
  -6767167.49647  -5219817.10546  23670471.8234   23670480.7714   23670472.184
        45.0004         40.0004
 -25172591.17249 -19552015.66148  20389054.7824   20389059.1024   20389055.276
        55.0004         51.0004
  -1368247.23447  -1053291.64846  24093671.4864   24093681.2804   24093670.894
        44.0004         39.0004
 -16544191.31148 -12833212.13448  21918125.1464   21918128.1074   21918125.472
        53.0004         48.0004
  -1097674.27248   -847979.99047  22585109.8014   22585117.8314   22585107.775
        50.0004         45.0004
 -20579044.20949 -15962949.24448  20429704.9284   20429711.5334   20429704.244
        57.0004         52.0004
 -12474017.18748  -9711812.02448  21729933.4154   21729936.8704   21729932.921
        53.0004         49.0004
 15  1  1  0  0 44.0000000  0 10G25G17G32G01G20G09G23G06G03G31
  -4189513.58847  -3238141.19246  23584942.8044   23584951.1344   23584942.688
        44.0004         40.0004
  -2736105.35147  -2093636.78246  24284225.4824   24284231.6144   24284223.036
        44.0004         40.0004
  -6910888.02748  -5365272.91947  22611065.8714   22611071.7794   22611065.938
        50.0004         46.0004
  -6763452.32147  -5216922.16846  23671178.5064   23671188.5364   23671179.357
        45.0004         40.0004
 -25173285.43949 -19552556.64648  20388922.2154   20388927.3174   20388923.259
        55.0004         51.0004
  -1371953.28347  -1056179.47246  24092965.7034   24092975.9134   24092965.807
        44.0004         39.0004
 -16546823.39048 -12835263.09748  21917624.4674   21917627.2484   21917624.559
        53.0004         48.0004
  -1099951.40248   -849754.37347  22584676.5654   22584684.6684   22584674.360
        50.0004         45.0004
 -20578236.55849 -15962319.90448  20429858.7104   20429865.1684   20429857.904
        57.0004         52.0004
 -12473132.96848  -9711123.02048  21730101.5404   21730105.2764   21730101.055
        53.0004         49.0004
 15  1  1  0  0 45.0000000  0 10G25G17G32G01G20G09G23G06G03G31
  -4189013.61147  -3237751.59446  23585038.3444   23585045.2984   23585038.140
        44.0004         40.0004
  -2733243.81847  -2091407.01946  24284770.5734   24284776.6004   24284767.841
        44.0004         40.0004
  -6907781.18848  -5362852.00247  22611657.1354   22611662.7544   22611657.318
        50.0004         46.0004
  -6759736.41447  -5214026.66146  23671885.5844   23671895.0604   23671886.428
        45.0004         40.0004
 -25173978.56949 -19553096.74648  20388790.5824   20388795.1974   20388791.395
        55.0004         51.0004
  -1375658.69247  -1059066.79746  24092260.1414   24092270.7264   24092260.594
        44.0004         39.0004
 -16549454.57148 -12837313.36248  21917123.8744   21917126.6084   21917123.743
        53.0004         48.0004
  -1102227.48148   -851527.94047  22584242.8024   22584251.0084   22584241.207
        50.0004         45.0004
 -20577427.80649 -15961689.70548  20430012.6594   20430019.2114   20430011.816
        57.0004         52.0004
 -12472247.53948  -9710433.07548  21730270.0824   21730273.7324   21730269.455
        53.0004         49.0004
 15  1  1  0  0 46.0000000  0 10G25G17G32G01G20G09G23G06G03G31
  -4188512.57447  -3237361.17346  23585133.8324   23585141.6824   23585133.818
        44.0004         40.0004
  -2730381.61647  -2089176.73446  24285314.8984   24285321.5344   24285312.531
        44.0004         40.0004
  -6904673.70748  -5360430.58347  22612247.8424   22612254.4664   22612249.009
        50.0004         46.0004
  -6756019.91447  -5211130.68946  23672592.8114   23672602.1484   23672593.451
        45.0004         40.0004
 -25174670.71449 -19553636.08348  20388658.9084   20388663.5344   20388659.693
        55.0004         51.0004
  -1379363.52747  -1061953.67346  24091555.4324   24091565.2244   24091555.537
        44.0004         39.0004
 -16552085.00048 -12839363.04448  21916623.4004   21916625.9734   21916623.118
        53.0004         48.0004
  -1104502.63648   -853300.79247  22583810.7144   22583818.6354   22583808.173
        50.0004         45.0004
 -20576618.08549 -15961058.75648  20430166.7274   20430173.0624   20430165.897
        57.0004         52.0004
 -12471361.05948  -9709742.31348  21730439.1254   21730442.3124   21730438.103
        53.0004         49.0004
 15  1  1  0  0 47.0000000  0 10G25G17G32G01G20G09G23G06G03G31
  -4188011.01647  -3236970.34746  23585229.0004   23585237.1774   23585229.467
        44.0004         40.0004
  -2727519.24047  -2086946.31746  24285859.2904   24285865.9604   24285857.273
        44.0004         40.0004
  -6901566.14548  -5358009.10247  22612838.8954   22612845.3734   22612840.581
        50.0004         45.0004
  -6752303.40947  -5208234.71346  23673299.9214   23673310.0754   23673300.476
        45.0004         40.0004
 -25175362.45849 -19554175.10448  20388527.0574   20388531.7664   20388527.958
        55.0004         51.0004
  -1383068.46947  -1064840.63546  24090850.5494   24090860.1574   24090850.550
        44.0004         39.0004
 -16554715.26448 -12841412.59548  21916122.4334   21916125.4464   21916122.548
        53.0004         48.0004
  -1106777.46648   -855073.38647  22583377.1144   22583385.0304   22583375.343
        50.0004         45.0004
 -20575807.98649 -15960427.50848  20430320.8694   20430327.2754   20430320.029
        57.0004         52.0004
 -12470474.10948  -9709051.18148  21730607.6084   21730611.1954   21730606.831
        53.0004         49.0004
 15  1  1  0  0 48.0000000  0 10G25G17G32G01G20G09G23G06G03G31
  -4187509.13147  -3236579.26646  23585323.6824   23585331.9344   23585324.967
        44.0004         40.0004
  -2724656.92747  -2084715.94946  24286404.6174   24286411.6194   24286402.201
        44.0004         40.0004
  -6898458.69748  -5355587.71847  22613430.5994   22613437.6304   22613431.976
        50.0004         46.0004
  -6748587.09147  -5205338.88746  23674007.1864   23674017.3184   23674007.604
        45.0004         40.0004
 -25176053.98449 -19554713.95448  20388395.5334   20388400.4204   20388396.307
        55.0004         51.0004
  -1386773.62547  -1067727.76446  24090145.0734   24090154.9584   24090145.284
        44.0004         39.0004
 -16557345.54648 -12843462.16448  21915621.9554   21915624.4694   21915621.987
        53.0004         48.0004
  -1109052.15848   -856845.87147  22582944.4934   22582952.3774   22582942.419
        50.0004         45.0004
 -20574997.69549 -15959796.11448  20430475.1224   20430481.3244   20430474.223
        57.0004         52.0004
 -12469586.86848  -9708359.82548  21730776.4854   21730779.7104   21730775.551
        53.0004         49.0004
 15  1  1  0  0 49.0000000  0 10G25G17G32G01G20G09G23G06G03G31
  -4187006.63247  -3236187.70746  23585419.7954   23585427.3944   23585420.812
        44.0004         40.0004
  -2721794.31147  -2082485.34546  24286948.8664   24286956.9334   24286946.928
        44.0004         40.0004
  -6895351.03748  -5353166.16247  22614022.5714   22614028.2994   22614023.375
        50.0004         45.0004
  -6744870.63047  -5202442.94846  23674714.0514   23674723.7364   23674714.565
        45.0004         40.0004
 -25176744.97549 -19555252.38948  20388264.0064   20388268.8514   20388264.841
        55.0004         51.0004
  -1390478.70447  -1070614.82846  24089440.1054   24089449.5604   24089440.231
        44.0004         39.0004
 -16559975.51948 -12845511.48948  21915121.4084   21915124.3644   21915121.493
        53.0004         48.0004
  -1111326.38048   -858617.99247  22582512.5354   22582519.8414   22582509.773
        50.0004         45.0004
 -20574186.89449 -15959164.31948  20430629.6084   20430635.6944   20430628.529
        57.0004         52.0004
 -12468699.02648  -9707667.99648  21730945.3344   21730948.9054   21730944.434
        53.0004         49.0004
 15  1  1  0  0 50.0000000  0 10G25G17G32G01G20G09G23G06G03G31
  -4186503.47547  -3235795.63246  23585515.4354   23585523.3374   23585516.628
        44.0004         40.0004
  -2718931.43947  -2080254.54146  24287493.4824   24287502.2084   24287491.957
        44.0004         40.0004
  -6892243.16748  -5350744.44747  22614612.8954   22614619.9714   22614614.725
        50.0004         45.0004
  -6741154.00447  -5199546.87646  23675420.9494   23675429.9484   23675421.362
        45.0004         40.0004
 -25177435.41849 -19555790.39648  20388132.7254   20388137.5294   20388133.475
        55.0004         51.0004
  -1394183.71847  -1073501.84446  24088735.2454   24088744.5354   24088735.303
        44.0004         39.0004
 -16562605.18048 -12847560.57248  21914621.2814   21914624.0934   21914621.130
        53.0004         48.0004
  -1113600.13448   -860389.74247  22582078.4584   22582087.5374   22582077.199
        50.0004         45.0004
 -20573375.57749 -15958532.12448  20430783.7994   20430790.0014   20430782.931
        57.0004         52.0004
 -12467810.57648  -9706975.69348  21731114.2614   21731118.0514   21731113.456
        53.0004         49.0004
 15  1  1  0  0 51.0000000  0 10G25G17G32G01G20G09G23G06G03G31
  -4185999.71147  -3235403.08646  23585611.5754   23585619.5544   23585612.425
        44.0004         40.0004
  -2716068.32647  -2078023.55046  24288038.0514   24288046.9224   24288036.823
        44.0004         40.0004
  -6889135.11448  -5348322.58647  22615205.1184   22615210.9974   22615206.273
        50.0004         45.0004
  -6737437.27347  -5196650.72246  23676127.4684   23676137.7884   23676128.409
        45.0004         40.0004
 -25178125.34349 -19556327.99948  20388001.2334   20388005.8314   20388002.203
        55.0004         51.0004
  -1397888.68347  -1076388.82446  24088030.7544   24088039.4794   24088030.379
        44.0004         39.0004
 -16565234.57648 -12849609.44548  21914120.6234   21914124.2244   21914120.890
        53.0004         48.0004
  -1115873.46248   -862161.16547  22581646.7584   22581654.0854   22581644.599
        50.0004         45.0004
 -20572563.77349 -15957899.54848  20430938.3224   20430944.5994   20430937.455
        57.0004         52.0004
 -12466921.54648  -9706282.94048  21731283.7494   21731287.1684   21731282.627
        53.0004         49.0004
 15  1  1  0  0 52.0000000  0 10G25G17G32G01G20G09G23G06G03G31
  -4185495.07247  -3235009.85746  23585706.6174   23585715.7964   23585708.315
        44.0004         40.0004
  -2713204.68247  -2075792.14446  24288583.0864   24288591.8864   24288581.516
        44.0004         40.0004
  -6886026.60048  -5345900.36147  22615795.9284   22615803.3674   22615797.830
        50.0004         45.0004
  -6733720.15247  -5193754.26546  23676835.3024   23676845.4754   23676835.295
        45.0004         40.0004
 -25178814.48849 -19556864.99648  20387870.3754   20387875.1664   20387871.085
        55.0004         51.0004
  -1401593.28147  -1079275.51646  24087325.9154   24087334.9544   24087325.428
        44.0004         39.0004
 -16567863.41248 -12851657.88348  21913620.7834   21913623.4054   21913620.669
        53.0004         48.0004
  -1118146.06248   -863932.02447  22581214.1734   22581222.0484   22581212.364
        50.0004         45.0004
 -20571751.20249 -15957266.37548  20431092.8004   20431099.2364   20431092.070
        57.0004         52.0004
 -12466031.66248  -9705589.52248  21731453.2874   21731456.4844   21731452.051
        53.0004         49.0004
 15  1  1  0  0 53.0000000  0 10G25G17G32G01G20G09G23G06G03G31
  -4184989.74847  -3234616.09646  23585803.1734   23585811.8924   23585804.491
        44.0004         40.0004
  -2710340.73647  -2073560.50646  24289128.2874   24289137.0004   24289126.700
        44.0004         40.0004
  -6882917.84848  -5343477.95247  22616388.4514   22616394.3364   22616389.511
        50.0004         45.0004
  -6730002.88547  -5190857.69846  23677542.5014   23677552.3494   23677542.252
        45.0004         40.0004
 -25179503.05249 -19557401.53848  20387739.2294   20387744.0534   20387740.052
        55.0004         51.0004
  -1405297.78947  -1082162.13746  24086620.9134   24086630.3654   24086620.628
        44.0004         39.0004
 -16570491.91148 -12853706.05848  21913120.6984   21913123.3854   21913120.635
        53.0004         48.0004
  -1120418.17348   -865702.49447  22580781.8004   22580789.5044   22580780.119
        50.0004         45.0004
 -20570938.08949 -15956632.77948  20431247.6454   20431253.7754   20431246.793
        57.0004         52.0004
 -12465141.13848  -9704895.60748  21731622.1964   21731625.9344   21731621.553
        53.0004         49.0004
 15  1  1  0  0 54.0000000  0 10G25G17G32G01G20G09G23G06G03G31
  -4184482.98147  -3234221.20746  23585900.0584   23585908.2314   23585900.934
        44.0004         40.0004
  -2707475.71747  -2071328.03046  24289674.1814   24289682.2554   24289672.036
        44.0004         40.0004
  -6879808.06948  -5341054.74747  22616979.9794   22616985.8874   22616981.386
        50.0004         45.0004
  -6726284.63247  -5187960.35546  23678250.3244   23678258.3654   23678249.317
        45.0004         40.0004
 -25180190.26549 -19557937.02748  20387608.4644   20387612.9834   20387609.295
        55.0004         51.0004
  -1409001.40547  -1085048.06246  24085916.5194   24085925.6954   24085916.139
        44.0004         39.0004
 -16573119.28948 -12855753.35948  21912620.7064   21912623.6474   21912620.741
        53.0004         48.0004
  -1122689.00048   -867471.96447  22580350.2054   22580357.8724   22580348.289
        50.0004         45.0004
 -20570123.64249 -15955998.14348  20431402.4624   20431408.8984   20431401.828
        57.0004         52.0004
 -12464249.19448  -9704200.58748  21731792.6094   21731795.8954   21731791.352
        53.0004         49.0004
 15  1  1  0  0 55.0000000  0 10G25G17G32G01G20G09G23G06G03G31
  -4183975.57447  -3233825.82446  23585996.7684   23586004.4404   23585997.379
        44.0004         40.0004
  -2704610.36547  -2069095.29746  24290219.6154   24290226.8244   24290217.140
        44.0004         40.0004
  -6876698.06048  -5338631.37047  22617571.4614   22617578.9994   22617573.321
        50.0004         45.0004
  -6722566.22247  -5185062.89646  23678959.1834   23678966.7744   23678956.582
        45.0004         40.0004
 -25180876.91449 -19558472.08248  20387477.6524   20387482.4644   20387478.642
        55.0004         51.0004
  -1412704.90747  -1087933.90046  24085211.6004   24085221.0264   24085211.583
        44.0004         39.0004
 -16575746.34548 -12857800.41548  21912120.5524   21912123.1274   21912120.912
        53.0004         48.0004
  -1124959.32648   -869241.05747  22579917.6804   22579925.3374   22579916.456
        50.0004         45.0004
 -20569308.66349 -15955363.09648  20431557.6104   20431563.9844   20431556.961
        57.0004         52.0004
 -12463356.63048  -9703505.08248  21731962.0694   21731965.3274   21731961.356
        53.0004         49.0004
 15  1  1  0  0 56.0000000  0 10G25G17G32G01G20G09G23G06G03G31
  -4183467.86847  -3233430.20846  23586093.6614   23586101.4554   23586094.153
        44.0004         40.0004
  -2701745.12247  -2066862.64846  24290764.9844   24290772.1654   24290762.391
        44.0004         40.0004
  -6873588.18048  -5336208.08847  22618163.6154   22618169.5864   22618165.124
        50.0004         45.0004
  -6718848.00347  -5182165.58646  23679666.6494   23679674.4494   23679663.903
        44.0004         39.0004
 -25181563.35649 -19559006.97048  20387347.3024   20387351.9094   20387347.985
        55.0004         51.0004
  -1416408.68447  -1090819.95246  24084506.7254   24084516.6344   24084507.191
        44.0004         39.0004
 -16578373.43148 -12859847.49048  21911620.8274   21911623.3524   21911620.984
        53.0004         48.0004
  -1127229.54248   -871010.05047  22579484.2654   22579494.0914   22579484.755
        50.0004         45.0004
 -20568493.49949 -15954727.90248  20431712.7134   20431718.9684   20431712.108
        57.0004         52.0004
 -12462463.79848  -9702809.36748  21732131.6894   21732135.6124   21732131.432
        53.0004         49.0004
 15  1  1  0  0 57.0000000  0 10G25G17G32G01G20G09G23G06G03G31
  -4182959.68147  -3233034.21846  23586190.4094   23586197.0634   23586190.474
        44.0004         40.0004
  -2698879.77447  -2064629.91746  24291309.7914   24291317.0704   24291307.296
        44.0004         40.0004
  -6870478.27448  -5333784.77947  22618754.6354   22618762.1974   22618756.950
        50.0004         45.0004
  -6715129.83347  -5179268.30946  23680373.7874   23680382.2974   23680371.198
        44.0004         39.0004
 -25182249.44049 -19559541.58048  20387216.3134   20387221.3804   20387217.446
        55.0004         51.0004
  -1420112.52147  -1093706.05246  24083802.4294   24083812.0134   24083802.800
        44.0004         39.0004
 -16581000.38848 -12861894.46348  21911120.7444   21911123.6344   21911121.076
        53.0004         48.0004
  -1129499.45348   -872778.80947  22579053.7574   22579061.9364   22579053.131
        50.0004         45.0004
 -20567677.99649 -15954092.44248  20431867.9754   20431874.1694   20431867.320
        57.0004         52.0004
 -12461570.53148  -9702113.31448  21732302.2164   21732305.0254   21732301.537
        53.0004         49.0004
 15  1  1  0  0 58.0000000  0 10G25G17G32G01G20G09G23G06G03G31
  -4182450.82647  -3232637.70946  23586286.8714   23586294.1254   23586287.199
        44.0004         40.0004
  -2696014.10947  -2062396.93846  24291855.0594   24291861.8974   24291852.049
        44.0004         40.0004
  -6867368.12648  -5331361.28847  22619347.1134   22619353.2254   22619348.700
        50.0004         45.0004
  -6711411.49047  -5176370.90446  23681081.7174   23681090.7644   23681078.629
        44.0004         39.0004
 -25182934.95549 -19560075.74648  20387085.9444   20387090.8274   20387086.956
        55.0004         51.0004
  -1423816.25247  -1096592.07146  24083097.7344   24083107.6984   24083098.548
        44.0004         39.0004
 -16583626.99648 -12863941.16348  21910620.9814   21910623.9054   21910621.204
        53.0004         48.0004
  -1131768.85848   -874547.17647  22578622.2844   22578629.5454   22578621.559
        50.0004         45.0004
 -20566861.95549 -15953456.56648  20432023.0984   20432029.4624   20432022.605
        57.0004         52.0004
 -12460676.62348  -9701416.75948  21732472.1984   21732475.6714   21732471.702
        53.0004         49.0004
 15  1  1  0  0 59.0000000  0 10G25G17G32G01G20G09G23G06G03G31
  -4181940.96947  -3232240.41946  23586384.2834   23586390.9804   23586384.076
        44.0004         40.0004
  -2693147.78947  -2060163.44846  24292400.4614   24292406.7904   24292397.163
        44.0004         40.0004
  -6864257.39748  -5328937.34247  22619939.3354   22619945.5704   22619940.750
        50.0004         45.0004
  -6707692.63947  -5173473.09946  23681789.6034   23681797.7994   23681786.291
        44.0004         39.0004
 -25183619.57449 -19560609.21648  20386955.7634   20386960.4704   20386956.632
        55.0004         51.0004
  -1427519.55347  -1099477.75346  24082393.1184   24082402.7104   24082393.918
        44.0004         39.0004
 -16586252.95148 -12865987.35848  21910121.3934   21910123.7334   21910121.497
        53.0004         48.0004
  -1134037.44948   -876314.91447  22578189.9294   22578197.7804   22578190.035
        50.0004         45.0004
 -20566045.04349 -15952820.01248  20432178.5684   20432184.9114   20432178.042
        57.0004         52.0004
 -12459781.76448  -9700719.46348  21732642.2754   21732645.7164   21732642.094
        53.0004         49.0004
 15  1  1  0  1  0.0000000  0 10G25G17G32G01G20G09G23G06G03G31
  -4181430.58847  -3231842.71946  23586481.7854   23586488.4224   23586480.905
        44.0004         40.0004
  -2690281.32047  -2057929.84346  24292945.3364   24292952.0314   24292941.879
        44.0004         40.0004
  -6861146.56248  -5326513.32047  22620530.8704   22620537.8184   22620532.624
        50.0004         45.0004
  -6703973.73247  -5170575.25246  23682495.9174   23682506.1434   23682493.897
        44.0004         40.0004
 -25184303.74849 -19561142.34248  20386825.6464   20386830.2724   20386826.353
        55.0004         51.0004
  -1431222.84647  -1102363.42846  24081688.0984   24081697.8444   24081689.332
        44.0004         39.0004
 -16588878.69548 -12868033.39248  21909621.7894   21909624.5414   21909621.792
        53.0004         48.0004
  -1136305.66248   -878082.35347  22577759.1004   22577765.9704   22577758.733
        50.0004         45.0004
 -20565227.70949 -15952183.13148  20432334.1494   20432340.5874   20432333.558
        57.0004         52.0004
 -12458886.38648  -9700021.77048  21732812.3134   21732816.0874   21732812.544
        53.0004         49.0004
 15  1  1  0  1  1.0000000  0 10G25G17G32G01G20G09G23G06G03G31
  -4180919.42347  -3231444.40646  23586578.7344   23586585.9254   23586578.335
        44.0004         40.0004
  -2687414.45247  -2055695.92846  24293490.7494   24293497.5984   24293486.900
        44.0004         40.0004
  -6858035.38448  -5324089.02247  22621123.4574   22621129.8744   22621124.502
        50.0004         45.0004
  -6700254.54847  -5167677.18746  23683204.2094   23683213.5314   23683201.653
        44.0004         40.0004
 -25184987.24349 -19561674.93448  20386695.5234   20386700.3174   20386696.226
        55.0004         51.0004
  -1434925.97047  -1105248.97446  24080983.3794   24080993.2354   24080984.734
        44.0004         39.0004
 -16591503.99848 -12870079.07548  21909121.6694   21909124.4444   21909122.155
        53.0004         48.0004
  -1138573.28048   -879849.33047  22577327.4254   22577335.0344   22577327.431
        50.0004         45.0004
 -20564409.71449 -15951545.73148  20432489.9704   20432496.0164   20432489.203
        57.0004         52.0004
 -12457990.26948  -9699323.49748  21732983.2234   21732986.4484   21732983.180
        53.0004         49.0004
 15  1  1  0  1  2.0000000  0 10G25G17G32G01G20G09G23G06G03G31
  -4180407.37647  -3231045.40846  23586675.5084   23586683.3104   23586675.603
        44.0004         40.0004
  -2684547.05747  -2053461.59946  24294036.8354   24294043.5714   24294032.228
        44.0004         40.0004
  -6854923.74548  -5321664.36847  22621714.4234   22621721.4634   22621716.512
        50.0004         45.0004
  -6696535.01047  -5164778.85246  23683912.8104   23683920.9844   23683909.548
        44.0004         40.0004
 -25185669.95849 -19562206.91748  20386565.8494   20386570.2704   20386566.254
        55.0004         51.0004
  -1438628.73847  -1108134.24046  24080278.4924   24080288.0244   24080280.046
        44.0004         39.0004
 -16594128.74548 -12872124.32748  21908622.7894   21908625.4244   21908622.686
        53.0004         48.0004
  -1140840.17848   -881615.74247  22576895.2044   22576903.3994   22576896.216
        50.0004         45.0004
 -20563590.97249 -15950907.74648  20432645.5374   20432651.9414   20432645.078
        57.0004         52.0004
 -12457093.30848  -9698624.56548  21733153.9714   21733157.5104   21733153.937
        53.0004         49.0004
 15  1  1  0  1  3.0000000  0 10G25G17G32G01G20G09G23G06G03G31
  -4179894.81347  -3230646.00946  23586773.0794   23586780.8934   23586773.133
        44.0004         40.0004
  -2681679.53747  -2051227.17646  24294583.1964   24294590.2954   24294577.934
        44.0004         40.0004
  -6851812.02648  -5319239.64947  22622307.1574   22622313.7864   22622308.454
        50.0004         45.0004
  -6692815.41647  -5161880.46646  23684620.2924   23684628.5164   23684617.506
        44.0004         40.0004
 -25186352.23949 -19562738.56448  20386435.6074   20386440.6674   20386436.400
        55.0004         51.0004
  -1442331.54447  -1111019.53846  24079573.5054   24079582.7874   24079575.348
        44.0004         39.0004
 -16596753.30148 -12874169.43248  21908122.7114   21908125.4794   21908123.223
        53.0004         48.0004
  -1143106.73548   -883381.89147  22576464.2104   22576471.7124   22576465.060
        50.0004         45.0004
 -20562771.83249 -15950269.45748  20432801.3474   20432807.6724   20432801.062
        57.0004         52.0004
 -12456195.84548  -9697925.24148  21733324.6264   21733328.1124   21733324.736
        53.0004         49.0004
 15  1  1  0  1  4.0000000  0 10G25G17G32G01G20G09G23G06G03G31
  -4179381.61747  -3230246.11946  23586871.1334   23586878.6854   23586870.866
        44.0004         40.0004
  -2678811.70747  -2048992.51046  24295128.7444   24295136.1404   24295123.374
        44.0004         40.0004
  -6848700.09448  -5316814.76847  22622899.5694   22622905.5894   22622900.364
        50.0004         45.0004
  -6689095.69947  -5158981.98746  23685328.2074   23685335.9594   23685325.546
        44.0004         40.0004
 -25187033.98749 -19563269.79648  20386305.8724   20386310.5804   20386306.729
        55.0004         51.0004
  -1446034.29247  -1113904.79246  24078869.0604   24078877.9734   24078870.508
        44.0004         39.0004
 -16599377.56348 -12876214.30748  21907623.2164   21907626.8174   21907623.747
        53.0004         48.0004
  -1145372.82948   -885147.68147  22576033.7754   22576040.1134   22576033.847
        50.0004         45.0004
 -20561952.17849 -15949630.76648  20432957.5034   20432963.9554   20432957.159
        57.0004         52.0004
 -12455297.78548  -9697225.45448  21733495.9064   21733498.7534   21733495.648
        53.0004         49.0004
 15  1  1  0  1  5.0000000  0 10G25G17G32G01G20G09G23G06G03G31
  -4178867.79547  -3229845.73946  23586969.2494   23586976.3454   23586968.527
        44.0004         40.0004
  -2675943.62847  -2046757.64646  24295674.0804   24295681.2564   24295668.665
        44.0004         40.0004
  -6845587.96148  -5314389.72547  22623491.1794   22623498.0274   22623492.319
        50.0004         45.0004
  -6685375.85247  -5156083.40446  23686035.8634   23686043.4894   23686033.587
        44.0004         40.0004
 -25187715.18749 -19563800.60148  20386176.5904   20386181.1144   20386177.127
        55.0004         51.0004
  -1449736.92747  -1116789.95646  24078163.8094   24078173.3544   24078165.755
        44.0004         39.0004
 -16602001.52048 -12878258.94648  21907124.7104   21907127.1804   21907124.362
        53.0004         48.0004
  -1147638.44248   -886913.09147  22575602.7254   22575609.4764   22575602.725
        50.0004         45.0004
 -20561132.01249 -15948991.67748  20433113.5314   20433119.7144   20433113.282
        57.0004         52.0004
 -12454399.12048  -9696525.19548  21733666.4354   21733669.8504   21733666.583
        53.0004         49.0004
 15  1  1  0  1  6.0000000  0 10G25G17G32G01G20G09G23G06G03G31
  -4178353.03247  -3229444.62246  23587066.9614   23587074.2284   23587066.633
        44.0004         40.0004
  -2673074.97647  -2044522.33446  24296219.9084   24296227.3614   24296214.416
        44.0004         40.0004
  -6842475.33448  -5311964.29747  22624083.4864   22624091.1854   22624084.408
        50.0004         45.0004
  -6681655.57747  -5153184.48946  23686743.4414   23686751.2114   23686741.725
        44.0004         40.0004
 -25188395.57449 -19564330.77248  20386046.8554   20386051.8494   20386047.736
        55.0004         51.0004
  -1453439.22747  -1119674.85946  24077459.2884   24077468.5474   24077460.918
        44.0004         39.0004
 -16604624.90548 -12880303.13448  21906625.2724   21906628.1314   21906625.118
        53.0004         48.0004
  -1149903.32548   -888677.93647  22575171.6484   22575177.5834   22575171.631
        50.0004         45.0004
 -20560311.06449 -15948351.97648  20433269.8934   20433276.0984   20433269.592
        57.0004         52.0004
 -12453499.57148  -9695824.24548  21733837.5614   21733841.3694   21733837.636
        53.0004         49.0004
 15  1  1  0  1  7.0000000  0 10G25G17G32G01G20G09G23G06G03G31
  -4177837.27547  -3229042.73546  23587165.2804   23587172.5734   23587164.865
        44.0004         40.0004
  -2670205.68147  -2042286.52346  24296765.6524   24296773.0854   24296759.954
        44.0004         40.0004
  -6839362.11248  -5309538.41147  22624676.4524   22624683.3204   22624676.690
        50.0004         45.0004
  -6677934.78447  -5150285.17046  23687451.3184   23687460.4934   23687450.086
        44.0004         40.0004
 -25189075.03349 -19564860.22148  20385917.5834   20385922.2234   20385918.481
        55.0004         51.0004
  -1457141.05147  -1122559.39246  24076755.0884   24076763.7224   24076756.269
        44.0004         39.0004
 -16607247.59248 -12882346.78148  21906126.2584   21906128.7764   21906125.972
        53.0004         48.0004
  -1152167.36148   -890442.12247  22574740.0454   22574748.0774   22574740.803
        50.0004         45.0004
 -20559489.20349 -15947711.56748  20433426.0974   20433432.4644   20433425.998
        57.0004         52.0004
 -12452599.03348  -9695122.52748  21734008.8294   21734012.5144   21734008.995
        53.0004         49.0004
 15  1  1  0  1  8.0000000  0 10G25G17G32G01G20G09G23G06G03G31
  -4177320.68447  -3228640.19546  23587263.1794   23587271.1504   23587263.217
        44.0004         40.0004
  -2667335.94247  -2040050.36446  24297311.5534   24297319.3534   24297305.831
        44.0004         40.0004
  -6836248.50148  -5307112.22047  22625268.4404   22625275.6654   22625268.969
        50.0004         45.0004
  -6674213.64947  -5147385.58546  23688160.6074   23688169.7304   23688158.700
        44.0004         40.0004
 -25189753.75649 -19565389.09648  20385788.5684   20385793.4284   20385789.250
        55.0004         51.0004
  -1460842.59947  -1125443.70946  24076051.5394   24076059.8314   24076051.951
        44.0004         39.0004
 -16609869.77948 -12884390.03848  21905627.1014   21905630.0504   21905627.035
        53.0004         48.0004
  -1154430.72348   -892205.78147  22574308.9074   22574316.5514   22574309.922
        50.0004         45.0004
 -20558666.64349 -15947070.61248  20433582.7774   20433588.8744   20433582.516
        57.0004         52.0004
 -12451697.70948  -9694420.19548  21734180.8464   21734184.4384   21734180.476
        53.0004         49.0004
 15  1  1  0  1  9.0000000  0 10G25G17G32G01G20G09G23G06G03G31
  -4176803.40447  -3228237.11646  23587361.5074   23587369.2104   23587361.662
        44.0004         40.0004
  -2664465.88747  -2037813.96046  24297857.9504   24297865.9084   24297852.227
        44.0004         40.0004
  -6833134.62748  -5304685.82347  22625861.5134   22625868.4494   22625861.321
        50.0004         45.0004
  -6670492.32447  -5144485.85346  23688868.8044   23688877.8364   23688867.061
        44.0004         40.0004
 -25190431.89049 -19565917.51248  20385659.2654   20385664.2024   20385660.198
        55.0004         51.0004
  -1464544.04847  -1128327.94646  24075347.2744   24075354.6254   24075347.212
        44.0004         40.0004
 -16612491.62348 -12886433.03248  21905127.6944   21905130.8784   21905128.150
        53.0004         48.0004
  -1156693.59248   -893969.06047  22573879.1014   22573886.5594   22573879.256
        50.0004         45.0004
 -20557843.52649 -15946429.22348  20433739.4534   20433745.7274   20433739.099
        57.0004         52.0004
 -12450795.74348  -9693717.36348  21734352.2834   21734355.7634   21734352.137
        53.0004         49.0004
 15  1  1  0  1 10.0000000  0 10G25G17G32G01G20G09G23G06G03G31
  -4176285.40047  -3227833.47446  23587459.2844   23587468.2724   23587460.155
        44.0004         40.0004
  -2661595.42847  -2035577.23946  24298404.0174   24298411.8874   24298398.854
        44.0004         40.0004
  -6830020.44848  -5302259.19247  22626454.2834   22626460.6854   22626453.911
        50.0004         45.0004
  -6666770.78447  -5141585.95246  23689576.6404   23689585.3534   23689575.539
        45.0004         40.0004
 -25191109.37949 -19566445.42648  20385530.6294   20385535.1244   20385531.231
        55.0004         51.0004
  -1468245.29747  -1131212.03346  24074642.9974   24074650.3164   24074642.938
        44.0004         40.0004
 -16615113.05348 -12888475.70348  21904629.4814   21904632.2294   21904629.323
        53.0004         48.0004
  -1158955.88048   -895731.88247  22573448.6754   22573455.6704   22573448.620
        50.0004         45.0004
 -20557019.79749 -15945787.35748  20433896.0434   20433902.4104   20433895.814
        57.0004         52.0004
 -12449893.05548  -9693013.97348  21734524.3624   21734527.5404   21734523.950
        53.0004         49.0004
 15  1  1  0  1 11.0000000  0 10G25G17G32G01G20G09G23G06G03G31
  -4175767.22747  -3227429.69946  23587558.1364   23587566.7614   23587558.535
        44.0004         40.0004
  -2658725.19847  -2033340.70146  24298949.8034   24298958.1334   24298945.207
        44.0004         40.0004
  -6826906.54848  -5299832.77847  22627046.0244   22627052.9984   22627046.546
        50.0004         45.0004
  -6663049.57547  -5138686.30846  23690284.4784   23690292.8464   23690283.803
        45.0004         40.0004
 -25191786.81549 -19566973.29848  20385401.5814   20385406.1504   20385402.224
        55.0004         51.0004
  -1471946.94347  -1134096.43146  24073938.8474   24073946.4124   24073938.376
        44.0004         40.0004
 -16617734.67048 -12890518.51448  21904130.5234   21904133.0684   21904130.451
        53.0004         48.0004
  -1161218.19448   -897494.72147  22573017.8954   22573024.9774   22573017.972
        50.0004         45.0004
 -20556196.03549 -15945145.46448  20434052.8464   20434059.1284   20434052.496
        57.0004         52.0004
 -12448990.25448  -9692310.48948  21734695.9264   21734699.4394   21734695.747
        53.0004         49.0004
 15  1  1  0  1 12.0000000  0 10G25G17G32G01G20G09G23G06G03G31
  -4175248.45847  -3227025.45946  23587656.5654   23587664.8594   23587656.856
        44.0004         40.0004
  -2655854.73347  -2031103.97846  24299496.6054   24299504.3214   24299491.853
        44.0004         40.0004
  -6823792.48448  -5297406.23347  22627638.8854   22627645.6434   22627639.091
        50.0004         45.0004
  -6659328.25447  -5135786.58246  23690992.3764   23691001.6454   23690992.398
        45.0004         40.0004
 -25192463.74849 -19567500.77948  20385272.7564   20385277.6294   20385273.388
        55.0004         51.0004
  -1475648.54247  -1136980.78846  24073234.8104   24073242.2464   24073233.820
        44.0004         40.0004
 -16620356.01648 -12892561.11648  21903631.6694   21903634.2384   21903631.640
        53.0004         48.0004
  -1163480.06748   -899257.22047  22572587.7384   22572593.6734   22572587.474
        50.0004         45.0004
 -20555371.79349 -15944503.19848  20434209.6654   20434215.7864   20434209.290
        57.0004         52.0004
 -12448086.88148  -9691606.56048  21734868.0294   21734871.0524   21734867.731
        53.0004         49.0004
 15  1  1  0  1 13.0000000  0 10G25G17G32G01G20G09G23G06G03G31
  -4174729.06247  -3226620.73346  23587755.7444   23587764.3814   23587755.433
        44.0004         40.0004
  -2652983.99147  -2028867.03946  24300043.2384   24300050.6974   24300038.789
        44.0004         40.0004
  -6820678.21448  -5294979.52647  22628231.2084   22628238.3454   22628231.731
        50.0004         45.0004
  -6655606.82147  -5132886.76646  23691700.8944   23691710.0134   23691700.675
        45.0004         40.0004
 -25193140.14949 -19568027.84348  20385144.0764   20385148.6644   20385144.559
        55.0004         51.0004
  -1479350.06647  -1139865.08846  24072530.5244   24072538.2374   24072529.438
        44.0004         40.0004
 -16622977.05548 -12894603.48348  21903132.8154   21903135.6784   21903132.936
        53.0004         48.0004
  -1165741.48548   -901019.36647  22572157.9454   22572164.4294   22572157.040
        50.0004         45.0004
 -20554547.04949 -15943860.54048  20434366.6834   20434372.9624   20434366.224
        57.0004         52.0004
 -12447182.92748  -9690902.18048  21735040.1184   21735043.1304   21735039.741
        53.0004         49.0004
 15  1  1  0  1 14.0000000  0 10G25G17G32G01G20G09G23G06G03G31
  -4174208.97947  -3226215.47146  23587854.5794   23587863.9074   23587854.275
        44.0004         40.0004
  -2650112.95247  -2026629.86646  24300589.3374   24300597.2344   24300585.692
        44.0004         40.0004
  -6817563.69648  -5292552.62747  22628824.2484   22628831.0424   22628824.513
        50.0004         45.0004
  -6651885.18947  -5129986.79346  23692409.5004   23692418.5084   23692409.044
        45.0004         40.0004
 -25193815.97049 -19568554.45748  20385015.5494   20385020.2914   20385015.892
        55.0004         51.0004
  -1483051.46847  -1142749.29546  24071826.3404   24071834.0674   24071824.975
        44.0004         40.0004
 -16625597.74448 -12896645.57048  21902633.9094   21902636.5634   21902634.286
        53.0004         48.0004
  -1168002.40148   -902781.12147  22571727.1684   22571734.2844   22571726.720
        50.0004         45.0004
 -20553721.74249 -15943217.44548  20434523.5554   20434530.0184   20434523.182
        57.0004         52.0004
 -12446278.30848  -9690197.28048  21735212.0464   21735215.3144   21735211.927
        53.0004         49.0004
 15  1  1  0  1 15.0000000  0 10G25G17G32G01G20G09G23G06G03G31
  -4173687.92447  -3225809.45346  23587953.3694   23587963.4824   23587953.544
        44.0004         40.0004
  -2647241.27847  -2024392.20146  24301134.9494   24301142.6584   24301132.422
        44.0004         40.0004
  -6814448.60248  -5290125.28047  22629417.9844   22629424.2014   22629417.265
        50.0004         45.0004
  -6648163.06447  -5127086.43946  23693117.9414   23693126.3224   23693117.347
        45.0004         40.0004
 -25194490.89449 -19569080.37348  20384887.1094   20384892.0084   20384887.415
        55.0004         51.0004
  -1486752.43447  -1145633.16146  24071122.0074   24071130.0124   24071120.726
        44.0004         40.0004
 -16628217.77948 -12898687.15248  21902135.8884   21902138.9994   21902135.804
        53.0004         48.0004
  -1170262.48248   -904542.21947  22571296.8194   22571304.1334   22571296.525
        50.0004         45.0004
 -20552895.57449 -15942573.67748  20434681.0924   20434687.1684   20434680.397
        57.0004         52.0004
 -12445372.74448  -9689491.64848  21735384.6284   21735387.5944   21735384.291
        53.0004         49.0004
 15  1  1  0  1 16.0000000  0 10G25G17G32G01G20G09G23G06G03G31
  -4173166.48347  -3225403.13646  23588052.6234   23588062.0804   23588052.588
        44.0004         40.0004
  -2644369.60847  -2022154.53946  24301681.6844   24301689.1004   24301678.907
        44.0004         39.0004
  -6811333.56448  -5287697.97547  22630009.3854   22630016.5684   22630009.991
        50.0004         45.0004
  -6644441.07247  -5124186.18946  23693825.8274   23693835.0834   23693825.778
        45.0004         40.0004
 -25195165.54149 -19569606.07448  20384758.7464   20384763.4654   20384759.028
        55.0004         51.0004
  -1490453.59047  -1148517.17846  24070417.2594   24070425.8834   24070416.373
        44.0004         40.0004
 -16630837.77048 -12900728.70148  21901637.0454   21901639.8734   21901637.339
        53.0004         48.0004
  -1172522.35848   -906303.16347  22570867.0364   22570874.5024   22570866.492
        50.0004         45.0004
 -20552069.15149 -15941929.71248  20434838.1194   20434844.4664   20434837.676
        57.0004         52.0004
 -12444466.84148  -9688785.75048  21735556.7624   21735559.8194   21735556.765
        53.0004         49.0004
 15  1  1  0  1 17.0000000  0 10G25G17G32G01G20G09G23G06G03G31
  -4172644.01947  -3224996.01846  23588151.8254   23588162.2964   23588152.117
        44.0004         40.0004
  -2641497.28147  -2019916.36246  24302227.9624   24302235.1224   24302225.561
        44.0004         39.0004
  -6808217.94448  -5285270.21847  22630602.9104   22630609.3794   22630602.740
        50.0004         45.0004
  -6640718.55447  -5121285.52846  23694533.9274   23694543.4314   23694534.367
        45.0004         40.0004
 -25195839.26549 -19570131.05248  20384630.3074   20384635.2334   20384630.805
        55.0004         51.0004
  -1494154.25947  -1151400.81246  24069712.9424   24069721.4064   24069712.214
        44.0004         40.0004
 -16633457.06248 -12902769.70648  21901138.8844   21901141.5404   21901138.974
        53.0004         48.0004
  -1174781.38548   -908063.44347  22570436.6754   22570444.0034   22570436.513
        50.0004         45.0004
 -20551241.82949 -15941285.04448  20434995.7834   20435001.9684   20434995.086
        57.0004         52.0004
 -12443559.94448  -9688079.07948  21735729.3204   21735733.1204   21735729.421
        53.0004         49.0004
 15  1  1  0  1 18.0000000  0 10G25G17G32G01G20G09G23G06G03G31
  -4172121.12847  -3224588.56946  23588251.3764   23588261.7394   23588251.508
        44.0004         40.0004
  -2638624.88047  -2017678.12946  24302774.5044   24302781.8904   24302771.936
        44.0004         39.0004
  -6805102.32248  -5282842.46247  22631195.7334   22631203.2944   22631195.496
        50.0004         45.0004
  -6636996.09947  -5118384.91846  23695242.3794   23695252.6914   23695242.954
        45.0004         40.0004
 -25196512.65849 -19570655.77448  20384502.2604   20384507.0354   20384502.672
        55.0004         51.0004
  -1497855.07947  -1154284.56546  24069008.3194   24069016.6844   24069007.917
        44.0004         40.0004
 -16636076.26748 -12904810.64348  21900640.0744   21900642.7524   21900640.637
        53.0004         48.0004
  -1177040.15448   -909823.52547  22570007.3624   22570014.8024   22570006.612
        50.0004         45.0004
 -20550414.20349 -15940640.14248  20435153.2414   20435159.3964   20435152.583
        57.0004         52.0004
 -12442652.65448  -9687372.10048  21735902.1234   21735905.2704   21735902.128
        53.0004         49.0004
 15  1  1  0  1 19.0000000  0 10G25G17G32G01G20G09G23G06G03G31
  -4171597.49447  -3224180.53946  23588351.8094   23588360.7134   23588351.103
        44.0004         40.0004
  -2635752.11747  -2015439.61446  24303320.4214   24303329.2714   24303318.647
        44.0004         39.0004
  -6801986.36748  -5280414.44347  22631788.5354   22631795.5914   22631788.389
        50.0004         45.0004
  -6633273.37947  -5115484.10146  23695950.6654   23695960.4504   23695951.440
        45.0004         40.0004
 -25197185.39049 -19571179.97648  20384374.2114   20384379.0734   20384374.685
        55.0004         51.0004
  -1501555.67947  -1157168.14446  24068303.9604   24068312.4414   24068303.753
        44.0004         40.0004
 -16638695.03848 -12906851.23848  21900142.2064   21900144.2054   21900142.292
        53.0004         48.0004
  -1179298.32448   -911583.13347  22569576.8274   22569584.5464   22569576.835
        50.0004         45.0004
 -20549585.94549 -15939994.74148  20435310.6534   20435316.9514   20435310.183
        57.0004         52.0004
 -12441744.64148  -9686664.55048  21736074.7114   21736078.3834   21736074.912
        53.0004         49.0004
 15  1  1  0  1 20.0000000  0 10G25G17G32G01G20G09G23G06G03G31
  -4171072.98147  -3223771.82446  23588451.4474   23588459.5244   23588450.915
        44.0004         40.0004
  -2632878.81947  -2013200.68246  24303867.8394   24303876.1454   24303865.553
        44.0004         39.0004
  -6798869.98148  -5277986.09647  22632381.9094   22632388.8434   22632381.428
        50.0004         45.0004
  -6629550.30647  -5112583.00946  23696659.2784   23696668.9914   23696660.092
        45.0004         40.0004
 -25197857.34649 -19571703.57748  20384246.5524   20384251.1194   20384246.848
        55.0004         51.0004
  -1505255.97547  -1160051.48646  24067599.4584   24067608.6014   24067599.671
        44.0004         40.0004
 -16641313.27348 -12908891.41648  21899644.0774   21899646.3744   21899644.135
        53.0004         48.0004
  -1181555.80648   -913342.20647  22569147.9254   22569154.8454   22569147.076
        50.0004         45.0004
 -20548756.93849 -15939348.75948  20435468.5034   20435474.7004   20435467.989
        57.0004         52.0004
 -12440835.79748  -9685956.35648  21736247.6974   21736251.2554   21736247.723
        53.0004         49.0004
 15  1  1  0  1 21.0000000  0 10G25G17G32G01G20G09G23G06G03G31
  -4170547.88047  -3223362.65346  23588551.7354   23588559.2284   23588550.817
        44.0004         40.0004
  -2630005.29547  -2010961.57546  24304415.7004   24304423.7414   24304412.781
        44.0004         39.0004
  -6795753.43548  -5275557.61247  22632975.0224   22632981.4284   22632974.638
        50.0004         45.0004
  -6625827.11847  -5109681.82446  23697367.0414   23697376.6754   23697368.723
        44.0004         40.0004
 -25198528.80649 -19572226.79648  20384118.7094   20384123.5204   20384119.102
        55.0004         51.0004
  -1508956.21047  -1162934.78146  24066895.6254   24066904.5204   24066895.612
        44.0004         40.0004
 -16643931.25048 -12910931.39648  21899145.6424   21899148.1694   21899146.032
        53.0004         48.0004
  -1183812.86348   -915100.95547  22568718.3994   22568725.8474   22568717.329
        50.0004         45.0004
 -20547927.46349 -15938702.41748  20435626.3914   20435632.7364   20435625.921
        57.0004         52.0004
 -12439926.39248  -9685247.73148  21736420.8144   21736424.3324   21736420.666
        53.0004         49.0004
 15  1  1  0  1 22.0000000  0 10G25G17G32G01G20G09G23G06G03G31
  -4170021.98547  -3222952.86346  23588652.1894   23588660.0974   23588650.939
        44.0004         40.0004
  -2627131.38147  -2008722.16646  24304962.2644   24304970.9594   24304960.139
        44.0004         39.0004
  -6792636.52748  -5273128.84847  22633568.3624   22633574.6024   22633567.885
        50.0004         46.0004
  -6622103.66147  -5106780.43146  23698075.7204   23698085.7604   23698077.364
        44.0004         40.0004
 -25199199.57849 -19572749.47348  20383991.0554   20383995.7694   20383991.492
        55.0004         51.0004
  -1512656.23047  -1165817.90946  24066191.6564   24066201.0444   24066191.715
        44.0004         40.0004
 -16646548.77448 -12912971.02148  21898647.5474   21898650.2784   21898648.030
        53.0004         48.0004
  -1186069.30048   -916859.21647  22568289.2724   22568296.2364   22568287.699
        50.0004         45.0004
 -20547097.32649 -15938055.55548  20435784.4034   20435790.6774   20435783.922
        57.0004         52.0004
 -12439016.23748  -9684538.51848  21736594.1044   21736597.4844   21736593.764
        53.0004         49.0004
 15  1  1  0  1 23.0000000  0 10G25G17G32G01G20G09G23G06G03G31
  -4169495.11747  -3222542.31546  23588751.9524   23588760.2004   23588751.369
        44.0004         40.0004
  -2624256.83047  -2006482.25946  24305509.2024   24305518.2874   24305507.513
        44.0004         39.0004
  -6789519.05848  -5270699.65147  22634160.8404   22634168.1124   22634161.065
        50.0004         45.0004
  -6618379.70447  -5103878.64946  23698783.6614   23698793.1544   23698786.058
        44.0004         40.0004
 -25199869.45449 -19573271.45648  20383863.7594   20383868.3334   20383864.038
        55.0004         51.0004
  -1516355.80047  -1168700.68446  24065487.5994   24065496.9994   24065487.925
        44.0004         40.0004
 -16649165.63248 -12915010.12548  21898149.5574   21898152.1404   21898150.110
        53.0004         48.0004
  -1188324.90948   -918616.83247  22567859.2144   22567867.1494   22567858.458
        50.0004         45.0004
 -20546266.32549 -15937408.02248  20435942.5424   20435948.6604   20435942.049
        57.0004         52.0004
 -12438105.12148  -9683828.55648  21736767.4434   21736770.7554   21736767.045
        53.0004         49.0004
 15  1  1  0  1 24.0000000  0 10G25G17G32G01G20G09G23G06G03G31
  -4168967.71347  -3222131.35146  23588852.5244   23588860.9604   23588851.973
        44.0004         40.0004
  -2621382.10947  -2004242.22046  24306056.6214   24306064.7114   24306054.710
        44.0004         39.0004
  -6786401.50248  -5268270.38747  22634754.3374   22634760.7004   22634754.315
        50.0004         45.0004
  -6614655.72947  -5100976.85346  23699492.4744   23699502.0364   23699494.535
        44.0004         40.0004
 -25200538.91749 -19573793.11448  20383736.0644   20383740.7844   20383736.692
        55.0004         51.0004
  -1520055.43647  -1171583.51146  24064783.4514   24064792.5974   24064783.882
        44.0004         40.0004
 -16651782.31948 -12917049.10148  21897651.3364   21897654.0584   21897652.184
        53.0004         48.0004
  -1190580.18848   -920374.18547  22567430.7714   22567437.7324   22567429.284
        50.0004         45.0004
 -20545434.93049 -15936760.18048  20436100.6274   20436106.9904   20436100.269
        57.0004         52.0004
 -12437193.52448  -9683118.22248  21736940.7664   21736944.4494   21736940.424
        53.0004         49.0004
 15  1  1  0  1 25.0000000  0 10G25G17G32G01G20G09G23G06G03G31
  -4168439.13647  -3221719.47246  23588953.2934   23588961.5654   23588952.904
        44.0004         40.0004
  -2618506.59847  -2002001.56746  24306604.1014   24306611.6384   24306602.218
        44.0004         39.0004
  -6783283.18948  -5265840.53247  22635347.2584   22635355.5584   22635347.722
        50.0004         45.0004
  -6610931.06747  -5098074.52346  23700201.8244   23700211.5524   23700203.296
        44.0004         40.0004
 -25201207.28249 -19574313.91848  20383609.0204   20383613.8494   20383609.501
        55.0004         51.0004
  -1523754.41347  -1174465.82346  24064079.4774   24064088.3244   24064079.958
        44.0004         40.0004
 -16654398.14448 -12919087.40248  21897153.6064   21897156.0574   21897154.512
        53.0004         48.0004
  -1192834.44148   -922130.74947  22567001.8194   22567008.9584   22567000.217
        50.0004         45.0004
 -20544602.46949 -15936111.50948  20436259.1704   20436265.5264   20436258.650
        57.0004         52.0004
 -12436280.77648  -9682406.99148  21737114.4754   21737118.2804   21737114.009
        53.0004         49.0004
 15  1  1  0  1 26.0000000  0 10G25G17G32G01G20G09G23G06G03G31
  -4167910.17947  -3221307.29646  23589053.3044   23589061.7194   23589053.710
        44.0004         40.0004
  -2615631.09947  -1999760.92246  24307151.2644   24307158.1344   24307149.463
        44.0004         39.0004
  -6780164.90948  -5263410.70447  22635941.0494   22635948.1224   22635941.198
        50.0004         45.0004
  -6607206.51547  -5095172.27846  23700910.8584   23700921.3354   23700912.121
        44.0004         39.0004
 -25201875.35649 -19574834.49748  20383481.6864   20383486.3174   20383482.325
        55.0004         51.0004
  -1527453.57747  -1177348.28446  24063375.6914   24063384.0914   24063376.074
        44.0004         40.0004
 -16657013.91448 -12921125.66248  21896655.6344   21896658.6974   21896656.745
        53.0004         48.0004
  -1195088.46748   -923887.13047  22566572.4344   22566579.2644   22566571.212
        50.0004         45.0004
 -20543769.74349 -15935462.63348  20436417.6634   20436423.7164   20436417.124
        57.0004         52.0004
 -12435367.67348  -9681695.48348  21737287.8414   21737291.7454   21737287.689
        53.0004         49.0004
 15  1  1  0  1 27.0000000  0 10G25G17G32G01G20G09G23G06G03G31
  -4167380.87147  -3220894.84846  23589153.9494   23589161.6694   23589154.548
        44.0004         40.0004
  -2612755.54747  -1997520.23646  24307698.2914   24307705.3804   24307696.700
        44.0004         39.0004
  -6777046.72248  -5260980.94947  22636534.3084   22636541.0634   22636534.671
        50.0004         45.0004
  -6603482.12947  -5092270.16146  23701618.5804   23701629.0474   23701620.676
        44.0004         39.0004
 -25202543.18449 -19575354.88248  20383354.8514   20383359.4034   20383355.233
        55.0004         51.0004
  -1531152.94547  -1180230.90446  24062671.3694   24062679.9644   24062672.037
        44.0004         40.0004
 -16659629.66248 -12923163.90348  21896158.3504   21896160.8874   21896158.976
        53.0004         48.0004
  -1197342.32548   -925643.38447  22566143.4774   22566151.2164   22566142.289
        50.0004         45.0004
 -20542936.79849 -15934813.58448  20436576.0294   20436582.2074   20436575.575
        57.0004         52.0004
 -12434454.25648  -9680983.73048  21737462.1284   21737465.7224   21737461.357
        53.0004         49.0004
 15  1  1  0  1 28.0000000  0 10G25G17G32G01G20G09G23G06G03G31
  -4166850.52747  -3220481.59146  23589254.9574   23589262.0134   23589255.320
        44.0004         40.0004
  -2609879.37547  -1995279.06646  24308245.8874   24308252.6714   24308243.935
        44.0004         39.0004
  -6773927.92148  -5258550.71147  22637127.0984   22637134.8144   22637128.088
        50.0004         45.0004
  -6599757.18647  -5089367.60946  23702327.3834   23702337.5274   23702329.509
        44.0004         39.0004
 -25203210.07049 -19575874.53148  20383228.1514   20383232.5604   20383228.311
        55.0004         51.0004
  -1534851.82447  -1183113.14346  24061967.8564   24061976.5834   24061968.151
        44.0004         40.0004
 -16662244.71148 -12925201.59348  21895660.2544   21895663.3344   21895661.316
        53.0004         48.0004
  -1199595.32248   -927398.96647  22565714.5904   22565722.7684   22565713.528
        50.0004         45.0004
 -20542102.94349 -15934163.82348  20436734.9794   20436740.9294   20436734.201
        57.0004         52.0004
 -12433539.84148  -9680271.19648  21737635.7774   21737639.9174   21737635.275
        53.0004         49.0004
 15  1  1  0  1 29.0000000  0 10G25G17G32G01G20G09G23G06G03G31
  -4166319.54647  -3220067.83946  23589357.1484   23589363.1364   23589356.596
        44.0004         40.0004
  -2607002.94747  -1993037.69946  24308792.3344   24308799.8174   24308791.292
        44.0004         39.0004
  -6770808.92648  -5256120.32347  22637719.8344   22637728.4664   22637721.689
        50.0004         45.0004
  -6596032.10947  -5086464.95446  23703036.4594   23703046.7724   23703038.059
        44.0004         39.0004
 -25203876.40649 -19576393.75448  20383100.9214   20383105.6084   20383101.492
        55.0004         51.0004
  -1538550.62647  -1185995.32046  24061263.9824   24061272.5354   24061264.049
        44.0004         40.0004
 -16664859.44048 -12927239.04148  21895162.7654   21895165.9914   21895163.587
        53.0004         48.0004
  -1201847.82548   -929154.15747  22565286.4814   22565292.8454   22565284.940
        50.0004         45.0004
 -20541268.56749 -15933513.65948  20436893.3954   20436899.7144   20436892.925
        57.0004         52.0004
 -12432624.81348  -9679558.18548  21737809.8474   21737813.8574   21737809.245
        53.0004         49.0004
 15  1  1  0  1 30.0000000  0 10G25G17G32G01G20G09G23G06G03G31
  -4165787.70847  -3219653.42146  23589458.1624   23589464.3124   23589457.796
        44.0004         40.0004
  -2604126.01447  -1990795.93646  24309339.6214   24309347.3524   24309338.519
        44.0004         39.0004
  -6767689.47848  -5253689.58347  22638315.0594   22638321.4134   22638315.294
        50.0004         45.0004
  -6592306.67647  -5083562.02346  23703745.3094   23703755.1974   23703746.776
        44.0004         39.0004
 -25204541.97849 -19576912.38348  20382974.4494   20382979.0654   20382974.838
        55.0004         51.0004
  -1542249.10447  -1188877.24546  24060559.9554   24060568.2534   24060560.058
        44.0004         40.0004
 -16667473.64148 -12929276.07948  21894665.5854   21894668.0804   21894665.956
        53.0004         48.0004
  -1204099.65548   -930908.82647  22564858.4974   22564865.0604   22564856.575
        50.0004         45.0004
 -20540433.45849 -15932862.92448  20437052.4064   20437058.5184   20437051.787
        57.0004         52.0004
 -12431708.95348  -9678844.52948  21737984.2214   21737988.0184   21737983.378
        53.0004         49.0004
 15  1  1  0  1 31.0000000  0 10G25G17G32G01G20G09G23G06G03G31
  -4165255.18147  -3219238.46346  23589559.8074   23589566.3834   23589559.362
        44.0004         40.0004
  -2601248.75747  -1988553.92346  24309886.9464   24309894.4974   24309886.026
        44.0004         40.0004
  -6764569.78448  -5251258.65047  22638908.7864   22638915.8964   22638908.887
        50.0004         45.0004
  -6588581.04747  -5080658.93646  23704454.9084   23704464.1134   23704455.657
        44.0004         39.0004
 -25205206.95649 -19577430.54848  20382847.9764   20382852.4424   20382848.378
        55.0004         51.0004
  -1545947.46047  -1191759.07646  24059856.6324   24059864.7144   24059856.242
        44.0004         40.0004
 -16670087.48548 -12931312.83748  21894168.0494   21894170.7884   21894168.395
        53.0004         48.0004
  -1206350.94848   -932663.08447  22564429.2584   22564436.4594   22564428.111
        50.0004         45.0004
 -20539597.77349 -15932211.74248  20437211.6154   20437217.6584   20437210.783
        57.0004         52.0004
 -12430792.44348  -9678130.36848  21738158.7764   21738162.6884   21738157.644
        53.0004         49.0004
 15  1  1  0  1 32.0000000  0 10G25G17G32G01G20G09G23G06G03G31
  -4164721.84847  -3218822.87746  23589660.8584   23589667.7354   23589661.065
        44.0004         40.0004
  -2598371.06647  -1986311.57346  24310434.8854   24310442.4494   24310433.735
        44.0004         40.0004
  -6761449.72548  -5248827.44047  22639501.9244   22639509.2894   22639502.538
        50.0004         45.0004
  -6584855.13247  -5077755.63046  23705164.4674   23705171.9644   23705164.469
        44.0004         39.0004
 -25205871.23449 -19577948.16748  20382721.4794   20382726.1644   20382722.051
        55.0004         51.0004
  -1549645.55947  -1194640.70646  24059152.0964   24059161.4744   24059152.162
        44.0004         40.0004
 -16672700.86448 -12933349.23448  21893670.4664   21893673.3484   21893670.938
        53.0004         48.0004
  -1208601.62048   -934416.85647  22564001.2224   22564008.4374   22563999.948
        50.0004         45.0004
 -20538761.42649 -15931560.04548  20437370.7634   20437376.7844   20437369.974
        57.0004         52.0004
 -12429875.17348  -9677415.61348  21738332.8994   21738337.0134   21738332.139
        53.0004         49.0004
 15  1  1  0  1 33.0000000  0 10G25G17G32G01G20G09G23G06G03G31
  -4164187.84947  -3218406.77546  23589762.0114   23589770.0964   23589762.928
        44.0004         40.0004
  -2595493.07347  -1984068.98646  24310982.2644   24310990.8904   24310981.399
        44.0004         40.0004
  -6758329.42048  -5246396.03747  22640096.5584   22640102.9314   22640096.277
        50.0004         45.0004
  -6581129.02447  -5074852.16946  23705872.9844   23705882.3864   23705873.517
        44.0004         39.0004
 -25206534.92549 -19578465.32848  20382595.0964   20382599.7314   20382595.789
        55.0004         51.0004
  -1553343.54247  -1197522.24546  24058447.8144   24058457.5974   24058448.010
        44.0004         40.0004
 -16675313.88448 -12935385.34648  21893173.5694   21893176.4104   21893173.558
        53.0004         48.0004
  -1210851.78048   -936170.22747  22563573.5404   22563579.2054   22563571.900
        50.0004         45.0004
 -20537924.51449 -15930907.90448  20437529.8124   20437536.0794   20437529.238
        57.0004         52.0004
 -12428957.25048  -9676700.34948  21738508.0344   21738511.7024   21738506.842
        53.0004         49.0004
 15  1  1  0  1 34.0000000  0 10G25G17G32G01G20G09G23G06G03G31
  -4163653.36647  -3217990.29446  23589863.6424   23589871.7434   23589864.684
        44.0004         40.0004
  -2592614.95447  -1981826.30246  24311530.4644   24311538.7684   24311529.142
        44.0004         39.0004
  -6755209.06248  -5243964.58947  22640689.8024   22640696.5284   22640690.180
        50.0004         45.0004
  -6577402.92147  -5071948.71446  23706582.6404   23706590.7684   23706582.404
        44.0004         40.0004
 -25207198.23049 -19578982.18848  20382468.9254   20382473.3344   20382469.554
        55.0004         51.0004
  -1557041.59047  -1200403.83546  24057744.9914   24057754.5094   24057744.302
        44.0004         40.0004
 -16677926.76248 -12937421.34948  21892676.0734   21892679.5534   21892676.276
        53.0004         48.0004
  -1213101.62248   -937923.34747  22563144.0204   22563151.7894   22563143.842
        50.0004         45.0004
 -20537087.24449 -15930255.48448  20437689.1244   20437695.5364   20437688.671
        57.0004         52.0004
 -12428038.88048  -9675984.73448  21738682.8204   21738686.4224   21738681.663
        53.0004         49.0004
 15  1  1  0  1 35.0000000  0 10G25G17G32G01G20G09G23G06G03G31
  -4163118.04547  -3217573.15746  23589965.4964   23589973.0644   23589966.410
        44.0004         40.0004
  -2589736.38147  -1979583.26246  24312079.0314   24312086.4394   24312077.180
        44.0004         39.0004
  -6752088.30548  -5241532.82547  22641283.9444   22641290.3574   22641284.385
        50.0004         45.0004
  -6573676.52447  -5069045.02746  23707291.1044   23707300.4364   23707291.348
        44.0004         39.0004
 -25207860.79849 -19579498.47548  20382342.9384   20382347.3124   20382343.416
        55.0004         51.0004
  -1560739.37647  -1203285.22046  24057041.5074   24057050.5284   24057040.443
        44.0004         40.0004
 -16680539.13648 -12939456.96248  21892178.8904   21892182.0654   21892179.095
        53.0004         48.0004
  -1215350.81048   -939675.96047  22562717.7354   22562723.5584   22562715.881
        50.0004         45.0004
 -20536249.27249 -15929602.51848  20437848.5474   20437854.8434   20437848.161
        57.0004         52.0004
 -12427119.71648  -9675268.50248  21738857.7734   21738861.3164   21738856.686
        53.0004         49.0004
 15  1  1  0  1 36.0000000  0 10G25G17G32G01G20G09G23G06G03G31
  -4162581.76147  -3217155.27346  23590067.7314   23590075.2324   23590068.404
        44.0004         40.0004
  -2586857.15947  -1977339.71446  24312627.6314   24312634.3784   24312625.372
        44.0004         39.0004
  -6748966.99848  -5239100.63947  22641878.4414   22641884.0504   22641878.664
        50.0004         45.0004
  -6569949.62247  -5066140.94946  23708000.8554   23708010.2344   23708000.559
        44.0004         40.0004
 -25208522.47849 -19580014.07048  20382217.0924   20382221.6114   20382217.405
        55.0004         51.0004
  -1564436.72447  -1206166.26346  24056337.6694   24056346.8024   24056336.621
        44.0004         40.0004
 -16683150.85848 -12941492.06948  21891682.2514   21891685.1254   21891682.086
        53.0004         48.0004
  -1217599.16648   -941427.92547  22562289.2784   22562296.9274   22562288.086
        50.0004         45.0004
 -20535410.43749 -15928948.88148  20438008.2464   20438014.5524   20438007.765
        57.0004         52.0004
 -12426199.60448  -9674551.53148  21739033.0674   21739036.5834   21739031.815
        53.0004         49.0004
 15  1  1  0  1 37.0000000  0 10G25G17G32G01G20G09G23G06G03G31
  -4162045.13247  -3216737.12246  23590169.8614   23590177.5934   23590170.256
        44.0004         40.0004
  -2583978.04647  -1975096.25246  24313175.9664   24313182.5174   24313173.547
        44.0004         40.0004
  -6745845.79648  -5236668.53047  22642472.3494   22642478.8054   22642472.762
        50.0004         45.0004
  -6566222.89247  -5063237.00446  23708710.4444   23708718.7404   23708709.593
        44.0004         40.0004
 -25209183.93349 -19580529.48848  20382090.9514   20382095.6684   20382091.422
        55.0004         51.0004
  -1568134.30047  -1209047.48646  24055634.1444   24055643.4924   24055632.981
        44.0004         40.0004
 -16685762.59548 -12943527.18448  21891184.5334   21891187.9534   21891185.041
        53.0004         48.0004
  -1219847.38348   -943179.78447  22561860.9894   22561868.6964   22561860.363
        50.0004         45.0004
 -20534571.40149 -15928295.08648  20438167.9304   20438174.1164   20438167.461
        57.0004         52.0004
 -12425279.19148  -9673834.32648  21739207.9284   21739211.6224   21739207.143
        53.0004         49.0004
 15  1  1  0  1 38.0000000  0 10G25G17G32G01G20G09G23G06G03G31
  -4161507.57447  -3216318.24546  23590271.7194   23590279.8814   23590272.486
        44.0004         40.0004
  -2581098.29847  -1972852.29546  24313724.1724   24313730.2464   24313721.889
        44.0004         40.0004
  -6742724.06048  -5234236.00347  22643065.1754   22643072.3594   22643066.783
        50.0004         45.0004
  -6562495.70047  -5060332.69946  23709419.8514   23709426.9404   23709418.919
        44.0004         40.0004
 -25209844.51949 -19581044.22848  20381965.4744   20381969.8804   20381965.641
        55.0004         51.0004
  -1571831.47247  -1211928.39146  24054930.9544   24054940.1684   24054929.492
        44.0004         40.0004
 -16688373.68948 -12945561.79748  21890687.9234   21890691.2504   21890688.090
        53.0004         48.0004
  -1222094.78648   -944931.00447  22561433.3044   22561440.7684   22561432.804
        50.0004         45.0004
 -20533731.52349 -15927640.63348  20438327.7424   20438333.9214   20438327.262
        57.0004         52.0004
 -12424357.85748  -9673116.40448  21739383.0684   21739386.7484   21739382.668
        53.0004         49.0004
 15  1  1  0  1 39.0000000  0 10G25G17G32G01G20G09G23G06G03G31
  -4160969.43747  -3215898.91846  23590373.4964   23590382.0884   23590374.432
        44.0004         40.0004
  -2578218.36347  -1970608.19346  24314272.5604   24314277.7444   24314270.125
        44.0004         40.0004
  -6739602.19148  -5231803.38047  22643660.0324   22643666.4074   22643660.832
        50.0004         45.0004
  -6558768.44547  -5057428.34746  23710128.6064   23710136.4134   23710128.125
        44.0004         40.0004
 -25210504.63849 -19581558.60848  20381839.7764   20381844.2444   20381839.950
        55.0004         51.0004
  -1575528.63047  -1214809.28946  24054227.0614   24054236.6524   24054225.876
        45.0004         40.0004
 -16690984.56848 -12947596.24748  21890191.1394   21890194.0234   21890191.425
        53.0004         48.0004
  -1224341.81048   -946681.93247  22561006.0684   22561013.4484   22561005.248
        50.0004         45.0004
 -20532891.21249 -15926985.84748  20438487.6634   20438493.9494   20438487.182
        57.0004         52.0004
 -12423435.99548  -9672398.07148  21739558.9564   21739562.4234   21739558.294
        53.0004         49.0004
 15  1  1  0  1 40.0000000  0 10G25G17G32G01G20G09G23G06G03G31
  -4160430.77747  -3215479.18346  23590475.8914   23590485.2714   23590476.675
        44.0004         40.0004
  -2575338.26847  -1968363.96346  24314820.0324   24314825.7684   24314818.334
        44.0004         40.0004
  -6736480.20148  -5229370.65447  22644253.6034   22644260.2564   22644254.849
        50.0004         45.0004
  -6555041.15847  -5054523.97146  23710837.7224   23710845.8424   23710837.322
        44.0004         39.0004
 -25211164.31549 -19582072.64048  20381714.2294   20381718.9264   20381714.402
        55.0004         51.0004
  -1579225.80747  -1217690.19946  24053523.4314   24053533.4024   24053522.495
        45.0004         40.0004
 -16693595.22848 -12949630.52348  21889694.6704   21889697.3614   21889694.691
        53.0004         48.0004
  -1226588.45148   -948432.55847  22560578.1714   22560585.4104   22560577.761
        50.0004         45.0004
 -20532050.49349 -15926330.73948  20438647.5034   20438654.1414   20438647.258
        57.0004         52.0004
 -12422513.61848  -9671679.33148  21739734.5144   21739738.0824   21739734.008
        53.0004         49.0004
 15  1  1  0  1 41.0000000  0 10G25G17G32G01G20G09G23G06G03G31
  -4159891.21547  -3215058.74546  23590579.3894   23590588.2734   23590578.978
        44.0004         40.0004
  -2572457.66647  -1966119.34346  24315368.3264   24315374.3634   24315366.726
        44.0004         40.0004
  -6733357.79348  -5226937.61447  22644847.8744   22644854.3094   22644848.883
        50.0004         45.0004
  -6551313.50847  -5051619.31046  23711546.2624   23711555.1654   23711546.676
        44.0004         39.0004
 -25211823.22449 -19582586.07548  20381588.7574   20381593.4774   20381589.059
        55.0004         51.0004
  -1582922.65947  -1220570.85546  24052820.3484   24052830.4304   24052819.305
        45.0004         40.0004
 -16696205.35548 -12951664.38648  21889197.6664   21889200.5874   21889198.076
        53.0004         48.0004
  -1228834.40048   -950182.65247  22560151.4384   22560158.4974   22560150.372
        50.0004         45.0004
 -20531209.02749 -15925675.05148  20438807.7574   20438814.0374   20438807.422
        57.0004         52.0004
 -12421590.42048  -9670959.95548  21739910.0564   21739913.4714   21739909.782
        53.0004         49.0004
 15  1  1  0  1 42.0000000  0 10G25G17G32G01G20G09G23G06G03G31
  -4159350.03947  -3214637.04546  23590681.8864   23590691.0004   23590681.655
        44.0004         40.0004
  -2569575.79347  -1963873.72746  24315916.3764   24315922.5724   24315915.147
        44.0004         40.0004
  -6730234.17348  -5224503.63147  22645441.8614   22645448.7194   22645443.080
        50.0004         45.0004
  -6547584.72747  -5048713.76446  23712256.1724   23712265.3414   23712256.164
        44.0004         39.0004
 -25212480.58549 -19583098.30348  20381463.9284   20381468.5474   20381464.005
        55.0004         51.0004
  -1586618.44147  -1223450.67546  24052116.4974   24052126.6504   24052116.057
        45.0004         40.0004
 -16698814.17248 -12953697.22648  21888701.1124   21888704.1574   21888701.655
        53.0004         48.0004
  -1231078.87848   -951931.59747  22559723.2104   22559731.6134   22559723.183
        50.0004         45.0004
 -20530366.04949 -15925018.18548  20438968.0774   20438974.5314   20438967.836
        57.0004         52.0004
 -12420665.60948  -9670239.32248  21740086.2334   21740089.6084   21740085.874
        53.0004         49.0004
 15  1  1  0  1 43.0000000  0 10G25G17G32G01G20G09G23G06G03G31
  -4158808.63747  -3214215.17446  23590784.8154   23590794.7614   23590784.800
        44.0004         40.0004
  -2566694.06747  -1961628.22846  24316463.9334   24316470.3254   24316463.473
        44.0004         40.0004
  -6727110.74948  -5222069.79447  22646036.8304   22646043.0624   22646037.276
        50.0004         45.0004
  -6543856.21847  -5045808.43646  23712965.7204   23712975.0544   23712965.680
        44.0004         39.0004
 -25213137.82849 -19583610.44248  20381338.5494   20381343.1224   20381339.048
        55.0004         51.0004
  -1590314.54847  -1226330.75046  24051412.7434   24051423.3754   24051412.827
        45.0004         40.0004
 -16701423.09348 -12955730.14948  21888204.9214   21888208.1274   21888205.195
        53.0004         48.0004
  -1233323.30748   -953680.50047  22559296.6024   22559303.4074   22559296.027
        50.0004         45.0004
 -20529522.96749 -15924361.24048  20439128.5344   20439134.9454   20439128.221
        57.0004         52.0004
 -12419740.61048  -9669518.54248  21740262.0544   21740265.7834   21740261.898
        53.0004         49.0004
 15  1  1  0  1 44.0000000  0 10G25G17G32G01G20G09G23G06G03G31
  -4158266.46347  -3213792.70146  23590887.5104   23590897.7334   23590887.791
        44.0004         40.0004
  -2563811.93347  -1959382.41046  24317011.2374   24317018.6374   24317011.674
        44.0004         40.0004
  -6723986.98248  -5219635.68847  22646631.2624   22646637.1324   22646631.632
        50.0004         45.0004
  -6540127.42847  -5042902.88946  23713676.2104   23713685.1684   23713675.376
        44.0004         39.0004
 -25213794.37749 -19584122.04048  20381213.8624   20381218.4604   20381214.213
        55.0004         51.0004
  -1594010.43047  -1229210.65146  24050708.9844   24050719.3964   24050709.263
        45.0004         40.0004
 -16704031.56748 -12957762.72048  21887708.7434   21887711.0884   21887708.847
        53.0004         48.0004
  -1235567.12448   -955428.92647  22558868.8904   22558876.7654   22558868.969
        50.0004         45.0004
 -20528679.23849 -15923703.78748  20439289.2414   20439295.4304   20439288.663
        57.0004         52.0004
 -12418814.87248  -9668797.18248  21740438.2914   21740441.6944   21740438.172
        53.0004         49.0004
 15  1  1  0  1 45.0000000  0 10G25G17G32G01G20G09G23G06G03G31
  -4157723.36747  -3213369.51146  23590990.5874   23591001.1654   23590990.998
        44.0004         40.0004
  -2560929.27047  -1957136.17946  24317559.6554   24317567.6984   24317559.984
        44.0004         40.0004
  -6720862.74748  -5217201.22147  22647226.0264   22647231.6694   22647226.116
        50.0004         45.0004
  -6536398.21547  -5039997.01146  23714385.5044   23714394.0914   23714385.123
        44.0004         39.0004
 -25214450.11749 -19584633.00748  20381089.2264   20381093.7454   20381089.502
        55.0004         51.0004
  -1597705.96347  -1232090.27846  24050006.4834   24050016.0194   24050005.966
        45.0004         40.0004
 -16706639.45348 -12959794.83848  21887211.8644   21887214.9224   21887212.642
        53.0004         48.0004
  -1237810.19248   -957176.77147  22558442.9494   22558450.1314   22558441.974
        50.0004         45.0004
 -20527834.70949 -15923045.71548  20439449.7584   20439456.3484   20439449.365
        57.0004         52.0004
 -12417888.25348  -9668075.14148  21740614.6634   21740618.1974   21740614.578
        53.0004         49.0004
 15  1  1  0  1 46.0000000  0 10G25G17G32G01G20G09G23G06G03G31
  -4157180.16847  -3212946.23846  23591094.2314   23591104.4754   23591094.215
        44.0004         40.0004
  -2558046.88547  -1954890.16646  24318107.7884   24318116.8274   24318108.507
        44.0004         39.0004
  -6717738.85548  -5214767.02047  22647820.5014   22647826.6324   22647820.633
        50.0004         45.0004
  -6532669.41347  -5037091.45446  23715095.1384   23715102.9434   23715094.835
        44.0004         39.0004
 -25215105.85349 -19585143.97148  20380964.1364   20380968.9074   20380964.770
        55.0004         51.0004
  -1601401.93247  -1234970.24746  24049303.2984   24049312.6184   24049302.283
        45.0004         40.0004
 -16709247.58048 -12961827.14248  21886715.7684   21886718.5684   21886716.342
        53.0004         48.0004
  -1240053.33448   -958924.66947  22558015.4304   22558023.6114   22558015.014
        50.0004         45.0004
 -20526990.21649 -15922387.66748  20439610.4514   20439616.8894   20439610.074
        57.0004         52.0004
 -12416961.57648  -9667353.05448  21740791.0604   21740794.0234   21740791.034
        53.0004         49.0004
 15  1  1  0  1 47.0000000  0 10G25G17G32G01G20G09G23G06G03G31
  -4156636.40747  -3212522.52946  23591197.8294   23591207.7824   23591197.748
        44.0004         40.0004
  -2555164.27047  -1952643.97446  24318655.6894   24318665.2424   24318656.547
        44.0004         39.0004
  -6714614.80248  -5212332.68747  22648414.5324   22648421.0514   22648415.279
        50.0004         45.0004
  -6528940.54347  -5034185.84646  23715804.0034   23715812.2574   23715804.359
        44.0004         39.0004
 -25215761.11349 -19585654.56148  20380839.6344   20380843.9464   20380840.126
        55.0004         51.0004
  -1605097.89147  -1237850.20746  24048599.5034   24048608.9174   24048598.648
        45.0004         40.0004
 -16711855.46548 -12963859.25448  21886219.6034   21886222.3454   21886220.097
        53.0004         48.0004
  -1242296.06948   -960672.25047  22557589.6844   22557596.4534   22557588.066
        50.0004         45.0004
 -20526145.27149 -15921729.26748  20439771.2864   20439777.8324   20439770.795
        57.0004         52.0004
 -12416034.34648  -9666630.53548  21740967.2734   21740970.7764   21740967.593
        53.0004         49.0004
 15  1  1  0  1 48.0000000  0 10G25G17G32G01G20G09G23G06G03G31
  -4156092.08147  -3212098.37746  23591301.2984   23591311.6854   23591301.592
        44.0004         40.0004
  -2552281.45547  -1950397.62646  24319204.3944   24319213.9054   24319204.917
        44.0004         39.0004
  -6711490.60648  -5209898.24647  22649009.0914   22649014.9134   22649009.866
        50.0004         45.0004
  -6525211.60547  -5031280.18246  23716512.4714   23716521.6144   23716513.735
        44.0004         39.0004
 -25216415.89249 -19586164.77948  20380714.6104   20380719.6904   20380715.499
        55.0004         51.0004
  -1608793.82147  -1240730.14546  24047896.5604   24047905.7314   24047895.318
        45.0004         40.0004
 -16714463.10548 -12965891.17748  21885723.3054   21885726.0434   21885723.861
        53.0004         48.0004
  -1244538.38448   -962419.50747  22557162.4984   22557170.4204   22557161.246
        50.0004         45.0004
 -20525299.87449 -15921070.51648  20439932.3354   20439938.6334   20439931.657
        57.0004         52.0004
 -12415106.58748  -9665907.60348  21741144.0674   21741147.3254   21741144.266
        53.0004         49.0004
 15  1  1  0  1 49.0000000  0 10G25G17G32G01G20G09G23G06G03G31
  -4155547.45547  -3211673.99346  23591405.4104   23591415.2264   23591405.393
        44.0004         40.0004
  -2549398.74047  -1948151.35546  24319753.5004   24319762.0874   24319753.296
        44.0004         39.0004
  -6708366.54448  -5207463.90747  22649603.7574   22649610.0874   22649604.365
        50.0004         45.0004
  -6521482.86247  -5028374.67246  23717222.7684   23717231.3674   23717223.318
        44.0004         39.0004
 -25217070.48149 -19586674.84748  20380590.5244   20380594.8754   20380590.879
        55.0004         51.0004
  -1612490.04147  -1243610.31046  24047192.8904   24047202.5424   24047191.611
        45.0004         40.0004
 -16717070.77748 -12967923.12648  21885227.1604   21885229.7684   21885227.614
        53.0004         48.0004
  -1246780.58748   -964166.67747  22556736.2854   22556743.2674   22556734.588
        50.0004         45.0004
 -20524454.31049 -15920411.63548  20440093.1894   20440099.4544   20440092.526
        57.0004         52.0004
 -12414178.57048  -9665184.46948  21741320.2914   21741323.9824   21741320.977
        53.0004         49.0004
 15  1  1  0  1 50.0000000  0 10G25G17G32G01G20G09G23G06G03G31
  -4155002.15747  -3211249.08446  23591509.5384   23591518.5714   23591509.307
        44.0004         40.0004
  -2546515.70647  -1945904.83646  24320303.0314   24320311.0704   24320302.026
        44.0004         39.0004
  -6705242.25848  -5205029.39947  22650197.4214   22650204.7504   22650198.914
        50.0004         45.0004
  -6517753.97047  -5025469.04546  23717933.4194   23717940.2884   23717932.759
        44.0004         39.0004
 -25217724.49349 -19587184.46648  20380466.0264   20380470.3414   20380466.459
        55.0004         51.0004
  -1616186.11847  -1246490.36346  24046488.7224   24046499.1734   24046487.927
        45.0004         40.0004
 -16719678.11348 -12969954.81248  21884730.8294   21884733.9954   21884731.387
        53.0004         48.0004
  -1249022.28348   -965913.45247  22556308.7324   22556316.9214   22556307.952
        50.0004         45.0004
 -20523608.20549 -15919752.33348  20440254.1364   20440260.6154   20440253.518
        57.0004         52.0004
 -12413249.91748  -9664460.84148  21741496.9784   21741500.4844   21741497.702
        53.0004         49.0004
 15  1  1  0  1 51.0000000  0 10G25G17G32G01G20G09G23G06G03G31
  -4154455.81547  -3210823.36246  23591614.1584   23591622.1924   23591613.396
        44.0004         40.0004
  -2543631.97947  -1943657.77546  24320851.7944   24320859.9214   24320850.676
        44.0004         40.0004
  -6702117.32948  -5202594.39247  22650793.3204   22650799.6424   22650793.529
        50.0004         45.0004
  -6514024.48647  -5022562.95646  23718642.8604   23718650.3454   23718642.243
        44.0004         39.0004
 -25218377.52649 -19587693.32448  20380341.5094   20380346.1664   20380342.233
        55.0004         51.0004
  -1619881.66447  -1249370.00246  24045785.9284   24045795.9974   24045784.481
        45.0004         40.0004
 -16722284.69948 -12971985.91948  21884235.2564   21884237.3904   21884235.347
        53.0004         48.0004
  -1251263.07348   -967659.51947  22555882.9634   22555890.1214   22555881.535
        50.0004         45.0004
 -20522761.15249 -15919092.29348  20440415.4264   20440421.6914   20440414.673
        57.0004         52.0004
 -12412320.22748  -9663736.40748  21741674.1114   21741677.2234   21741674.550
        53.0004         49.0004
 15  1  1  0  1 52.0000000  0 10G25G17G32G01G20G09G23G06G03G31
  -4153908.92247  -3210397.21046  23591717.8654   23591726.1614   23591717.649
        44.0004         40.0004
  -2540748.08447  -1941410.58346  24321400.9624   24321408.8294   24321399.499
        44.0004         40.0004
  -6698992.31148  -5200159.31147  22651386.9874   22651394.0964   22651388.185
        50.0004         45.0004
  -6510295.00047  -5019656.86546  23719352.7334   23719360.2364   23719351.752
        44.0004         39.0004
 -25219030.12749 -19588201.84448  20380217.5034   20380222.0124   20380218.062
        55.0004         51.0004
  -1623577.27547  -1252249.69146  24045082.8804   24045092.4924   24045081.132
        45.0004         40.0004
 -16724891.09648 -12974016.87748  21883739.0474   21883741.6594   21883739.273
        53.0004         48.0004
  -1253503.49848   -969405.31047  22555456.5264   22555464.3314   22555455.138
        50.0004         45.0004
 -20521913.69649 -15918431.93848  20440576.5844   20440583.1004   20440575.882
        57.0004         52.0004
 -12411390.04448  -9663011.58648  21741850.9994   21741854.3914   21741851.415
        53.0004         49.0004
 15  1  1  0  1 53.0000000  0 10G25G17G32G01G20G09G23G06G03G31
  -4153361.05847  -3209970.30246  23591822.1704   23591830.8744   23591822.044
        44.0004         40.0004
  -2537863.57247  -1939162.91146  24321950.0064   24321957.9294   24321948.419
        44.0004         40.0004
  -6695866.74148  -5197723.80247  22651982.0424   22651987.6684   22651982.852
        50.0004         45.0004
  -6506565.02147  -5016750.38846  23720061.8624   23720070.8944   23720061.444
        44.0004         39.0004
 -25219681.83149 -19588709.66248  20380093.4024   20380098.1984   20380094.081
        55.0004         51.0004
  -1627272.42447  -1255129.01846  24044379.5884   24044389.6694   24044377.881
        45.0004         40.0004
 -16727496.83748 -12976047.32248  21883243.4174   21883245.5444   21883243.406
        53.0004         48.0004
  -1255743.10648   -971150.45647  22555029.9594   22555037.9504   22555028.970
        50.0004         45.0004
 -20521065.37349 -15917770.90548  20440737.9814   20440744.6274   20440737.279
        57.0004         52.0004
 -12410458.90048  -9662286.01748  21742028.2014   21742031.5544   21742028.385
        53.0004         49.0004
 15  1  1  0  1 54.0000000  0 10G25G17G32G01G20G09G23G06G03G31
  -4152812.63947  -3209542.96246  23591926.3934   23591935.6204   23591926.565
        44.0004         40.0004
  -2534978.86447  -1936915.08846  24322498.7674   24322507.5554   24322497.787
        44.0004         39.0004
  -6692741.05048  -5195288.20347  22652577.1034   22652583.7944   22652577.480
        50.0004         45.0004
  -6502834.97047  -5013843.85746  23720771.5374   23720781.0084   23720771.144
        44.0004         39.0004
 -25220333.07749 -19589217.12748  20379969.5754   20379974.3064   20379970.169
        55.0004         51.0004
  -1630967.59247  -1258008.36346  24043676.5154   24043686.6894   24043674.839
        45.0004         40.0004
 -16730102.34948 -12978077.58848  21882747.5404   21882749.9394   21882747.572
        53.0004         48.0004
  -1257982.32448   -972895.30647  22554604.8314   22554611.5934   22554603.050
        50.0004         45.0004
 -20520216.61349 -15917109.53648  20440899.4364   20440905.8584   20440898.778
        57.0004         52.0004
 -12409527.24148  -9661560.04948  21742205.4824   21742208.6544   21742205.512
        53.0004         49.0004
 15  1  1  0  1 55.0000000  0 10G25G17G32G01G20G09G23G06G03G31
  -4152263.36547  -3209114.95446  23592031.3584   23592039.9264   23592031.448
        44.0004         40.0004
  -2532093.70647  -1934666.91446  24323047.8044   24323057.1554   24323047.373
        44.0004         39.0004
  -6689614.91948  -5192852.24947  22653172.2134   22653178.0764   22653172.301
        50.0004         45.0004
  -6499104.59347  -5010937.07046  23721481.8554   23721490.1754   23721480.974
        44.0004         39.0004
 -25220983.55649 -19589723.99448  20379845.7514   20379850.3924   20379846.442
        55.0004         51.0004
  -1634662.42647  -1260887.44646  24042973.5594   24042983.0524   24042971.649
        45.0004         40.0004
 -16732707.33048 -12980107.44048  21882251.8274   21882254.2044   21882251.928
        53.0004         48.0004
  -1260220.84848   -974639.60747  22554178.9054   22554186.3654   22554177.231
        50.0004         45.0004
 -20519367.12549 -15916447.59748  20441061.2584   20441067.7074   20441060.429
        57.0004         52.0004
 -12408594.75448  -9660833.43648  21742382.9184   21742386.3664   21742382.809
        53.0004         49.0004
 15  1  1  0  1 56.0000000  0 10G25G17G32G01G20G09G23G06G03G31
  -4151713.56047  -3208686.53346  23592136.3624   23592144.0854   23592136.394
        44.0004         40.0004
  -2529208.37847  -1932418.60646  24323596.5254   24323606.1884   24323596.525
        44.0004         40.0004
  -6686488.69848  -5190416.23347  22653766.7814   22653772.8624   22653767.045
        50.0004         45.0004
  -6495374.15847  -5008030.24146  23722190.4364   23722200.9624   23722190.800
        44.0004         39.0004
 -25221633.60549 -19590230.52748  20379721.9864   20379726.6854   20379722.780
        55.0004         51.0004
  -1638357.28147  -1263766.54746  24042270.6894   24042279.7924   24042268.858
        45.0004         40.0004
 -16735312.10548 -12982137.13448  21881756.1704   21881758.4274   21881756.314
        53.0004         48.0004
  -1262459.01648   -976383.63147  22553752.6834   22553759.6764   22553751.377
        50.0004         45.0004
 -20518517.23149 -15915785.34248  20441222.8014   20441229.3774   20441222.192
        57.0004         52.0004
 -12407661.76948  -9660106.43348  21742560.5034   21742564.0484   21742560.244
        53.0004         49.0004
 15  1  1  0  1 57.0000000  0 10G25G17G32G01G20G09G23G06G03G31
  -4151162.98047  -3208257.50846  23592241.3874   23592248.9364   23592241.472
        44.0004         40.0004
  -2526322.60747  -1930169.95546  24324145.3784   24324155.5924   24324145.417
        44.0004         40.0004
  -6683362.14748  -5187979.96347  22654362.2074   22654368.0854   22654361.921
        50.0004         45.0004
  -6491643.45747  -5005123.20446  23722901.0244   23722910.2384   23722900.516
        44.0004         39.0004
 -25222282.97549 -19590736.52948  20379598.5074   20379603.0984   20379599.260
        55.0004         51.0004
  -1642051.93147  -1266645.48746  24041567.4974   24041576.8714   24041565.831
        44.0004         40.0004
 -16737916.43548 -12984166.48348  21881260.1104   21881262.9804   21881260.835
        53.0004         48.0004
  -1264696.57048   -978127.18347  22553327.1374   22553333.9664   22553325.547
        50.0004         45.0004
 -20517666.68849 -15915122.58348  20441384.7434   20441391.2174   20441384.109
        57.0004         52.0004
 -12406728.04748  -9659378.85748  21742737.9864   21742741.6344   21742737.748
        53.0004         49.0004
 15  1  1  0  1 58.0000000  0 10G25G17G32G01G20G09G23G06G03G31
  -4150612.00847  -3207828.18046  23592346.6084   23592354.2394   23592346.761
        44.0004         40.0004
  -2523436.84847  -1927921.31446  24324694.4224   24324704.4264   24324694.317
        44.0004         40.0004
  -6680235.60948  -5185543.69847  22654956.6164   22654962.9554   22654956.829
        50.0004         45.0004
  -6487912.86847  -5002216.25446  23723611.2254   23723620.8304   23723610.500
        44.0004         39.0004
 -25222932.03949 -19591242.29448  20379474.9174   20379479.5654   20379475.789
        55.0004         51.0004
  -1645746.72247  -1269524.53646  24040865.0044   24040874.0734   24040863.233
        44.0004         40.0004
 -16740520.69848 -12986195.77448  21880765.3844   21880767.4394   21880765.319
        53.0004         48.0004
  -1266933.88448   -979870.54047  22552900.6434   22552908.1124   22552899.937
        50.0004         45.0004
 -20516815.86649 -15914459.60448  20441546.8294   20441553.1184   20441546.068
        57.0004         52.0004
 -12405793.95348  -9658650.98948  21742915.8394   21742919.8944   21742915.407
        53.0004         49.0004
 15  1  1  0  1 59.0000000  0 10G25G17G32G01G20G09G23G06G03G31
  -4150060.27947  -3207398.26046  23592451.1004   23592458.9474   23592451.979
        44.0004         40.0004
  -2520550.69647  -1925672.36646  24325243.4564   24325253.1314   24325242.975
        44.0004         40.0004
  -6677108.76548  -5183107.19447  22655552.5654   22655558.1664   22655551.770
        50.0004         45.0004
  -6484182.02547  -4999309.10646  23724321.2304   23724330.5724   23724320.564
        44.0004         39.0004
 -25223580.45949 -19591747.55348  20379351.4594   20379356.2994   20379352.373
        55.0004         51.0004
  -1649441.33147  -1272403.44246  24040162.0664   24040171.4004   24040160.333
        44.0004         40.0004
 -16743124.55348 -12988224.74948  21880269.8444   21880272.0774   21880269.875
        53.0004         48.0004
  -1269170.62948   -981613.45947  22552475.8964   22552482.7344   22552474.348
        50.0004         45.0004
 -20515964.42749 -15913796.14248  20441708.6554   20441715.0924   20441708.128
        57.0004         52.0004
 -12404859.16048  -9657922.57348  21743093.3584   21743097.3154   21743093.211
        53.0004         49.0004
 15  1  1  0  2  0.0000000  0 10G25G17G32G01G20G09G23G06G03G31
  -4149507.66447  -3206967.64946  23592555.4494   23592562.9034   23592557.088
        44.0004         40.0004
  -2517664.02547  -1923423.01646  24325793.1384   24325803.1494   24325792.428
        44.0004         40.0004
  -6673981.45648  -5180670.32947  22656146.6854   22656152.5934   22656146.880
        50.0004         45.0004
  -6480450.78347  -4996401.64546  23725031.1444   23725039.9894   23725030.684
        44.0004         39.0004
 -25224228.08149 -19592252.19248  20379228.3344   20379232.9284   20379229.103
        55.0004         51.0004
  -1653135.60847  -1275282.09046  24039459.0704   24039468.7604   24039457.759
        44.0004         40.0004
 -16745727.84248 -12990253.28448  21879774.1324   21879776.3674   21879774.585
        53.0004         48.0004
  -1271406.64148   -983355.80447  22552050.3464   22552057.2374   22552048.917
        50.0004         45.0004
 -20515112.23049 -15913132.09148  20441870.7194   20441877.3804   20441870.324
        57.0004         52.0004
 -12403923.51248  -9657193.49548  21743271.4804   21743275.4344   21743271.142
        53.0004         49.0004
 15  1  1  0  2  1.0000000  0 10G25G17G32G01G20G09G23G06G03G31
  -4148954.22847  -3206536.39946  23592660.7514   23592668.1984   23592662.499
        44.0004         40.0004
  -2514776.90347  -1921173.31346  24326342.8944   24326352.9024   24326341.779
        44.0004         40.0004
  -6670853.73048  -5178233.13847  22656742.5924   22656748.0174   22656742.208
        50.0004         45.0004
  -6476719.21747  -4993493.93146  23725741.2894   23725750.0814   23725740.846
        44.0004         39.0004
 -25224874.95149 -19592756.24448  20379105.3374   20379109.5164   20379106.031
        55.0004         51.0004
  -1656829.56747  -1278160.49146  24038756.2674   24038765.8174   24038755.132
        44.0004         40.0004
 -16748330.60848 -12992281.40948  21879279.1224   21879281.1664   21879279.298
        53.0004         48.0004
  -1273641.96948   -985097.62247  22551624.5734   22551631.9984   22551623.683
        50.0004         45.0004
 -20514259.29149 -15912467.46348  20442033.1104   20442039.6394   20442032.638
        57.0004         52.0004
 -12402987.04348  -9656463.78048  21743449.8254   21743453.5824   21743449.167
        53.0004         49.0004
 15  1  1  0  2  2.0000000  0 10G25G17G32G01G20G09G23G06G03G31
  -4148399.81547  -3206104.38746  23592766.2224   23592773.8374   23592767.955
        44.0004         40.0004
  -2511889.19447  -1918923.15446  24326893.3734   24326902.4064   24326891.560
        44.0004         40.0004
  -6667725.50648  -5175795.56047  22657337.8014   22657343.7094   22657337.717
        50.0004         45.0004
  -6472987.20547  -4990585.86446  23726452.4514   23726460.5964   23726451.050
        44.0004         39.0004
 -25225520.96349 -19593259.63148  20378982.3284   20378986.7934   20378983.069
        55.0004         51.0004
  -1660523.16247  -1281038.60846  24038053.9214   24038063.2714   24038052.935
        44.0004         40.0004
 -16750932.75748 -12994309.05748  21878783.9644   21878786.1134   21878784.106
        53.0004         48.0004
  -1275876.51748   -986838.82647  22551199.8744   22551205.9424   22551198.612
        50.0004         45.0004
 -20513405.54449 -15911802.20648  20442195.7964   20442202.0584   20442195.097
        57.0004         52.0004
 -12402049.66848  -9655733.35948  21743628.2504   21743631.7954   21743627.393
        53.0004         49.0004
 15  1  1  0  2  3.0000000  0 10G25G17G32G01G20G09G23G06G03G31
  -4147844.57347  -3205671.72946  23592871.5524   23592879.0654   23592873.126
        44.0004         40.0004
  -2509001.01347  -1916672.62746  24327443.2294   24327452.1304   24327441.789
        44.0004         40.0004
  -6664596.86648  -5173357.66047  22657933.3224   22657938.9894   22657933.320
        50.0004         45.0004
  -6469254.84347  -4987677.53146  23727161.8124   23727170.3064   23727161.132
        44.0004         39.0004
 -25226166.22849 -19593762.43548  20378859.4824   20378863.9864   20378860.276
        55.0004         51.0004
  -1664216.43847  -1283916.47746  24037350.9414   24037360.5074   24037350.199
        44.0004         40.0004
 -16753534.40448 -12996336.31048  21878288.6014   21878290.9304   21878288.997
        53.0004         48.0004
  -1278110.40148   -988579.51547  22550774.1274   22550782.5164   22550773.648
        50.0004         45.0004
 -20512551.06649 -15911136.37848  20442358.0964   20442364.7024   20442357.731
        57.0004         52.0004
 -12401111.48548  -9655002.30848  21743806.6564   21743810.7774   21743805.694
        53.0004         49.0004
 15  1  1  0  2  4.0000000  0 10G25G17G32G01G20G09G23G06G03G31
  -4147288.33847  -3205238.29946  23592977.4544   23592985.4614   23592978.925
        44.0004         40.0004
  -2506112.20347  -1914421.61146  24327992.8444   24328001.9204   24327991.767
        44.0004         40.0004
  -6661467.65248  -5170919.30547  22658528.3284   22658534.7004   22658528.929
        50.0004         45.0004
  -6465522.01347  -4984768.83346  23727872.4834   23727881.1634   23727871.484
        44.0004         39.0004
 -25226810.60049 -19594264.54148  20378736.8414   20378741.3874   20378737.660
        55.0004         51.0004
  -1667909.28547  -1286794.00946  24036647.6354   24036656.8964   24036647.414
        44.0004         40.0004
 -16756135.37748 -12998363.03748  21877794.1684   21877795.5884   21877794.023
        53.0004         48.0004
  -1280343.45448   -990319.55447  22550349.1114   22550355.4994   22550348.984
        50.0004         45.0004
 -20511695.73449 -15910469.88548  20442521.0104   20442527.4424   20442520.501
        57.0004         52.0004
 -12400172.34248  -9654270.50848  21743985.2244   21743989.4104   21743984.327
        53.0004         49.0004
 15  1  1  0  2  5.0000000  0 10G25G17G32G01G20G09G23G06G03G31
  -4146731.73947  -3204804.58646  23593083.5104   23593091.7394   23593084.515
        44.0004         40.0004
  -2503223.40347  -1912170.60646  24328542.9434   24328551.1244   24328541.769
        44.0004         40.0004
  -6658338.49548  -5168480.99847  22659123.6444   22659130.4514   22659124.409
        50.0004         45.0004
  -6461789.30547  -4981860.23046  23728582.8944   23728592.0634   23728581.730
        44.0004         39.0004
 -25227454.68749 -19594766.42848  20378614.0084   20378618.7214   20378615.107
        55.0004         51.0004
  -1671602.30747  -1289671.68146  24035944.9594   24035954.6174   24035944.826
        44.0004         40.0004
 -16758736.30148 -13000389.73048  21877298.5814   21877301.2824   21877299.105
        53.0004         48.0004
  -1282576.28248   -992059.41647  22549924.5904   22549932.4414   22549924.235
        50.0004         45.0004
 -20510840.13849 -15909803.18648  20442683.6474   20442690.3064   20442683.387
        57.0004         52.0004
 -12399232.85548  -9653538.43848  21744164.0904   21744168.1294   21744163.141
        53.0004         49.0004
 15  1  1  0  2  6.0000000  0 10G25G17G32G01G20G09G23G06G03G31
  -4146173.52947  -3204369.61546  23593189.4754   23593197.6394   23593190.521
        44.0004         40.0004
  -2500333.38547  -1909918.64846  24329092.3874   24329100.6314   24329091.658
        44.0004         40.0004
  -6655208.18648  -5166041.79447  22659719.3194   22659725.8544   22659720.060
        50.0004         45.0004
  -6458055.49247  -4978950.76346  23729293.7734   23729302.0654   23729292.221
        44.0004         39.0004
 -25228097.27049 -19595267.14248  20378492.0074   20378496.6714   20378492.898
        55.0004         51.0004
  -1675294.28147  -1292548.53546  24035241.9914   24035251.5174   24035242.322
        44.0004         40.0004
 -16761335.95948 -13002415.43648  21876803.8484   21876806.0804   21876804.386
        53.0004         48.0004
  -1284807.69648   -993798.18047  22549499.5594   22549507.4014   22549499.764
        50.0004         45.0004
 -20509983.07949 -15909135.34848  20442846.8214   20442853.4734   20442846.414
        57.0004         52.0004
 -12398291.81548  -9652805.16048  21744343.3154   21744347.1014   21744342.267
        53.0004         49.0004
 15  1  1  0  2  7.0000000  0 10G25G17G32G01G20G09G23G06G03G31
  -4145615.41847  -3203934.72246  23593296.0134   23593303.2534   23593296.408
        44.0004         40.0004
  -2497443.80047  -1907667.02946  24329642.3404   24329650.0474   24329641.373
        44.0004         40.0004
  -6652078.37948  -5163602.98247  22660315.0234   22660321.5074   22660315.507
        50.0004         45.0004
  -6454322.26847  -4976041.76046  23730004.2934   23730012.5224   23730002.419
        44.0004         39.0004
 -25228740.03549 -19595767.99948  20378369.7694   20378374.0894   20378370.664
        55.0004         51.0004
  -1678986.88147  -1295425.87946  24034538.9814   24034548.2894   24034539.636
        44.0004         40.0004
 -16763936.03548 -13004441.46648  21876309.7824   21876312.1934   21876309.566
        53.0004         48.0004
  -1287039.34448   -995537.12847  22549075.3204   22549081.9384   22549075.264
        50.0004         45.0004
 -20509126.21449 -15908467.66148  20443009.9084   20443016.5224   20443009.379
        57.0004         52.0004
 -12397350.88848  -9652071.97248  21744522.1404   21744526.0684   21744521.356
        53.0004         49.0004
 15  1  1  0  2  8.0000000  0 10G25G17G32G01G20G09G23G06G03G31
  -4145056.36047  -3203499.09346  23593402.4134   23593410.2074   23593402.650
        44.0004         40.0004
  -2494553.66747  -1905414.98046  24330192.1404   24330199.2684   24330191.001
        44.0004         40.0004
  -6648948.06448  -5161163.77947  22660910.4854   22660917.7534   22660910.934
        50.0004         45.0004
  -6450588.60047  -4973132.40846  23730714.7874   23730723.3934   23730712.801
        44.0004         39.0004
 -25229381.94149 -19596268.18548  20378247.4214   20378252.0954   20378248.605
        55.0004         51.0004
  -1682679.10947  -1298302.93146  24033836.4004   24033845.5374   24033836.854
        44.0004         40.0004
 -16766535.49548 -13006467.01648  21875814.5034   21875816.8124   21875814.906
        53.0004         48.0004
  -1289270.20848   -997275.46547  22548650.1464   22548658.1934   22548650.785
        50.0004         45.0004
 -20508268.54349 -15907799.34548  20443173.0934   20443179.6384   20443172.517
        57.0004         52.0004
 -12396409.05448  -9651338.07448  21744701.4324   21744705.5584   21744700.658
        53.0004         49.0004
 15  1  1  0  2  9.0000000  0 10G25G17G32G01G20G09G23G06G03G31
  -4144496.90947  -3203063.15546  23593508.7004   23593517.1924   23593508.950
        44.0004         40.0004
  -2491663.47447  -1903162.88846  24330741.5994   24330748.9744   24330740.755
        44.0004         40.0004
  -6645817.78148  -5158724.59147  22661506.0694   22661512.9224   22661506.506
        50.0004         45.0004
  -6446855.02647  -4970223.12946  23731425.1114   23731433.9494   23731423.181
        44.0004         39.0004
 -25230023.54249 -19596768.13348  20378125.3934   20378130.0584   20378126.550
        55.0004         51.0004
  -1686371.49647  -1301180.10746  24033134.0174   24033143.1004   24033134.185
        44.0004         40.0004
 -16769134.87948 -13008492.50848  21875319.9264   21875322.3084   21875320.293
        53.0004         48.0004
  -1291500.84948   -999013.62347  22548225.9904   22548233.0864   22548226.319
        50.0004         45.0004
 -20507410.57649 -15907130.80048  20443336.2604   20443342.9504   20443335.730
        57.0004         52.0004
 -12395466.84948  -9650603.88548  21744880.7934   21744884.4824   21744880.042
        53.0004         49.0004
 15  1  1  0  2 10.0000000  0 10G25G17G32G01G20G09G23G06G03G31
  -4143936.61647  -3202626.56046  23593615.1054   23593623.2704   23593615.484
        44.0004         40.0004
  -2488772.84747  -1900910.45546  24331292.1064   24331298.8574   24331290.653
        44.0004         40.0004
  -6642687.10248  -5156285.10847  22662102.3094   22662109.0414   22662102.161
        50.0004         45.0004
  -6443121.14247  -4967313.61146  23732136.1014   23732145.0554   23732133.768
        44.0004         39.0004
 -25230664.40649 -19597267.50748  20378003.5344   20378007.8404   20378004.611
        55.0004         51.0004
  -1690063.59447  -1304057.05846  24032430.7814   24032440.2894   24032431.485
        44.0004         40.0004
 -16771733.77648 -13010517.61848  21874825.1124   21874827.9084   21874825.792
        53.0004         48.0004
  -1293730.82248  -1000751.26547  22547802.4404   22547809.1674   22547801.876
        50.0004         45.0004
 -20506551.92649 -15906461.72048  20443499.6484   20443506.3714   20443499.131
        57.0004         52.0004
 -12394523.86248  -9649869.08648  21745060.0674   21745064.4664   21745059.540
        53.0004         49.0004
 15  1  1  0  2 11.0000000  0 10G25G17G32G01G20G09G23G06G03G31
  -4143375.46747  -3202189.29846  23593722.3084   23593730.3024   23593722.067
        44.0004         40.0004
  -2485881.70847  -1898657.62346  24331842.8344   24331848.9834   24331840.652
        44.0004         40.0004
  -6639555.98548  -5153845.27347  22662699.0434   22662704.2134   22662697.971
        50.0004         45.0004
  -6439386.87347  -4964403.79046  23732847.0084   23732855.6924   23732844.192
        44.0004         39.0004
 -25231304.49749 -19597766.28048  20377881.9384   20377886.2644   20377882.786
        55.0004         51.0004
  -1693755.35247  -1306933.74546  24031728.4994   24031737.8554   24031728.868
        44.0004         40.0004
 -16774332.12548 -13012542.30448  21874331.0294   21874333.4524   21874331.422
        53.0004         48.0004
  -1295960.09648  -1002488.35747  22547378.0904   22547384.8254   22547377.401
        50.0004         45.0004
 -20505692.50849 -15905792.04548  20443663.1664   20443669.9074   20443662.682
        57.0004         52.0004
 -12393580.02348  -9649133.62948  21745239.8654   21745243.7444   21745239.257
        53.0004         49.0004
 15  1  1  0  2 12.0000000  0 10G25G17G32G01G20G09G23G06G03G31
  -4142814.02147  -3201751.80546  23593829.5884   23593837.4294   23593829.113
        44.0004         40.0004
  -2482990.63947  -1896404.84346  24332392.7564   24332399.2124   24332390.675
        44.0004         40.0004
  -6636424.99548  -5151405.54447  22663293.6244   22663300.0394   22663293.867
        50.0004         45.0004
  -6435652.81547  -4961494.13646  23733558.3104   23733566.4604   23733554.847
        44.0004         39.0004
 -25231944.37749 -19598264.88648  20377759.9364   20377764.3934   20377760.985
        55.0004         51.0004
  -1697447.38147  -1309810.64446  24031026.1964   24031035.1964   24031026.164
        44.0004         40.0004
 -16776930.49848 -13014567.00648  21873836.4734   21873839.0134   21873836.947
        53.0004         48.0004
  -1298189.22448  -1004225.33847  22546953.9724   22546960.4414   22546953.029
        50.0004         45.0004
 -20504832.92549 -15905122.24048  20443826.7684   20443833.4794   20443826.281
        57.0004         52.0004
 -12392635.93048  -9648397.97248  21745419.7774   21745423.2454   21745418.953
        53.0004         49.0004
 15  1  1  0  2 13.0000000  0 10G25G17G32G01G20G09G23G06G03G31
  -4142251.90847  -3201313.79446  23593935.9454   23593944.4824   23593936.097
        44.0004         40.0004
  -2480099.29347  -1894151.85046  24332943.4444   24332949.4934   24332940.984
        44.0004         40.0004
  -6633293.78248  -5148965.63647  22663890.0984   22663895.4044   22663889.864
        50.0004         45.0004
  -6431918.58347  -4958584.34946  23734268.2744   23734278.0144   23734265.619
        44.0004         39.0004
 -25232583.69549 -19598763.05648  20377638.1414   20377642.9564   20377639.303
        55.0004         51.0004
  -1701139.28847  -1312687.44946  24030323.9974   24030332.7924   24030323.449
        44.0004         40.0004
 -16779528.53648 -13016591.45148  21873342.0014   21873344.3564   21873342.449
        53.0004         48.0004
  -1300417.85348  -1005961.93147  22546529.3024   22546537.3204   22546528.731
        50.0004         45.0004
 -20503972.80349 -15904452.01548  20443990.4004   20443997.1534   20443989.965
        57.0004         52.0004
 -12391691.21348  -9647661.82848  21745599.4154   21745603.2254   21745598.745
        53.0004         49.0004
 15  1  1  0  2 14.0000000  0 10G25G17G32G01G20G09G23G06G03G31
  -4141688.83447  -3200875.03246  23594042.7374   23594051.6004   23594043.278
        44.0004         40.0004
  -2477207.36547  -1891898.40246  24333494.0954   24333500.1314   24333491.232
        44.0004         40.0004
  -6630162.03448  -5146525.30947  22664485.1464   22664491.9154   22664485.900
        50.0004         45.0004
  -6428183.89147  -4955674.20446  23734978.6714   23734988.1684   23734976.538
        44.0004         39.0004
 -25233222.14149 -19599260.54648  20377516.8404   20377521.3154   20377517.747
        55.0004         51.0004
  -1704830.79847  -1315563.94246  24029621.8984   24029630.0164   24029620.807
        44.0004         40.0004
 -16782125.93548 -13018615.39348  21872847.6604   21872850.3764   21872848.078
        53.0004         48.0004
  -1302645.68748  -1007697.90447  22546105.1204   22546112.9164   22546104.597
        50.0004         45.0004
 -20503111.83949 -15903781.13448  20444154.3744   20444161.0144   20444153.844
        57.0004         52.0004
 -12390745.55248  -9646924.94648  21745779.2334   21745783.0134   21745778.782
        53.0004         49.0004
 15  1  1  0  2 15.0000000  0 10G25G17G32G01G20G09G23G06G03G31
  -4141125.50247  -3200436.06946  23594150.6644   23594159.0984   23594150.627
        44.0004         40.0004
  -2474315.53447  -1889645.02946  24334044.8814   24334050.2114   24334041.756
        44.0004         40.0004
  -6627030.43948  -5144085.10647  22665081.2904   22665087.1174   22665081.907
        50.0004         45.0004
  -6424449.47647  -4952764.27646  23735689.1344   23735697.6044   23735687.263
        44.0004         39.0004
 -25233860.41249 -19599757.90048  20377395.1614   20377399.9424   20377396.258
        55.0004         51.0004
  -1708522.58847  -1318440.65446  24028919.3954   24028928.0264   24028918.163
        44.0004         40.0004
 -16784723.39348 -13020639.38448  21872353.0284   21872356.0444   21872353.679
        53.0004         48.0004
  -1304873.41548  -1009433.79447  22545681.5024   22545688.6064   22545680.483
        50.0004         45.0004
 -20502250.72849 -15903110.14048  20444318.1554   20444324.7614   20444317.685
        57.0004         52.0004
 -12389799.67348  -9646187.89948  21745959.4784   21745963.2394   21745958.810
        53.0004         49.0004
 15  1  1  0  2 16.0000000  0 10G25G17G32G01G20G09G23G06G03G31
  -4140561.43747  -3199996.53646  23594258.4284   23594266.5494   23594258.146
        44.0004         40.0004
  -2471423.34247  -1887391.37646  24334594.8084   24334600.3924   24334592.131
        44.0004         40.0004
  -6623898.58148  -5141644.68947  22665677.3914   22665684.6734   22665677.905
        50.0004         45.0004
  -6420714.79247  -4949854.13746  23736399.3474   23736407.6784   23736398.527
        44.0004         39.0004
 -25234498.06149 -19600254.76948  20377273.8264   20377278.5024   20377274.896
        55.0004         51.0004
  -1712214.19147  -1321317.22346  24028217.5174   24028225.7684   24028215.841
        44.0004         40.0004
 -16787320.44948 -13022663.06048  21871859.3984   21871861.7844   21871859.429
        53.0004         48.0004
  -1307100.57948  -1011169.24847  22545257.2004   22545265.0334   22545256.521
        50.0004         45.0004
 -20501389.02349 -15902438.68148  20444482.0434   20444488.6354   20444481.620
        57.0004         52.0004
 -12388853.10448  -9645450.31048  21746139.3534   21746143.4834   21746138.957
        53.0004         49.0004
 15  1  1  0  2 17.0000000  0 10G25G17G32G01G20G09G23G06G03G31
  -4139996.92247  -3199556.65146  23594365.6584   23594374.2614   23594365.542
        44.0004         40.0004
  -2468531.06647  -1885137.65746  24335144.5784   24335150.5814   24335142.380
        44.0004         40.0004
  -6620766.68848  -5139204.25747  22666273.2404   22666279.6994   22666273.835
        50.0004         45.0004
  -6416980.18147  -4946944.05746  23737108.9784   23737118.8994   23737109.448
        44.0004         39.0004
 -25235135.33949 -19600751.34948  20377152.6764   20377157.3304   20377153.608
        55.0004         51.0004
  -1715905.88147  -1324193.86246  24027514.8044   24027523.0064   24027513.255
        44.0004         40.0004
 -16789917.38148 -13024686.64448  21871365.0544   21871367.8434   21871365.167
        53.0004         48.0004
  -1309327.45748  -1012904.47547  22544833.2614   22544842.1394   22544832.592
        50.0004         45.0004
 -20500526.99149 -15901766.96748  20444646.2454   20444652.7904   20444645.642
        57.0004         52.0004
 -12387906.11448  -9644712.39148  21746319.7394   21746323.2984   21746319.195
        53.0004         49.0004
 15  1  1  0  2 18.0000000  0 10G25G17G32G01G20G09G23G06G03G31
  -4139431.81947  -3199116.30946  23594472.9374   23594481.3824   23594473.050
        44.0004         40.0004
  -2465638.56647  -1882883.76546  24335694.6134   24335701.1834   24335692.697
        44.0004         40.0004
  -6617634.64148  -5136763.70247  22666869.8994   22666875.7464   22666869.781
        50.0004         45.0004
  -6413245.47947  -4944033.90646  23737819.8154   23737829.8424   23737820.432
        44.0004         39.0004
 -25235772.13349 -19601247.55048  20377031.3714   20377036.0754   20377032.378
        55.0004         51.0004
  -1719597.56747  -1327070.49646  24026811.8234   24026820.3574   24026810.930
        44.0004         40.0004
 -16792514.05748 -13026710.02148  21870870.6464   21870873.1864   21870871.005
        53.0004         48.0004
  -1311553.91048  -1014639.36747  22544410.2334   22544417.1464   22544408.810
        50.0004         45.0004
 -20499664.48949 -15901094.88648  20444810.2754   20444816.7784   20444809.711
        57.0004         52.0004
 -12386958.57248  -9643974.04348  21746500.3544   21746504.0724   21746499.434
        53.0004         49.0004
 15  1  1  0  2 19.0000000  0 10G25G17G32G01G20G09G23G06G03G31
  -4138865.61247  -3198675.10546  23594580.6084   23594588.8714   23594580.757
        44.0004         40.0004
  -2462745.36447  -1880629.32546  24336245.2414   24336251.3804   24336243.004
        44.0004         40.0004
  -6614501.92148  -5134322.61847  22667465.3824   22667472.2874   22667465.935
        50.0004         45.0004
  -6409510.17947  -4941123.28646  23738530.9344   23738540.6484   23738531.603
        44.0004         39.0004
 -25236407.91249 -19601742.96048  20376910.3674   20376915.0034   20376911.414
        55.0004         51.0004
  -1723288.67047  -1329946.67346  24026108.8984   24026117.9734   24026108.364
        44.0004         40.0004
 -16795109.94848 -13028732.79048  21870376.7854   21870379.4654   21870376.989
        53.0004         48.0004
  -1313779.42348  -1016373.52847  22543986.6104   22543994.0224   22543985.275
        50.0004         45.0004
 -20498801.00549 -15900422.04248  20444974.6204   20444981.1444   20444974.024
        57.0004         52.0004
 -12386009.95048  -9643234.85648  21746680.7434   21746684.2414   21746679.944
        53.0004         49.0004
 15  1  1  0  2 20.0000000  0 10G25G17G32G01G20G09G23G06G03G31
  -4138298.16247  -3198232.93346  23594688.7614   23594696.9744   23594688.811
        44.0004         40.0004
  -2459851.26147  -1878374.18246  24336796.7794   24336802.0334   24336794.038
        44.0004         40.0004
  -6611368.38748  -5131880.90447  22668061.7694   22668068.0924   22668062.107
        50.0004         45.0004
  -6405774.12847  -4938212.08446  23739241.6184   23739251.9634   23739242.903
        44.0004         39.0004
 -25237042.52349 -19602237.46448  20376789.6674   20376794.1544   20376790.645
        55.0004         51.0004
  -1726979.08247  -1332822.31246  24025406.7614   24025415.3924   24025406.195
        44.0004         40.0004
 -16797704.92348 -13030754.84548  21869883.2524   21869885.4924   21869883.161
        53.0004         48.0004
  -1316003.85448  -1018106.84947  22543562.8194   22543571.1614   22543561.880
        50.0004         45.0004
 -20497936.39249 -15899748.31848  20445139.1564   20445145.9834   20445138.580
        57.0004         52.0004
 -12385060.13048  -9642494.73748  21746861.1094   21746865.5014   21746860.754
        53.0004         49.0004
 15  1  1  0  2 21.0000000  0 10G25G17G32G01G20G09G23G06G03G31
  -4137730.38147  -3197790.50446  23594796.0954   23594804.5124   23594796.856
        44.0004         40.0004
  -2456957.17747  -1876119.05846  24337347.1694   24337352.4614   24337344.651
        44.0004         40.0004
  -6608234.96048  -5129439.27147  22668658.5474   22668664.9234   22668658.369
        50.0004         45.0004
  -6402038.24347  -4935301.01046  23739952.0874   23739962.6204   23739954.208
        44.0004         39.0004
 -25237676.91749 -19602731.79948  20376668.9754   20376673.6794   20376669.887
        55.0004         51.0004
  -1730669.71447  -1335698.12746  24024703.7484   24024713.2574   24024703.663
        44.0004         40.0004
 -16800299.90248 -13032776.90648  21869389.3264   21869391.6264   21869389.271
        53.0004         48.0004
  -1318228.11748  -1019840.04847  22543139.9834   22543147.2754   22543138.497
        50.0004         45.0004
 -20497071.59049 -15899074.44648  20445303.6204   20445310.1804   20445303.200
        57.0004         52.0004
 -12384110.00648  -9641754.38548  21747042.4444   21747045.9424   21747041.620
        53.0004         49.0004
 15  1  1  0  2 22.0000000  0 10G25G17G32G01G20G09G23G06G03G31
  -4137161.87147  -3197347.50746  23594904.2684   23594913.1924   23594905.257
        44.0004         40.0004
  -2454062.78147  -1873863.68846  24337898.8614   24337903.6664   24337895.815
        44.0004         40.0004
  -6605101.23048  -5126997.40747  22669254.4314   22669261.2394   22669254.687
        50.0004         45.0004
  -6398302.15847  -4932389.77946  23740664.1024   23740672.7964   23740665.262
        44.0004         39.0004
 -25238310.65949 -19603225.62148  20376548.5274   20376553.1204   20376549.318
        55.0004         51.0004
  -1734360.15047  -1338573.78646  24024001.3604   24024010.6664   24024001.255
        44.0004         40.0004
 -16802894.46148 -13034798.63448  21868895.5974   21868897.9054   21868895.470
        53.0004         48.0004
  -1320451.80348  -1021572.78847  22542717.1024   22542724.6664   22542715.370
        50.0004         45.0004
 -20496206.16449 -15898400.08648  20445468.5324   20445474.8824   20445467.882
        57.0004         52.0004
 -12383159.19148  -9641013.48548  21747222.9684   21747226.7944   21747222.606
        53.0004         49.0004
 15  1  1  0  2 23.0000000  0 10G25G17G32G01G20G09G23G06G03G31
  -4136592.48047  -3196903.82246  23595012.7244   23595021.6904   23595013.585
        44.0004         40.0004
  -2451167.82247  -1871607.87946  24338449.9194   24338454.6854   24338446.873
        44.0004         40.0004
  -6601967.05148  -5124555.18747  22669851.5854   22669858.0724   22669851.091
        50.0004         45.0004
  -6394565.65447  -4929478.22046  23741375.0344   23741383.6764   23741376.513
        44.0004         39.0004
 -25238943.60649 -19603718.82848  20376427.8154   20376432.5534   20376428.914
        55.0004         51.0004
  -1738050.27347  -1341449.20246  24023298.7574   24023308.4464   24023298.770
        44.0004         40.0004
 -16805488.46548 -13036819.93448  21868401.9424   21868404.3244   21868401.793
        53.0004         48.0004
  -1322674.76348  -1023304.95947  22542294.5404   22542301.7744   22542292.359
        50.0004         45.0004
 -20495339.97349 -15897725.13348  20445633.2614   20445639.8084   20445632.703
        57.0004         52.0004
 -12382207.51848  -9640271.92148  21747403.9924   21747407.8874   21747403.765
        53.0004         49.0004
 15  1  1  0  2 24.0000000  0 10G25G17G32G01G20G09G23G06G03G31
  -4136022.86047  -3196459.96546  23595121.3834   23595129.4944   23595121.982
        44.0004         40.0004
  -2448273.01247  -1869352.18746  24339000.6834   24339005.7154   24338998.039
        44.0004         40.0004
  -6598833.06448  -5122113.11347  22670446.9604   22670453.5284   22670447.509
        50.0004         45.0004
  -6390829.44447  -4926566.89246  23742086.2094   23742094.4554   23742087.843
        44.0004         39.0004
 -25239576.42349 -19604211.93148  20376307.6444   20376312.1634   20376308.481
        55.0004         51.0004
  -1741740.70447  -1344324.85946  24022596.8174   24022607.1914   24022596.358
        44.0004         40.0004
 -16808082.56748 -13038841.31248  21867908.2574   21867910.8984   21867908.083
        53.0004         48.0004
  -1324897.66448  -1025037.08647  22541869.9694   22541879.0864   22541869.540
        50.0004         45.0004
 -20494473.69049 -15897050.10848  20445798.0774   20445804.5504   20445797.554
        57.0004         52.0004
 -12381255.65848  -9639530.21248  21747585.3664   21747589.0194   21747584.868
        53.0004         49.0004
 15  1  1  0  2 25.0000000  0 10G25G17G32G01G20G09G23G06G03G31
  -4135452.45647  -3196015.49346  23595229.6744   23595238.8254   23595230.237
        44.0004         40.0004
  -2445377.82347  -1867096.19646  24339551.4424   24339556.8214   24339549.280
        44.0004         40.0004
  -6595698.73748  -5119670.78047  22671043.8854   22671050.8744   22671043.904
        50.0004         45.0004
  -6387092.98347  -4923655.36746  23742797.1954   23742805.0124   23742798.978
        44.0004         39.0004
 -25240208.56549 -19604704.50748  20376187.3744   20376191.6794   20376188.115
        55.0004         51.0004
  -1745430.91847  -1347200.34546  24021894.5074   24021904.8394   24021893.989
        44.0004         40.0004
 -16810676.22948 -13040862.34048  21867414.7964   21867416.8624   21867414.550
        53.0004         48.0004
  -1327119.95048  -1026768.73947  22541447.6754   22541455.5984   22541446.761
        50.0004         45.0004
 -20493606.74849 -15896374.56848  20445963.0734   20445969.3354   20445962.478
        57.0004         52.0004
 -12380303.05948  -9638787.92548  21747766.7064   21747770.5714   21747766.254
        53.0004         49.0004
 15  1  1  0  2 26.0000000  0 10G25G17G32G01G20G09G23G06G03G31
  -4134880.82947  -3195570.06646  23595338.7034   23595347.5034   23595338.970
        44.0004         40.0004
  -2442481.78647  -1864839.54546  24340102.1904   24340107.4844   24340100.732
        44.0004         39.0004
  -6592563.62648  -5117227.83847  22671641.0334   22671646.8264   22671640.385
        50.0004         45.0004
  -6383355.77847  -4920743.26246  23743508.2674   23743516.4684   23743510.190
        44.0004         39.0004
 -25240839.57249 -19605196.20148  20376067.3714   20376072.1104   20376068.027
        55.0004         51.0004
  -1749120.45747  -1350075.30346  24021192.6294   24021202.4454   24021191.797
        44.0004         40.0004
 -16813268.98848 -13042882.67048  21866921.3294   21866924.0814   21866921.186
        53.0004         48.0004
  -1329341.17748  -1028499.56547  22541025.2134   22541033.3064   22541024.010
        50.0004         45.0004
 -20492738.70449 -15895698.16948  20446128.2654   20446134.7344   20446127.634
        57.0004         52.0004
 -12379349.28348  -9638044.72248  21747948.0424   21747951.7574   21747947.744
        53.0004         49.0004
 15  1  1  0  2 27.0000000  0 10G25G17G32G01G20G09G23G06G03G31
  -4134308.58947  -3195124.16246  23595447.5294   23595456.1794   23595447.526
        44.0004         40.0004
  -2439585.46247  -1862582.67146  24340652.8704   24340658.6014   24340651.787
        44.0004         39.0004
  -6589428.30048  -5114784.72947  22672236.8714   22672243.2714   22672236.937
        50.0004         45.0004
  -6379618.44447  -4917831.05446  23744220.2554   23744227.1244   23744221.415
        44.0004         39.0004
 -25241470.03149 -19605687.46948  20375947.5094   20375951.7584   20375947.964
        55.0004         51.0004
  -1752809.92747  -1352950.21046  24020490.5074   24020500.1704   24020489.726
        44.0004         40.0004
 -16815861.42948 -13044902.75148  21866427.7224   21866430.6554   21866427.918
        53.0004         48.0004
  -1331561.92948  -1030230.01747  22540602.2694   22540610.3974   22540601.493
        50.0004         45.0004
 -20491870.15249 -15895021.37448  20446293.6524   20446300.0824   20446292.976
        57.0004         52.0004
 -12378394.88848  -9637301.03948  21748129.4944   21748133.3064   21748129.453
        53.0004         49.0004
 15  1  1  0  2 28.0000000  0 10G25G17G32G01G20G09G23G06G03G31
  -4133735.94747  -3194677.94746  23595556.6334   23595565.0594   23595556.341
        44.0004         40.0004
  -2436689.14247  -1860325.80146  24341203.4384   24341209.0214   24341202.870
        44.0004         39.0004
  -6586293.01948  -5112341.65647  22672833.6154   22672840.0944   22672833.521
        50.0004         45.0004
  -6375881.22847  -4914918.94046  23744932.2344   23744938.2684   23744932.542
        44.0004         39.0004
 -25242100.19049 -19606178.50348  20375827.2964   20375831.8414   20375828.023
        55.0004         51.0004
  -1756499.52747  -1355825.21946  24019787.9864   24019798.5084   24019787.494
        44.0004         40.0004
 -16818453.81348 -13046922.78848  21865934.4104   21865937.1244   21865934.662
        53.0004         48.0004
  -1333782.44848  -1031960.29647  22540179.9024   22540188.2504   22540178.907
        50.0004         45.0004
 -20491001.32649 -15894344.36748  20446458.8344   20446465.3114   20446458.344
        57.0004         52.0004
 -12377440.14748  -9636557.08648  21748311.2514   21748314.9394   21748311.197
        53.0004         49.0004
 15  1  1  0  2 29.0000000  0 10G25G17G32G01G20G09G23G06G03G31
  -4133162.48147  -3194231.09046  23595665.5634   23595674.3044   23595665.501
        44.0004         40.0004
  -2433792.36947  -1858068.57546  24341754.0224   24341760.0074   24341753.868
        44.0004         39.0004
  -6583157.35748  -5109898.28247  22673430.0084   22673436.8804   22673430.310
        50.0004         45.0004
  -6372143.69147  -4912006.57346  23745643.6884   23745649.3384   23745643.758
        44.0004         39.0004
 -25242729.63549 -19606668.97648  20375707.2784   20375711.9834   20375708.144
        55.0004         51.0004
  -1760188.86547  -1358700.02446  24019085.7234   24019096.2754   24019085.202
        44.0004         40.0004
 -16821045.70348 -13048942.44148  21865441.4234   21865443.7674   21865441.499
        53.0004         48.0004
  -1336002.31548  -1033690.06047  22539756.7404   22539765.5824   22539756.425
        50.0004         45.0004
 -20490131.80949 -15893666.81948  20446624.1694   20446630.7594   20446623.841
        57.0004         52.0004
 -12376484.62248  -9635812.51948  21748492.9474   21748496.8564   21748493.096
        53.0004         49.0004
 15  1  1  0  2 30.0000000  0 10G25G17G32G01G20G09G23G06G03G31
  -4132588.12347  -3193783.53946  23595774.4474   23595784.2514   23595774.864
        44.0004         40.0004
  -2430895.05247  -1855810.92646  24342305.4214   24342310.8054   24342305.135
        44.0004         39.0004
  -6580021.21248  -5107454.52547  22674027.7464   22674033.6944   22674027.198
        50.0004         45.0004
  -6368405.74947  -4909093.89246  23746354.2654   23746359.8964   23746354.887
        44.0004         39.0004
 -25243358.25249 -19607158.80748  20375588.2164   20375592.6124   20375588.517
        55.0004         51.0004
  -1763877.84847  -1361574.55046  24018384.5624   24018394.8344   24018383.401
        44.0004         40.0004
 -16823637.01148 -13050961.63748  21864948.4574   21864950.8244   21864948.435
        53.0004         48.0004
  -1338221.44548  -1035419.24847  22539334.6544   22539343.3824   22539334.061
        50.0004         45.0004
 -20489261.51549 -15892988.66848  20446789.9354   20446796.4694   20446789.473
        57.0004         52.0004
 -12375528.22348  -9635067.27048  21748675.1534   21748678.9034   21748675.130
        53.0004         49.0004
 15  1  1  0  2 31.0000000  0 10G25G17G32G01G20G09G23G06G03G31
  -4132013.36447  -3193335.67746  23595884.0204   23595893.7334   23595884.027
        44.0004         40.0004
  -2427997.74747  -1853553.28946  24342856.5384   24342862.5014   24342856.257
        44.0004         39.0004
  -6576885.11748  -5105010.81647  22674624.0474   22674630.2714   22674623.953
        50.0004         45.0004
  -6364667.94247  -4906181.31546  23747064.5924   23747070.8484   23747065.846
        44.0004         39.0004
 -25243986.58149 -19607648.41548  20375468.5284   20375473.0064   20375468.929
        55.0004         51.0004
  -1767566.96647  -1364449.18346  24017682.9664   24017692.5824   24017681.471
        44.0004         40.0004
 -16826228.25048 -13052980.78448  21864455.4134   21864457.9064   21864455.415
        53.0004         48.0004
  -1340440.33648  -1037148.25547  22538912.5704   22538920.7844   22538911.787
        50.0004         45.0004
 -20488390.94249 -15892310.29948  20446955.8084   20446962.0884   20446955.190
        57.0004         52.0004
 -12374571.46548  -9634321.74748  21748857.0344   21748860.8994   21748857.221
        53.0004         49.0004
 15  1  1  0  2 32.0000000  0 10G25G17G32G01G20G09G23G06G03G31
  -4131437.62747  -3192887.05146  23595993.4854   23596002.7474   23595993.484
        44.0004         40.0004
  -2425099.80847  -1851295.15646  24343408.5404   24343413.9804   24343407.702
        44.0004         39.0004
  -6573748.45648  -5102566.66447  22675220.6134   22675227.5444   22675220.883
        50.0004         45.0004
  -6360929.62047  -4903268.34046  23747776.3184   23747782.6964   23747777.293
        44.0004         39.0004
 -25244614.00649 -19608137.31648  20375349.0844   20375353.6214   20375349.490
        55.0004         51.0004
  -1771255.67547  -1367323.49846  24016981.2814   24016990.5044   24016979.611
        44.0004         40.0004
 -16828818.81448 -13054999.40448  21863962.3994   21863964.8094   21863962.511
        53.0004         48.0004
  -1342658.39648  -1038876.61047  22538490.6254   22538499.1404   22538489.588
        50.0004         45.0004
 -20487519.50549 -15891631.25548  20447121.5084   20447127.9564   20447121.089
        57.0004         52.0004
 -12373613.74948  -9633575.47748  21749039.4404   21749043.3484   21749039.471
        53.0004         49.0004
 15  1  1  0  2 33.0000000  0 10G25G17G32G01G20G09G23G06G03G31
  -4130860.91747  -3192437.66546  23596103.6884   23596112.3914   23596103.352
        44.0004         40.0004
  -2422201.27147  -1849036.55646  24343960.2224   24343965.2594   24343959.318
        44.0004         39.0004
  -6570611.27348  -5100122.10347  22675817.9824   22675824.0004   22675817.849
        50.0004         45.0004
  -6357190.84247  -4900355.00746  23748487.2974   23748494.6204   23748488.343
        44.0004         39.0004
 -25245240.55349 -19608625.53548  20375229.9394   20375234.3974   20375230.231
        55.0004         51.0004
  -1774943.94647  -1370197.46846  24016279.6464   24016288.6704   24016278.098
        44.0004         40.0004
 -16831408.75148 -13057017.53748  21863469.6174   21863472.0854   21863469.709
        53.0004         48.0004
  -1344875.66748  -1040604.35247  22538068.4394   22538076.5514   22538067.598
        50.0004         45.0004
 -20486647.22349 -15890951.55448  20447287.5604   20447293.8794   20447287.129
        57.0004         52.0004
 -12372655.10748  -9632828.48048  21749221.7254   21749225.6324   21749221.909
        53.0004         49.0004
 15  1  1  0  2 34.0000000  0 10G25G17G32G01G20G09G23G06G03G31
  -4130283.56447  -3191987.77946  23596214.2084   23596222.4154   23596213.330
        44.0004         40.0004
  -2419302.49747  -1846777.77046  24344511.8294   24344516.9894   24344511.082
        44.0004         39.0004
  -6567473.86948  -5097677.36747  22676415.1144   22676421.1424   22676414.958
        50.0004         45.0004
  -6353451.92847  -4897441.56646  23749198.3374   23749205.7724   23749199.546
        44.0004         39.0004
 -25245866.55749 -19609113.32948  20375110.5794   20375115.1664   20375111.095
        55.0004         51.0004
  -1778632.13447  -1373071.37546  24015578.2664   24015586.4854   24015576.619
        44.0004         40.0004
 -16833998.35448 -13059035.40548  21862976.6574   21862979.3344   21862976.943
        53.0004         48.0004
  -1347092.43848  -1042331.70447  22537647.2414   22537655.7244   22537645.839
        50.0004         45.0004
 -20485774.42349 -15890271.44948  20447453.6654   20447459.9294   20447453.178
        57.0004         52.0004
 -12371695.85248  -9632081.00748  21749404.2834   21749408.2174   21749404.384
        53.0004         49.0004
 15  1  1  0  2 35.0000000  0 10G25G17G32G01G20G09G23G06G03G31
  -4129705.99447  -3191537.72846  23596323.6594   23596332.1084   23596323.228
        44.0004         40.0004
  -2416403.86447  -1844519.09846  24345063.5304   24345068.6224   24345062.851
        44.0004         39.0004
  -6564336.67948  -5095232.81247  22677011.4024   22677017.7944   22677011.920
        50.0004         45.0004
  -6349713.29147  -4894528.34146  23749908.9634   23749916.6894   23749910.367
        44.0004         39.0004
 -25246492.42549 -19609601.02148  20374991.6704   20374996.0194   20374992.018
        55.0004         51.0004
  -1782320.64047  -1375945.53246  24014876.0204   24014885.0304   24014875.111
        44.0004         40.0004
 -16836588.07048 -13061053.36348  21862484.1604   21862486.5424   21862484.129
        53.0004         48.0004
  -1349309.14948  -1044059.01447  22537224.7004   22537233.0534   22537224.145
        50.0004         45.0004
 -20484901.52149 -15889591.26748  20447619.6254   20447626.1984   20447619.244
        57.0004         52.0004
 -12370736.41148  -9631333.39148  21749586.7314   21749590.6834   21749586.844
        53.0004         49.0004
 15  1  1  0  2 36.0000000  0 10G25G17G32G01G20G09G23G06G03G31
  -4129127.98347  -3191087.33046  23596433.2044   23596442.3304   23596433.109
        44.0004         40.0004
  -2413505.14647  -1842260.35646  24345615.1444   24345620.7704   24345614.630
        44.0004         39.0004
  -6561199.48948  -5092788.25047  22677608.3424   22677614.1424   22677608.893
        50.0004         45.0004
  -6345974.73547  -4891615.18046  23750619.8894   23750628.8794   23750621.448
        44.0004         39.0004
 -25247117.96149 -19610088.44948  20374872.4394   20374876.9364   20374873.000
        55.0004         51.0004
  -1786009.25247  -1378819.77146  24014174.2014   24014182.6274   24014173.440
        44.0004         40.0004
 -16839177.68148 -13063071.23748  21861991.4634   21861993.8764   21861991.279
        53.0004         48.0004
  -1351525.60248  -1045786.11847  22536803.8584   22536810.9314   22536802.432
        50.0004         45.0004
 -20484028.31649 -15888910.84548  20447785.9174   20447792.1914   20447785.426
        57.0004         52.0004
 -12369776.56948  -9630585.45848  21749769.2364   21749773.0184   21749769.494
        53.0004         49.0004
 15  1  1  0  2 37.0000000  0 10G25G17G32G01G20G09G23G06G03G31
  -4128548.85647  -3190636.06146  23596543.7704   23596552.6614   23596543.446
        44.0004         40.0004
  -2410605.67647  -1840001.02746  24346166.3484   24346172.3114   24346166.199
        44.0004         39.0004
  -6558061.61448  -5090343.13747  22678206.0564   22678212.3454   22678205.987
        50.0004         45.0004
  -6342235.56147  -4888701.53746  23751332.0614   23751340.6764   23751332.684
        44.0004         39.0004
 -25247742.45849 -19610575.06648  20374753.5644   20374758.2884   20374754.252
        55.0004         51.0004
  -1789697.31247  -1381693.57946  24013471.9864   24013480.9474   24013471.680
        44.0004         40.0004
 -16841766.49848 -13065088.49248  21861498.4774   21861500.9624   21861498.626
        53.0004         48.0004
  -1353741.09248  -1047512.47247  22536381.6864   22536390.1324   22536381.009
        50.0004         45.0004
 -20483154.12149 -15888229.64948  20447952.0514   20447958.7614   20447951.771
        57.0004         52.0004
 -12368815.65848  -9629836.69448  21749952.1944   21749956.1674   21749952.280
        53.0004         49.0004
 15  1  1  0  2 38.0000000  0 10G25G17G32G01G20G09G23G06G03G31
  -4127968.61247  -3190183.92146  23596654.2644   23596663.1204   23596653.910
        44.0004         40.0004
  -2407705.49247  -1837741.14146  24346718.1704   24346724.0584   24346718.171
        44.0004         39.0004
  -6554923.07348  -5087897.52547  22678803.2084   22678809.0274   22678803.329
        50.0004         45.0004
  -6338495.77147  -4885787.41346  23752044.7944   23752053.4784   23752043.882
        44.0004         39.0004
 -25248365.94249 -19611060.89948  20374635.3544   20374639.4344   20374635.675
        55.0004         51.0004
  -1793384.82147  -1384566.95646  24012770.5104   24012779.2694   24012770.229
        44.0004         40.0004
 -16844354.53148 -13067105.14148  21861005.9874   21861008.5624   21861006.145
        53.0004         48.0004
  -1355955.61848  -1049238.07447  22535960.2124   22535968.5994   22535959.664
        50.0004         45.0004
 -20482278.92949 -15887547.68148  20448118.8354   20448125.1084   20448118.307
        57.0004         52.0004
 -12367853.67048  -9629087.09248  21750135.3944   21750139.0484   21750135.214
        53.0004         49.0004
 15  1  1  0  2 39.0000000  0 10G25G17G32G01G20G09G23G06G03G31
  -4127387.78147  -3189731.32446  23596763.8744   23596773.8684   23596764.491
        44.0004         39.0004
  -2404805.06147  -1835481.06446  24347270.7534   24347275.5554   24347270.154
        44.0004         39.0004
  -6551784.34248  -5085451.75947  22679399.9584   22679406.1784   22679400.684
        50.0004         45.0004
  -6334755.86647  -4882873.20246  23752757.0904   23752765.7204   23752755.266
        44.0004         39.0004
 -25248988.89249 -19611546.31348  20374516.4564   20374521.0534   20374517.204
        55.0004         51.0004
  -1797072.21747  -1387440.24846  24012068.8344   24012077.7884   24012068.574
        44.0004         40.0004
 -16846942.26548 -13069121.55548  21860513.2294   21860516.0964   21860513.743
        53.0004         48.0004
  -1358169.70048  -1050963.33347  22535538.4814   22535546.6354   22535538.378
        50.0004         45.0004
 -20481403.24149 -15886865.32648  20448285.2184   20448291.8784   20448284.925
        57.0004         52.0004
 -12366891.09348  -9628337.02948  21750318.7164   21750322.1794   21750318.348
        53.0004         49.0004
 15  1  1  0  2 40.0000000  0 10G25G17G32G01G20G09G23G06G03G31
  -4126804.76547  -3189277.02146  23596874.6624   23596884.7364   23596875.727
        44.0004         39.0004
  -2401902.81947  -1833219.57246  24347822.6904   24347827.6084   24347822.366
        44.0004         39.0004
  -6548643.87048  -5083004.63647  22679997.4274   22680004.1934   22679998.317
        50.0004         45.0004
  -6331014.30147  -4879957.69446  23753469.2254   23753477.3224   23753467.043
        44.0004         39.0004
 -25249609.76449 -19612030.10948  20374398.5334   20374402.9644   20374399.113
        55.0004         51.0004
  -1800758.03047  -1390312.30346  24011366.9374   24011376.4154   24011367.168
        44.0004         40.0004
 -16849528.15048 -13071136.52948  21860021.8934   21860024.2664   21860021.628
        53.0004         48.0004
  -1360381.76748  -1052687.02047  22535118.0494   22535126.5634   22535117.535
        50.0004         45.0004
 -20480525.50749 -15886181.37648  20448452.3934   20448458.8194   20448451.872
        57.0004         52.0004
 -12365926.37948  -9627585.30048  21750502.2344   21750505.9674   21750501.883
        53.0004         49.0004
 15  1  1  0  2 41.0000000  0 10G25G17G32G01G20G09G23G06G03G31
  -4126222.03047  -3188822.93746  23596985.3124   23596995.3304   23596986.644
        44.0004         39.0004
  -2399001.26647  -1830958.62146  24348375.2024   24348380.3484   24348375.002
        44.0004         39.0004
  -6545504.13248  -5080558.09247  22680595.5894   22680601.9434   22680595.780
        50.0004         45.0004
  -6327273.54047  -4877042.82046  23754180.8994   23754189.3144   23754178.549
        44.0004         39.0004
 -25250231.02849 -19612514.21248  20374280.1974   20374284.8514   20374280.910
        55.0004         51.0004
  -1804444.66447  -1393185.00046  24010665.4394   24010674.4714   24010665.429
        44.0004         40.0004
 -16852114.65448 -13073151.98748  21859529.3144   21859531.4594   21859529.443
        53.0004         48.0004
  -1362594.29048  -1054411.06447  22534697.1804   22534704.8544   22534696.434
        50.0004         45.0004
 -20479648.19449 -15885497.75848  20448619.4094   20448625.8774   20448618.748
        57.0004         52.0004
 -12364961.99648  -9626833.83348  21750685.8024   21750689.3294   21750685.308
        53.0004         49.0004
 15  1  1  0  2 42.0000000  0 10G25G17G32G01G20G09G23G06G03G31
  -4125639.02647  -3188368.64646  23597095.8394   23597105.7284   23597097.560
        44.0004         39.0004
  -2396099.81347  -1828697.74946  24348927.5294   24348932.8214   24348927.385
        44.0004         39.0004
  -6542364.53848  -5078111.64847  22681193.0064   22681199.0184   22681193.292
        50.0004         45.0004
  -6323532.98347  -4874128.10346  23754892.4324   23754902.2864   23754890.402
        44.0004         39.0004
 -25250852.10049 -19612998.16148  20374162.0964   20374166.3214   20374162.731
        55.0004         51.0004
  -1808131.57647  -1396057.91246  24009964.1364   24009972.4084   24009963.581
        44.0004         40.0004
 -16854701.20448 -13075167.47548  21859037.0814   21859039.7514   21859037.240
        53.0004         48.0004
  -1364806.69948  -1056135.02047  22534275.5824   22534284.3854   22534275.412
        50.0004         45.0004
 -20478770.71949 -15884814.00948  20448786.3834   20448792.8734   20448785.621
        57.0004         52.0004
 -12363997.37448  -9626082.17848  21750869.1054   21750873.2544   21750868.658
        53.0004         49.0004
 15  1  1  0  2 43.0000000  0 10G25G17G32G01G20G09G23G06G03G31
  -4125055.79247  -3187914.17746  23597207.3204   23597216.2594   23597208.459
        44.0004         39.0004
  -2393198.48247  -1826436.97246  24349479.7404   24349485.6984   24349479.963
        44.0004         39.0004
  -6539225.14948  -5075665.36947  22681791.3114   22681796.2894   22681790.805
        50.0004         45.0004
  -6319792.73647  -4871213.63046  23755604.0664   23755613.8134   23755601.865
        44.0004         39.0004
 -25251473.04049 -19613482.01348  20374043.8604   20374048.5524   20374044.594
        55.0004         51.0004
  -1811818.80747  -1398931.07446  24009262.3344   24009270.4634   24009261.718
        44.0004         40.0004
 -16857287.84848 -13077183.04048  21858544.8714   21858547.6554   21858545.071
        53.0004         48.0004
  -1367019.04248  -1057858.92247  22533854.9804   22533863.7644   22533854.340
        50.0004         45.0004
 -20477893.14449 -15884130.18648  20448953.3624   20448959.8624   20448952.570
        57.0004         52.0004
 -12363032.54548  -9625330.36148  21751052.7964   21751056.4744   21751052.090
        53.0004         49.0004
 15  1  1  0  2 44.0000000  0 10G25G17G32G01G20G09G23G06G03G31
  -4124471.95347  -3187459.23346  23597319.1334   23597327.1424   23597319.652
        44.0004         39.0004
  -2390296.92247  -1824176.01446  24350032.4564   24350038.1534   24350032.454
        44.0004         39.0004
  -6536085.57248  -5073218.94047  22682387.8554   22682394.4724   22682388.199
        50.0004         45.0004
  -6316052.34047  -4868299.04246  23756315.7754   23756326.3454   23756313.910
        44.0004         39.0004
 -25252093.44949 -19613965.44548  20373925.6594   20373930.0204   20373926.561
        55.0004         51.0004
  -1815505.95247  -1401804.16946  24008560.7354   24008569.3804   24008559.879
        44.0004         40.0004
 -16859874.21148 -13079198.38248  21858052.4714   21858055.4984   21858052.925
        53.0004         48.0004
  -1369230.92348  -1059582.46347  22533434.0624   22533442.6414   22533433.429
        50.0004         45.0004
 -20477015.06549 -15883445.96548  20449120.4624   20449126.8514   20449119.662
        57.0004         52.0004
 -12362067.13548  -9624578.09148  21751236.4874   21751240.6084   21751235.764
        53.0004         49.0004
 15  1  1  0  2 45.0000000  0 10G25G17G32G01G20G09G23G06G03G31
  -4123886.98647  -3187003.41146  23597430.0054   23597437.6224   23597431.017
        44.0004         39.0004
  -2387394.62147  -1821914.48046  24350584.9224   24350590.5394   24350585.163
        44.0004         39.0004
  -6532945.32948  -5070771.99447  22682984.7834   22682991.3844   22682985.638
        50.0004         45.0004
  -6312311.35847  -4865383.99446  23757028.6184   23757038.3754   23757026.054
        44.0004         39.0004
 -25252712.84249 -19614448.09148  20373808.1324   20373812.3474   20373808.697
        55.0004         51.0004
  -1819192.53547  -1404676.82546  24007858.8664   24007867.8124   24007858.240
        44.0004         40.0004
 -16862459.77048 -13081213.10448  21857560.7124   21857563.2064   21857560.852
        53.0004         48.0004
  -1371441.84248  -1061305.25647  22533013.5274   22533021.7894   22533012.644
        50.0004         45.0004
 -20476136.00749 -15882760.98548  20449287.7414   20449294.1574   20449286.884
        57.0004         52.0004
 -12361100.65148  -9623824.98548  21751420.3554   21751424.6614   21751419.615
        53.0004         49.0004
 15  1  1  0  2 46.0000000  0 10G25G17G32G01G20G09G23G06G03G31
  -4123301.76747  -3186547.39546  23597541.9954   23597548.9424   23597542.553
        44.0004         39.0004
  -2384492.44947  -1819653.04946  24351136.9374   24351142.6534   24351137.723
        44.0004         39.0004
  -6529805.25248  -5068325.18147  22683583.3424   22683589.0904   22683582.973
        50.0004         45.0004
  -6308570.61647  -4862469.13646  23757740.3814   23757749.8604   23757737.965
        44.0004         39.0004
 -25253332.07749 -19614930.61148  20373689.9404   20373694.4094   20373690.850
        55.0004         51.0004
  -1822879.41747  -1407549.71646  24007157.5084   24007166.3624   24007156.481
        44.0004         40.0004
 -16865045.40848 -13083227.88448  21857068.7504   21857071.1744   21857068.785
        53.0004         48.0004
  -1373652.68048  -1063027.98547  22532592.6934   22532600.7194   22532591.942
        50.0004         45.0004
 -20475256.80749 -15882075.89448  20449454.8904   20449461.4044   20449454.221
        57.0004         52.0004
 -12360133.94448  -9623071.70748  21751604.4794   21751608.1054   21751603.539
        53.0004         49.0004
 15  1  1  0  2 47.0000000  0 10G25G17G32G01G20G09G23G06G03G31
  -4122716.13147  -3186091.05346  23597653.3314   23597660.9134   23597654.120
        44.0004         39.0004
  -2381590.21947  -1817391.57146  24351689.4434   24351694.6614   24351690.058
        44.0004         39.0004
  -6526665.17348  -5065878.36747  22684180.5684   22684187.3024   22684180.356
        50.0004         45.0004
  -6304829.95147  -4859554.33746  23758452.0664   23758461.5144   23758450.053
        44.0004         40.0004
 -25253950.97549 -19615412.86748  20373572.4984   20373576.7844   20373573.054
        55.0004         51.0004
  -1826566.40847  -1410422.69346  24006456.1724   24006464.6864   24006454.612
        44.0004         40.0004
 -16867630.93648 -13085242.57748  21856576.4194   21856579.3724   21856576.779
        53.0004         48.0004
  -1375863.23048  -1064750.49047  22532172.0254   22532180.6754   22532171.284
        50.0004         46.0004
 -20474377.30149 -15881390.56448  20449622.5724   20449628.7314   20449621.594
        57.0004         52.0004
 -12359166.84548  -9622318.12248  21751788.2624   21751792.4534   21751787.518
        53.0004         49.0004
 15  1  1  0  2 48.0000000  0 10G25G17G32G01G20G09G23G06G03G31
  -4122129.77147  -3185634.14746  23597765.1584   23597773.2244   23597765.633
        44.0004         39.0004
  -2378687.65347  -1815129.83146  24352240.6844   24352246.8824   24352242.421
        44.0004         39.0004
  -6523524.83248  -5063431.34747  22684777.8944   22684784.6624   22684777.947
        50.0004         45.0004
  -6301089.08947  -4856639.38246  23759164.0914   23759173.4524   23759162.409
        44.0004         40.0004
 -25254569.25849 -19615894.64548  20373454.7054   20373459.2154   20373455.371
        55.0004         51.0004
  -1830253.26247  -1413295.56046  24005754.9824   24005763.3954   24005753.037
        44.0004         40.0004
 -16870216.08248 -13087256.97148  21856084.2664   21856087.2924   21856084.888
        53.0004         48.0004
  -1378073.24548  -1066472.57947  22531752.3934   22531759.2534   22531750.735
        50.0004         45.0004
 -20473497.22049 -15880704.78748  20449789.9524   20449796.3594   20449789.081
        57.0004         52.0004
 -12358199.06548  -9621564.00748  21751972.6744   21751976.6054   21751971.644
        53.0004         49.0004
 15  1  1  0  2 49.0000000  0 10G25G17G32G01G20G09G23G06G03G31
  -4121543.05147  -3185176.96346  23597876.0384   23597885.5284   23597877.135
        44.0004         39.0004
  -2375785.09847  -1812868.09946  24352791.7664   24352798.4734   24352794.386
        44.0004         39.0004
  -6520384.55248  -5060984.37447  22685375.5974   22685381.9304   22685375.505
        50.0004         45.0004
  -6297348.35147  -4853724.52746  23759876.1134   23759885.1954   23759874.806
        44.0004         40.0004
 -25255187.26049 -19616376.20648  20373337.1654   20373341.6464   20373337.839
        55.0004         51.0004
  -1833940.25947  -1416168.54146  24005053.2044   24005061.6654   24005051.023
        44.0004         40.0004
 -16872801.17648 -13089271.32948  21855592.4484   21855595.3954   21855592.963
        53.0004         48.0004
  -1380283.04548  -1068194.50047  22531330.7524   22531339.1064   22531330.169
        50.0004         46.0004
 -20472616.87649 -15880018.80448  20449957.3904   20449963.8424   20449956.680
        57.0004         52.0004
 -12357230.96248  -9620809.64048  21752156.7294   21752160.6534   21752155.828
        53.0004         49.0004
 15  1  1  0  2 50.0000000  0 10G25G17G32G01G20G09G23G06G03G31
  -4120955.74147  -3184719.31746  23597988.3674   23597997.5324   23597989.012
        44.0004         39.0004
  -2372882.30547  -1810606.18346  24353343.8044   24353350.3494   24353346.402
        44.0004         39.0004
  -6517244.13248  -5058537.29047  22685973.5154   22685979.6914   22685973.199
        50.0004         45.0004
  -6293607.56147  -4850809.62946  23760588.0044   23760596.9004   23760586.887
        44.0004         40.0004
 -25255804.78149 -19616857.38848  20373219.6984   20373224.0774   20373220.339
        55.0004         51.0004
  -1837627.24147  -1419041.50946  24004351.6844   24004360.5144   24004349.254
        44.0004         40.0004
 -16875386.01848 -13091285.48648  21855100.4614   21855103.4014   21855101.114
        53.0004         48.0004
  -1382492.43548  -1069916.09747  22530910.3854   22530918.9664   22530909.852
        50.0004         46.0004
 -20471736.08249 -15879332.46848  20450124.8494   20450131.4424   20450124.401
        57.0004         52.0004
 -12356262.31048  -9620054.84348  21752340.7884   21752344.8984   21752340.105
        53.0004         49.0004
 15  1  1  0  2 51.0000000  0 10G25G17G32G01G20G09G23G06G03G31
  -4120366.68147  -3184260.30946  23598101.1604   23598109.6624   23598101.152
        44.0004         39.0004
  -2369978.15447  -1808343.20746  24353896.5394   24353902.9554   24353898.568
        44.0004         39.0004
  -6514102.37948  -5056089.17047  22686570.8154   22686577.2334   22686571.095
        50.0004         45.0004
  -6289865.49747  -4847893.73846  23761300.0894   23761309.1754   23761299.479
        44.0004         40.0004
 -25256420.63549 -19617337.27348  20373102.2804   20373106.7694   20373103.107
        55.0004         51.0004
  -1841313.02247  -1421913.53946  24003650.3894   24003659.2934   24003647.813
        44.0004         40.0004
 -16877969.42648 -13093298.52948  21854609.1754   21854611.6314   21854609.577
        53.0004         48.0004
  -1384700.21748  -1071636.44447  22530491.1334   22530498.4944   22530489.717
        50.0004         45.0004
 -20470853.66049 -15878644.86648  20450292.9574   20450299.3784   20450292.414
        57.0004         52.0004
 -12355291.93148  -9619298.70348  21752526.2114   21752529.6704   21752524.749
        53.0004         49.0004
 15  1  1  0  2 52.0000000  0 10G25G17G32G01G20G09G23G06G03G31
  -4119777.20747  -3183800.97846  23598213.6664   23598221.8284   23598213.312
        44.0004         39.0004
  -2367073.94647  -1806080.18746  24354449.5224   24354455.7554   24354450.677
        44.0004         39.0004
  -6510960.62448  -5053641.05747  22687168.2914   22687175.5264   22687168.978
        50.0004         45.0004
  -6286123.52147  -4844977.91646  23762011.8914   23762020.8154   23762011.890
        44.0004         40.0004
 -25257036.14449 -19617816.89148  20372984.8794   20372989.7874   20372985.863
        55.0004         51.0004
  -1844998.90647  -1424785.65346  24002949.2304   24002958.0654   24002946.597
        44.0004         40.0004
 -16880552.72848 -13095311.49048  21854117.1564   21854120.1024   21854117.998
        53.0004         48.0004
  -1386907.72848  -1073356.58347  22530070.3524   22530078.0304   22530069.648
        50.0004         46.0004
 -20469970.93549 -15877957.03048  20450461.0144   20450467.2534   20450460.424
        57.0004         52.0004
 -12354321.16448  -9618542.26048  21752710.7524   21752714.3414   21752709.501
        53.0004         49.0004
 15  1  1  0  2 53.0000000  0 10G25G17G32G01G20G09G23G06G03G31
  -4119186.89647  -3183340.99446  23598326.0234   23598334.1594   23598325.591
        44.0004         39.0004
  -2364169.28047  -1803816.81246  24355002.6594   24355008.6674   24355003.155
        44.0004         39.0004
  -6507818.48348  -5051192.63147  22687766.7154   22687773.2384   22687766.969
        50.0004         45.0004
  -6282381.23347  -4842061.85346  23762724.0694   23762733.3184   23762724.536
        44.0004         40.0004
 -25257650.93049 -19618295.94648  20372868.3694   20372872.9274   20372868.807
        55.0004         51.0004
  -1848684.52947  -1427657.56346  24002248.0904   24002256.9484   24002245.284
        44.0004         40.0004
 -16883135.53548 -13097324.06548  21853625.8324   21853628.4584   21853626.512
        53.0004         48.0004
  -1389114.58248  -1075076.21147  22529650.4124   22529659.4004   22529649.650
        50.0004         45.0004
 -20469087.50449 -15877268.64148  20450628.8504   20450635.5424   20450628.513
        57.0004         52.0004
 -12353349.61048  -9617785.20648  21752895.8484   21752899.5054   21752894.538
        53.0004         49.0004
 15  1  1  0  2 54.0000000  0 10G25G17G32G01G20G09G23G06G03G31
  -4118596.12247  -3182880.65146  23598438.7254   23598446.2294   23598438.055
        44.0004         39.0004
  -2361264.54247  -1801553.38146  24355555.6934   24355561.8314   24355555.853
        44.0004         39.0004
  -6504676.28548  -5048744.17147  22688364.6844   22688370.7854   22688365.085
        50.0004         45.0004
  -6278638.95447  -4839145.79546  23763435.8094   23763445.3144   23763437.108
        44.0004         40.0004
 -25258265.31649 -19618774.69348  20372751.2474   20372755.8394   20372751.865
        55.0004         51.0004
  -1852370.20647  -1430529.51646  24001546.7224   24001555.1764   24001543.847
        44.0004         40.0004
 -16885718.18048 -13099336.51748  21853134.0944   21853136.8734   21853135.061
        53.0004         48.0004
  -1391321.10848  -1076795.58547  22529231.5064   22529238.2454   22529229.814
        50.0004         46.0004
 -20468203.71349 -15876579.97648  20450797.0904   20450803.5084   20450796.649
        57.0004         52.0004
 -12352377.60248  -9617027.80048  21753080.4344   21753084.1234   21753079.635
        53.0004         49.0004
 15  1  1  0  2 55.0000000  0 10G25G17G32G01G20G09G23G06G03G31
  -4118004.54247  -3182419.68146  23598551.3744   23598559.2354   23598550.679
        44.0004         40.0004
  -2358359.33447  -1799289.58246  24356109.4454   24356115.7744   24356108.879
        44.0004         39.0004
  -6501533.73048  -5046295.41747  22688962.2074   22688968.8324   22688963.201
        50.0004         45.0004
  -6274896.38947  -4836229.51546  23764147.7344   23764157.4834   23764149.536
        44.0004         40.0004
 -25258878.99149 -19619252.87448  20372634.5974   20372639.1354   20372635.076
        55.0004         51.0004
  -1856055.63047  -1433401.27046  24000845.2704   24000854.2364   24000842.448
        44.0004         40.0004
 -16888300.34348 -13101348.58448  21852642.9314   21852646.1854   21852643.624
        53.0004         48.0004
  -1393526.98848  -1078514.44647  22528811.4554   22528819.5814   22528810.197
        50.0004         46.0004
 -20467319.25449 -15875890.78148  20450965.4294   20450971.7774   20450964.905
        57.0004         52.0004
 -12351404.83048  -9616269.79148  21753265.9584   21753269.5794   21753264.919
        53.0004         49.0004
 15  1  1  0  2 56.0000000  0 10G25G17G32G01G20G09G23G06G03G31
  -4117411.97147  -3181957.93746  23598664.0024   23598671.7194   23598663.594
        44.0004         40.0004
  -2355453.54047  -1797025.32946  24356662.6534   24356668.7644   24356661.909
        44.0004         39.0004
  -6498390.63648  -5043846.25047  22689560.6264   22689567.1204   22689561.318
        50.0004         45.0004
  -6271153.33247  -4833312.84946  23764860.8124   23764869.4844   23764862.210
        44.0004         40.0004
 -25259491.78049 -19619730.37448  20372518.1804   20372522.6194   20372518.494
        55.0004         51.0004
  -1859740.62247  -1436272.68846  24000143.8554   24000152.9234   24000141.251
        44.0004         40.0004
 -16890881.85548 -13103360.14848  21852151.8464   21852154.3244   21852152.252
        53.0004         48.0004
  -1395732.05348  -1080232.67847  22528391.6484   22528399.6784   22528390.651
        50.0004         46.0004
 -20466433.93149 -15875200.91948  20451134.0444   20451140.4014   20451133.359
        57.0004         52.0004
 -12350431.12148  -9615511.05648  21753450.9824   21753454.7144   21753450.391
        53.0004         49.0004
 15  1  1  0  2 57.0000000  0 10G25G17G32G01G20G09G23G06G03G31
  -4116818.21747  -3181495.26946  23598776.7824   23598784.7724   23598776.848
        44.0004         39.0004
  -2352546.94447  -1794760.44746  24357216.1114   24357222.1224   24357215.300
        44.0004         39.0004
  -6495246.78248  -5041396.49247  22690158.7084   22690165.5004   22690159.519
        50.0004         45.0004
  -6267409.59847  -4830395.65846  23765573.4724   23765581.5904   23765574.921
        44.0004         40.0004
 -25260103.47049 -19620207.01448  20372401.6794   20372405.9564   20372402.113
        55.0004         51.0004
  -1863424.96647  -1439143.59946  23999442.7874   23999451.7054   23999440.491
        44.0004         40.0004
 -16893462.50748 -13105371.04448  21851660.8324   21851663.6274   21851661.039
        53.0004         48.0004
  -1397936.08948  -1081950.10647  22527972.9074   22527980.0904   22527971.259
        50.0004         46.0004
 -20465547.54349 -15874510.22748  20451302.7754   20451308.9724   20451302.005
        57.0004         52.0004
 -12349456.25148  -9614751.41548  21753636.3444   21753640.3354   21753635.923
        53.0004         49.0004
 15  1  1  0  2 58.0000000  0 10G25G17G32G01G20G09G23G06G03G31
  -4116224.10847  -3181032.32946  23598888.7244   23598898.2684   23598889.986
        44.0004         40.0004
  -2349640.33847  -1792495.55946  24357769.2874   24357775.4764   24357768.482
        44.0004         39.0004
  -6492103.00248  -5038946.79647  22690757.0334   22690763.9454   22690757.565
        50.0004         45.0004
  -6263666.01947  -4827478.58946  23766285.6814   23766293.6054   23766287.587
        44.0004         40.0004
 -25260714.88549 -19620683.44048  20372285.0304   20372289.4434   20372285.830
        55.0004         51.0004
  -1867109.50847  -1442014.66746  23998741.2274   23998750.4644   23998739.686
        44.0004         40.0004
 -16896043.11348 -13107381.90448  21851169.8564   21851172.4964   21851169.835
        53.0004         48.0004
  -1400139.91948  -1083667.38047  22527552.9624   22527560.4284   22527551.748
        50.0004         45.0004
 -20464660.91049 -15873819.34548  20451471.4294   20451477.7074   20451470.785
        57.0004         52.0004
 -12348481.04148  -9613991.51148  21753822.1804   21753825.9024   21753821.557
        53.0004         49.0004
 15  1  1  0  2 59.0000000  0 10G25G17G32G01G20G09G23G06G03G31
  -4115629.45547  -3180568.96246  23599001.7584   23599011.2464   23599003.242
        44.0004         40.0004
  -2346733.56247  -1790230.53946  24358322.4184   24358329.2404   24358321.876
        44.0004         39.0004
  -6488959.09248  -5036496.99947  22691355.0724   22691362.2574   22691355.718
        50.0004         45.0004
  -6259922.39647  -4824561.48346  23766997.0584   23767006.1114   23766999.905
        44.0004         40.0004
 -25261325.83749 -19621159.50848  20372168.7874   20372173.4494   20372169.670
        55.0004         51.0004
  -1870794.03747  -1444885.72646  23998040.5664   23998049.4894   23998038.704
        44.0004         40.0004
 -16898623.50248 -13109392.59648  21850678.6984   21850681.4364   21850678.706
        53.0004         48.0004
  -1402343.34948  -1085384.33647  22527132.7224   22527142.2554   22527132.468
        50.0004         46.0004
 -20463773.85649 -15873128.13448  20451640.0364   20451646.5774   20451639.618
        57.0004         52.0004
 -12347505.31648  -9613231.20748  21754007.5964   21754011.5254   21754007.295
        53.0004         49.0004
 15  1  1  0  3  0.0000000  0 10G25G17G32G01G20G09G23G06G03G31
  -4115034.26247  -3180105.17546  23599115.0764   23599124.1214   23599116.420
        44.0004         40.0004
  -2343826.62147  -1787965.39146  24358875.0514   24358881.6214   24358874.806
        44.0004         39.0004
  -6485815.08248  -5034047.11947  22691953.8834   22691960.0864   22691953.914
        50.0004         45.0004
  -6256178.72947  -4821644.34346  23767708.7684   23767718.9124   23767712.356
        44.0004         40.0004
 -25261936.35149 -19621635.23148  20372052.7334   20372057.1534   20372053.497
        55.0004         51.0004
  -1874478.57347  -1447756.78946  23997339.5674   23997348.5814   23997337.866
        44.0004         40.0004
 -16901203.66648 -13111403.10948  21850187.7764   21850190.6424   21850187.625
        53.0004         48.0004
  -1404546.40248  -1087101.00147  22526714.1174   22526721.3484   22526713.146
        50.0004         46.0004
 -20462886.37849 -15872436.59048  20451809.0114   20451815.3614   20451808.506
        57.0004         52.0004
 -12346529.07948  -9612470.49748  21754193.4734   21754197.2034   21754193.211
        53.0004         49.0004
 15  1  1  0  3  1.0000000  0 10G25G17G32G01G20G09G23G06G03G31
  -4114438.58647  -3179641.01046  23599228.2414   23599237.1214   23599229.603
        44.0004         39.0004
  -2340919.58147  -1785700.16646  24359427.9344   24359435.3684   24359427.790
        44.0004         39.0004
  -6482671.03348  -5031597.20547  22692552.1204   22692558.5234   22692552.088
        50.0004         45.0004
  -6252435.10347  -4818727.23646  23768421.1914   23768431.0274   23768424.638
        44.0004         40.0004
 -25262546.47649 -19622110.65248  20371936.4494   20371941.0924   20371937.453
        55.0004         51.0004
  -1878163.17747  -1450627.90446  23996638.4624   23996647.1384   23996637.227
        44.0004         40.0004
 -16903783.67848 -13113413.50648  21849697.0764   21849699.1784   21849696.662
        53.0004         48.0004
  -1406749.13848  -1088817.41547  22526295.3044   22526303.2524   22526293.867
        50.0004         46.0004
 -20461998.55549 -15871744.77848  20451977.9504   20451984.5374   20451977.435
        57.0004         52.0004
 -12345552.40648  -9611709.45248  21754379.3034   21754382.8694   21754379.111
        53.0004         49.0004
 15  1  1  0  3  2.0000000  0 10G25G17G32G01G20G09G23G06G03G31
  -4113842.00847  -3179176.13946  23599341.1114   23599350.0364   23599342.753
        44.0004         40.0004
  -2338012.01147  -1783434.53046  24359980.7144   24359988.6164   24359980.395
        44.0004         39.0004
  -6479526.50248  -5029146.92447  22693150.8834   22693156.6794   22693150.459
        50.0004         45.0004
  -6248691.04547  -4815809.79246  23769133.5184   23769143.0004   23769136.771
        44.0004         40.0004
 -25263155.78449 -19622585.43748  20371820.6794   20371825.1284   20371821.527
        55.0004         51.0004
  -1881847.40947  -1453498.73146  23995937.8494   23995945.8484   23995936.501
        44.0004         40.0004
 -16906363.09448 -13115423.43848  21849206.1534   21849208.7994   21849205.903
        53.0004         48.0004
  -1408951.12548  -1090533.24847  22525875.5714   22525884.3144   22525874.864
        50.0004         45.0004
 -20461109.93849 -15871052.35148  20452147.0744   20452153.5224   20452146.447
        57.0004         52.0004
 -12344574.86348  -9610947.73048  21754565.2984   21754568.6194   21754565.166
        53.0004         49.0004
 15  1  1  0  3  3.0000000  0 10G25G17G32G01G20G09G23G06G03G31
  -4113244.20147  -3178710.31146  23599454.6144   23599463.7414   23599456.032
        44.0004         40.0004
  -2335103.59747  -1781168.23446  24360534.2574   24360541.6284   24360533.000
        44.0004         39.0004
  -6476381.17248  -5026696.01547  22693748.6054   22693755.6514   22693748.994
        50.0004         45.0004
  -6244946.27447  -4812891.78946  23769845.8924   23769856.0184   23769848.962
        44.0004         40.0004
 -25263763.95649 -19623059.33648  20371705.1304   20371709.4644   20371705.719
        55.0004         51.0004
  -1885530.97547  -1456369.03946  23995236.7844   23995244.7584   23995235.724
        44.0004         40.0004
 -16908941.60748 -13117432.66748  21848715.5594   21848718.0834   21848715.360
        53.0004         48.0004
  -1411152.03348  -1092248.24047  22525457.0504   22525464.3674   22525456.034
        50.0004         45.0004
 -20460220.21749 -15870359.06148  20452316.4994   20452322.9664   20452315.703
        57.0004         52.0004
 -12343596.12448  -9610185.07348  21754751.6454   21754755.5504   21754751.458
        53.0004         49.0004
 15  1  1  0  3  4.0000000  0 10G25G17G32G01G20G09G23G06G03G31
  -4112646.28447  -3178244.40246  23599568.2814   23599577.8634   23599569.342
        44.0004         40.0004
  -2332195.42147  -1778902.12546  24361087.4604   24361094.8614   24361085.540
        44.0004         39.0004
  -6473236.18048  -5024245.37347  22694348.2894   22694353.5904   22694347.501
        50.0004         45.0004
  -6241201.92347  -4809974.11846  23770558.2364   23770567.9904   23770561.344
        44.0004         40.0004
 -25264372.11349 -19623533.22248  20371589.2934   20371593.7324   20371589.994
        55.0004         51.0004
  -1889214.97147  -1459239.68146  23994535.8244   23994543.2404   23994534.871
        44.0004         40.0004
 -16911520.34048 -13119442.06948  21848224.7024   21848227.1374   21848224.709
        53.0004         48.0004
  -1413353.02048  -1093963.29147  22525038.5764   22525046.0624   22525037.079
        50.0004         45.0004
 -20459330.51449 -15869665.78548  20452485.7144   20452492.1434   20452484.936
        57.0004         52.0004
 -12342617.31948  -9609422.36548  21754937.7744   21754941.3544   21754937.635
        53.0004         49.0004
 15  1  1  0  3  5.0000000  0 10G25G17G32G01G20G09G23G06G03G31
  -4112047.68647  -3177777.96146  23599682.4874   23599691.8174   23599682.803
        44.0004         39.0004
  -2329286.99547  -1776635.82146  24361639.9884   24361648.5584   24361638.051
        44.0004         39.0004
  -6470090.95648  -5021794.54347  22694946.3314   22694951.9454   22694946.064
        50.0004         45.0004
  -6237457.38947  -4807056.30146  23771270.7494   23771280.9034   23771273.573
        44.0004         40.0004
 -25264979.68149 -19624006.65148  20371473.5064   20371477.7724   20371474.328
        55.0004         51.0004
  -1892898.84247  -1462110.22746  23993834.2844   23993841.9724   23993834.079
        44.0004         40.0004
 -16914098.72148 -13121451.19548  21847733.7674   21847736.4814   21847734.137
        53.0004         48.0004
  -1415553.46848  -1095677.92747  22524619.5614   22524627.5074   22524618.290
        50.0004         46.0004
 -20458440.25849 -15868972.07948  20452655.0494   20452661.6294   20452654.340
        57.0004         52.0004
 -12341637.87548  -9608659.16248  21755123.8124   21755127.6734   21755123.931
        53.0004         49.0004
 15  1  1  0  3  6.0000000  0 10G25G17G32G01G20G09G23G06G03G31
  -4111447.75347  -3177310.47846  23599796.9324   23599806.3994   23599796.844
        44.0004         39.0004
  -2326377.56747  -1774368.73546  24362193.5264   24362202.5454   24362191.085
        44.0004         39.0004
  -6466944.80448  -5019342.99547  22695544.6534   22695551.9564   22695544.895
        50.0004         45.0004
  -6233712.02247  -4804137.83646  23771983.3174   23771993.4234   23771985.682
        44.0004         40.0004
 -25265586.00249 -19624479.10948  20371357.9524   20371362.7724   20371358.889
        55.0004         51.0004
  -1896581.90847  -1464980.14546  23993133.6344   23993141.2364   23993133.341
        44.0004         40.0004
 -16916676.08448 -13123459.52748  21847243.4494   21847246.1234   21847243.713
        53.0004         48.0004
  -1417752.73548  -1097391.64147  22524201.3234   22524208.7674   22524199.831
        50.0004         45.0004
 -20457548.78849 -15868277.42648  20452824.8804   20452831.2054   20452824.041
        57.0004         52.0004
 -12340657.12748  -9607894.94348  21755310.6824   21755314.4324   21755310.560
        53.0004         49.0004
 15  1  1  0  3  7.0000000  0 10G25G17G32G01G20G09G23G06G03G31
  -4110846.49847  -3176841.96646  23599911.8654   23599921.1594   23599911.163
        44.0004         39.0004
  -2323467.21947  -1772100.93646  24362747.7424   24362756.4164   24362744.515
        44.0004         39.0004
  -6463797.76348  -5016890.76147  22696143.5514   22696150.4754   22696143.788
        50.0004         45.0004
  -6229965.83347  -4801218.72946  23772696.2704   23772705.9704   23772698.305
        44.0004         40.0004
 -25266191.09149 -19624950.60648  20371243.1104   20371247.5744   20371243.741
        55.0004         51.0004
  -1900264.21247  -1467849.46646  23992432.6474   23992440.4984   23992432.955
        44.0004         40.0004
 -16919252.43448 -13125467.07148  21846753.4304   21846755.8304   21846753.460
        53.0004         48.0004
  -1419950.84048  -1099104.44747  22523782.8944   22523790.0624   22523781.615
        50.0004         45.0004
 -20456656.12149 -15867581.84248  20452994.5934   20453001.0974   20452994.003
        57.0004         52.0004
 -12339675.08748  -9607129.71948  21755497.5394   21755501.0804   21755497.424
        53.0004         49.0004
 15  1  1  0  3  8.0000000  0 10G25G17G32G01G20G09G23G06G03G31
  -4110245.61247  -3176373.74346  23600026.8534   23600035.5764   23600025.749
        44.0004         39.0004
  -2320557.63047  -1769833.72846  24363301.9634   24363310.6104   24363297.929
        44.0004         39.0004
  -6460651.55248  -5014439.16647  22696742.2494   22696748.4724   22696742.523
        50.0004         45.0004
  -6226220.55047  -4798300.33346  23773409.3424   23773419.1114   23773410.587
        44.0004         40.0004
 -25266796.66549 -19625422.48448  20371127.8614   20371132.3054   20371128.606
        55.0004         51.0004
  -1903947.45247  -1470719.51946  23991731.7294   23991739.8194   23991732.509
        44.0004         40.0004
 -16921829.50948 -13127475.18048  21846262.7104   21846265.3204   21846263.071
        53.0004         48.0004
  -1422149.50048  -1100817.69047  22523364.3154   22523371.7814   22523363.224
        50.0004         45.0004
 -20455763.96449 -15866886.65648  20453164.2774   20453170.7004   20453163.819
        57.0004         52.0004
 -12338693.48648  -9606364.83548  21755684.0204   21755688.0004   21755684.269
        53.0004         49.0004
 15  1  1  0  3  9.0000000  0 10G25G17G32G01G20G09G23G06G03G31
  -4109644.07647  -3175905.01246  23600141.3584   23600149.8294   23600140.284
        44.0004         39.0004
  -2317647.69647  -1767566.25046  24363856.0304   24363864.4694   24363851.557
        44.0004         39.0004
  -6457505.08348  -5011987.37047  22697341.1314   22697347.6864   22697341.197
        50.0004         45.0004
  -6222475.07047  -4795381.78146  23774122.4244   23774131.4324   23774122.995
        44.0004         40.0004
 -25267401.63949 -19625893.89248  20371012.6624   20371017.3624   20371013.528
        55.0004         51.0004
  -1907630.53547  -1473589.44946  23991030.8044   23991039.4544   23991032.135
        44.0004         40.0004
 -16924406.21048 -13129482.99548  21845772.5414   21845775.4494   21845772.800
        53.0004         48.0004
  -1424347.61048  -1102530.49847  22522945.9614   22522954.3894   22522945.016
        50.0004         45.0004
 -20454871.22649 -15866191.01448  20453334.3004   20453340.7894   20453333.692
        57.0004         52.0004
 -12337711.22248  -9605599.43348  21755871.6684   21755875.0514   21755871.137
        53.0004         49.0004
 15  1  1  0  3 10.0000000  0 10G25G17G32G01G20G09G23G06G03G31
  -4109041.96147  -3175435.83046  23600255.4844   23600264.2964   23600254.972
        44.0004         39.0004
  -2314737.62947  -1765298.66846  24364409.4854   24364418.5694   24364405.303
        44.0004         39.0004
  -6454358.47948  -5009535.47247  22697939.8734   22697945.9694   22697939.947
        50.0004         45.0004
  -6218729.55047  -4792463.19546  23774835.0874   23774844.0864   23774835.271
        44.0004         39.0004
 -25268006.12749 -19626364.92148  20370897.5534   20370902.0024   20370898.484
        55.0004         51.0004
  -1911313.59247  -1476459.35846  23990329.1974   23990338.3014   23990331.431
        44.0004         40.0004
 -16926982.66148 -13131490.61548  21845282.4694   21845284.9064   21845282.532
        53.0004         48.0004
  -1426545.32148  -1104242.99947  22522527.4524   22522536.1064   22522526.888
        50.0004         45.0004
 -20453978.05649 -15865495.03648  20453504.3044   20453510.7134   20453503.661
        57.0004         52.0004
 -12336728.42848  -9604833.61948  21756058.1084   21756061.8734   21756058.112
        53.0004         49.0004
 15  1  1  0  3 11.0000000  0 10G25G17G32G01G20G09G23G06G03G31
  -4108439.13647  -3174966.09446  23600369.8424   23600379.7744   23600369.536
        44.0004         39.0004
  -2311827.20047  -1763030.80546  24364963.2404   24364972.0514   24364959.310
        44.0004         39.0004
  -6451211.59548  -5007083.35547  22698538.7124   22698545.2454   22698538.849
        50.0004         45.0004
  -6214983.79847  -4789544.43046  23775548.6724   23775557.4914   23775547.678
        44.0004         39.0004
 -25268609.99149 -19626835.46448  20370782.5144   20370787.2944   20370783.546
        55.0004         51.0004
  -1914996.48447  -1479329.13746  23989628.2484   23989637.5124   23989630.804
        44.0004         40.0004
 -16929558.72348 -13133497.93648  21844792.2694   21844794.9344   21844792.284
        53.0004         48.0004
  -1428742.47748  -1105955.06847  22522110.0884   22522116.6524   22522108.875
        50.0004         45.0004
 -20453084.28949 -15864798.59448  20453674.3014   20453680.7634   20453673.728
        57.0004         52.0004
 -12335744.96148  -9604067.28148  21756245.5864   21756248.8364   21756245.293
        53.0004         49.0004
 15  1  1  0  3 12.0000000  0 10G25G17G32G01G20G09G23G06G03G31
  -4107835.50447  -3174495.72946  23600484.8234   23600494.8394   23600484.491
        44.0004         39.0004
  -2308916.33847  -1760762.60246  24365517.4634   24365526.0024   24365513.392
        44.0004         39.0004
  -6448064.33848  -5004630.94547  22699137.9794   22699144.0004   22699137.706
        50.0004         45.0004
  -6211237.78347  -4786625.45946  23776261.2534   23776270.1674   23776260.185
        44.0004         39.0004
 -25269213.15549 -19627305.46148  20370667.9884   20370672.2864   20370668.697
        55.0004         51.0004
  -1918679.13147  -1482198.72646  23988927.0094   23988936.9484   23988930.357
        44.0004         40.0004
 -16932134.31748 -13135504.88848  21844301.9444   21844304.6714   21844302.119
        53.0004         48.0004
  -1430938.99148  -1107666.63647  22521691.0374   22521699.5914   22521690.871
        50.0004         45.0004
 -20452189.86149 -15864101.63748  20453844.6434   20453850.9564   20453843.911
        57.0004         52.0004
 -12334760.73648  -9603300.35348  21756432.7584   21756436.0434   21756432.561
        53.0004         49.0004
 15  1  1  0  3 13.0000000  0 10G25G17G32G01G20G09G23G06G03G31
  -4107230.60647  -3174024.37446  23600600.2314   23600609.5274   23600600.063
        44.0004         39.0004
  -2306004.60947  -1758493.72446  24366071.4954   24366080.4454   24366067.690
        44.0004         39.0004
  -6444916.26848  -5002177.90347  22699736.4754   22699743.3714   22699736.892
        50.0004         45.0004
  -6207490.98647  -4783705.88046  23776975.0954   23776983.1664   23776973.354
        44.0004         39.0004
 -25269815.14649 -19627774.54548  20370553.5614   20370557.8674   20370554.050
        55.0004         51.0004
  -1922361.06247  -1485067.75446  23988225.7374   23988235.5444   23988229.756
        44.0004         40.0004
 -16934708.96848 -13137511.10748  21843812.0914   21843814.5774   21843812.091
        53.0004         48.0004
  -1433134.40448  -1109377.34147  22521274.2784   22521281.7204   22521273.025
        50.0004         45.0004
 -20451294.28349 -15863403.78348  20454015.0294   20454021.3934   20454014.358
        57.0004         52.0004
 -12333775.28748  -9602532.47148  21756620.1834   21756623.5154   21756620.080
        53.0004         49.0004
 15  1  1  0  3 14.0000000  0 10G25G17G32G01G20G09G23G06G03G31
  -4106625.36947  -3173552.75946  23600714.7204   23600724.3914   23600715.379
        44.0004         39.0004
  -2303092.87547  -1756224.84546  24366626.3274   24366635.0504   24366622.427
        44.0004         39.0004
  -6441768.29548  -4999724.93747  22700335.5594   22700341.8904   22700336.041
        50.0004         45.0004
  -6203744.36947  -4780786.44346  23777688.7094   23777696.0354   23777686.233
        44.0004         39.0004
 -25270416.88949 -19628243.43648  20370438.7004   20370443.3874   20370439.480
        55.0004         51.0004
  -1926043.18547  -1487936.93546  23987524.9584   23987534.5564   23987529.065
        44.0004         40.0004
 -16937283.59548 -13139517.30548  21843322.1804   21843324.6064   21843322.168
        53.0004         48.0004
  -1435329.61848  -1111087.89947  22520855.7764   22520863.6094   22520855.374
        50.0004         45.0004
 -20450398.49349 -15862705.76448  20454185.3664   20454191.9434   20454184.863
        57.0004         52.0004
 -12332789.52548  -9601764.34648  21756807.8884   21756811.2674   21756807.613
        53.0004         49.0004
 15  1  1  0  3 15.0000000  0 10G25G17G32G01G20G09G23G06G03G31
  -4106019.53747  -3173080.67646  23600830.4424   23600839.2284   23600830.960
        44.0004         39.0004
  -2300180.95847  -1753955.82046  24367180.1704   24367188.2194   24367176.546
        44.0004         39.0004
  -6438620.13848  -4997271.82147  22700934.5784   22700941.0874   22700935.309
        50.0004         45.0004
  -6199997.63147  -4777866.90946  23778401.8104   23778408.9724   23778399.129
        44.0004         39.0004
 -25271018.11049 -19628711.91748  20370324.3934   20370329.0634   20370324.931
        55.0004         51.0004
  -1929725.23847  -1490806.05946  23986824.4894   23986833.5534   23986828.514
        44.0004         40.0004
 -16939857.94248 -13141523.28948  21842832.4174   21842834.5364   21842832.311
        53.0004         48.0004
  -1437524.38848  -1112798.10347  22520438.3524   22520446.6884   22520437.785
        50.0004         45.0004
 -20449502.21549 -15862007.36548  20454356.0944   20454362.4294   20454355.438
        57.0004         52.0004
 -12331803.19348  -9600995.77648  21756995.5134   21756998.9704   21756995.340
        53.0004         49.0004
 15  1  1  0  3 16.0000000  0 10G25G17G32G01G20G09G23G06G03G31
  -4105412.87647  -3172607.95046  23600945.7774   23600954.4884   23600946.717
        44.0004         39.0004
  -2297268.57347  -1751686.43346  24367734.5334   24367742.4344   24367731.328
        44.0004         39.0004
  -6435471.61748  -4994818.43247  22701533.5824   22701539.4144   22701534.422
        50.0004         45.0004
  -6196250.59947  -4774947.14546  23779114.2314   23779122.0624   23779112.177
        44.0004         40.0004
 -25271618.61249 -19629179.84248  20370210.1464   20370214.4394   20370210.573
        55.0004         51.0004
  -1933407.04547  -1493674.99346  23986122.8294   23986132.4294   23986127.632
        44.0004         40.0004
 -16942431.79348 -13143528.88848  21842342.4414   21842344.9264   21842342.624
        53.0004         48.0004
  -1439718.50548  -1114507.80847  22520020.6454   22520028.8424   22520020.282
        50.0004         45.0004
 -20448605.24849 -15861308.43048  20454526.7144   20454533.0894   20454526.156
        57.0004         52.0004
 -12330816.09548  -9600226.61148  21757183.3054   21757186.7404   21757183.251
        53.0004         49.0004
 15  1  1  0  3 17.0000000  0 10G25G17G32G01G20G09G23G06G03G31
  -4104805.38747  -3172134.58046  23601061.4794   23601069.7354   23601062.356
        44.0004         39.0004
  -2294355.76047  -1749416.71446  24368288.7464   24368296.4184   24368285.875
        44.0004         39.0004
  -6432322.67948  -4992364.71247  22702133.4524   22702139.8984   22702133.614
        50.0004         45.0004
  -6192503.24847  -4772027.13346  23779827.0364   23779835.9034   23779825.265
        44.0004         39.0004
 -25272218.34549 -19629647.16848  20370096.0154   20370100.5894   20370096.415
        55.0004         51.0004
  -1937088.54047  -1496543.68346  23985422.0944   23985431.7864   23985426.630
        44.0004         40.0004
 -16945005.11848 -13145534.07348  21841853.2984   21841855.2764   21841852.978
        53.0004         48.0004
  -1441911.93648  -1116216.97147  22519603.5404   22519611.8294   22519602.878
        50.0004         45.0004
 -20447707.54549 -15860608.92248  20454697.5464   20454703.9304   20454696.895
        57.0004         52.0004
 -12329828.16748  -9599456.79948  21757371.5754   21757375.1974   21757371.275
        53.0004         49.0004
 15  1  1  0  3 18.0000000  0 10G25G17G32G01G20G09G23G06G03G31
  -4104197.15147  -3171660.62946  23601177.4504   23601185.4274   23601178.257
        44.0004         39.0004
  -2291442.56347  -1747146.69446  24368842.9734   24368850.1844   24368840.179
        44.0004         39.0004
  -6429173.42848  -4989910.74947  22702731.8154   22702739.1984   22702732.787
        50.0004         45.0004
  -6188755.64647  -4769106.92646  23780540.6434   23780549.5174   23780538.603
        44.0004         39.0004
 -25272817.43149 -19630113.98848  20369982.2564   20369986.7134   20369982.456
        55.0004         51.0004
  -1940769.84447  -1499412.22346  23984722.1594   23984731.0804   23984725.645
        44.0004         40.0004
 -16947578.02948 -13147538.93948  21841363.3134   21841365.8854   21841363.440
        53.0004         48.0004
  -1444104.77948  -1117925.68047  22519185.9164   22519193.8964   22519185.563
        50.0004         45.0004
 -20446809.24049 -15859908.94648  20454868.3754   20454874.8024   20454867.813
        57.0004         52.0004
 -12328839.54348  -9598686.44448  21757559.7324   21757563.1414   21757559.385
        53.0004         49.0004
 15  1  1  0  3 19.0000000  0 10G25G17G32G01G20G09G23G06G03G31
  -4103588.41647  -3171186.28746  23601293.8064   23601300.9894   23601294.322
        44.0004         39.0004
  -2288529.23647  -1744876.57446  24369396.6654   24369404.4454   24369394.520
        44.0004         39.0004
  -6426024.11648  -4987456.73447  22703332.5734   22703338.1164   22703332.011
        50.0004         45.0004
  -6185008.04247  -4766186.71646  23781253.6504   23781262.7534   23781251.811
        44.0004         39.0004
 -25273416.10649 -19630580.48548  20369868.0804   20369872.5954   20369868.586
        55.0004         51.0004
  -1944451.17647  -1502280.78746  23984022.3354   23984030.3854   23984024.646
        44.0004         40.0004
 -16950150.75348 -13149543.65248  21840873.9824   21840876.0674   21840873.932
        53.0004         48.0004
  -1446297.27948  -1119634.11247  22518768.8274   22518777.7064   22518768.387
        50.0004         45.0004
 -20445910.54749 -15859208.66248  20455039.4894   20455045.9384   20455038.756
        57.0004         52.0004
 -12327850.45248  -9597915.71948  21757747.7804   21757751.3634   21757747.605
        53.0004         49.0004
 15  1  1  0  3 20.0000000  0 10G25G17G32G01G20G09G23G06G03G31
  -4102979.21047  -3170711.57846  23601409.5434   23601416.5864   23601410.208
        44.0004         39.0004
  -2285615.81247  -1742606.38046  24369951.0734   24369958.6514   24369948.735
        44.0004         39.0004
  -6422874.76048  -4985002.68947  22703931.5434   22703938.1404   22703931.256
        50.0004         45.0004
  -6181260.47447  -4763266.53546  23781966.6074   23781975.4444   23781964.999
        44.0004         40.0004
 -25274014.39749 -19631046.68648  20369754.3094   20369758.5314   20369754.759
        55.0004         51.0004
  -1948132.59447  -1505149.41946  23983321.7614   23983329.7604   23983323.713
        44.0004         40.0004
 -16952723.33148 -13151548.25548  21840384.3204   21840386.4654   21840384.499
        53.0004         48.0004
  -1448489.45448  -1121342.30047  22518351.9194   22518360.7154   22518351.273
        50.0004         45.0004
 -20445011.50449 -15858508.10948  20455210.3994   20455216.7984   20455209.775
        57.0004         52.0004
 -12326860.93248  -9597144.66148  21757936.3014   21757939.6204   21757935.951
        53.0004         49.0004
 15  1  1  0  3 21.0000000  0 10G25G17G32G01G20G09G23G06G03G31
  -4102369.51047  -3170236.48446  23601525.4744   23601532.4944   23601526.395
        44.0004         39.0004
  -2282702.28547  -1740336.10446  24370505.1144   24370512.1254   24370502.888
        44.0004         39.0004
  -6419725.36148  -4982548.61147  22704530.5224   22704536.3654   22704530.504
        50.0004         45.0004
  -6177512.94947  -4760346.38746  23782679.9864   23782688.1404   23782678.395
        44.0004         40.0004
 -25274612.29149 -19631512.57548  20369640.6204   20369644.9954   20369640.982
        55.0004         51.0004
  -1951814.06747  -1508018.09146  23982621.2624   23982629.5134   23982622.634
        44.0004         40.0004
 -16955295.74148 -13153552.72848  21839894.8644   21839897.2254   21839895.019
        53.0004         48.0004
  -1450681.30048  -1123050.23347  22517934.7904   22517942.7744   22517934.298
        50.0004         45.0004
 -20444112.09949 -15857807.27148  20455381.6824   20455388.1364   20455380.848
        57.0004         52.0004
 -12325870.94948  -9596373.24548  21758124.4744   21758128.4084   21758124.299
        53.0004         49.0004
 15  1  1  0  3 22.0000000  0 10G25G17G32G01G20G09G23G06G03G31
  -4101758.83247  -3169760.62646  23601641.7484   23601648.9054   23601642.831
        44.0004         39.0004
  -2279788.11347  -1738065.32746  24371059.4034   24371067.5944   24371057.434
        44.0004         39.0004
  -6416575.38748  -4980094.08647  22705130.2794   22705136.6694   22705129.909
        50.0004         45.0004
  -6173764.91647  -4757425.84346  23783393.1644   23783401.3864   23783391.827
        44.0004         39.0004
 -25275209.27749 -19631977.75848  20369527.0384   20369531.2574   20369527.381
        55.0004         51.0004
  -1955495.09947  -1510886.42146  23981920.8984   23981929.5514   23981921.634
        44.0004         40.0004
 -16957867.48548 -13155556.68148  21839405.4964   21839407.4814   21839405.661
        53.0004         48.0004
  -1452872.30448  -1124757.50647  22517517.7144   22517525.1834   22517517.374
        50.0004         45.0004
 -20443211.81949 -15857105.75248  20455552.9054   20455559.6064   20455552.075
        57.0004         52.0004
 -12324880.01448  -9595601.08948  21758313.3284   21758316.7244   21758312.852
        53.0004         49.0004
 15  1  1  0  3 23.0000000  0 10G25G17G32G01G20G09G23G06G03G31
  -4101147.33147  -3169284.12946  23601757.3634   23601765.1564   23601759.336
        44.0004         39.0004
  -2276873.53147  -1735794.23046  24371614.2064   24371622.1734   24371612.004
        44.0004         39.0004
  -6413425.04048  -4977639.26947  22705729.5374   22705735.1934   22705729.356
        50.0004         45.0004
  -6170016.56447  -4754505.04946  23784106.3374   23784114.3464   23784105.165
        44.0004         40.0004
 -25275805.53449 -19632442.37348  20369413.3154   20369418.0624   20369413.922
        55.0004         51.0004
  -1959175.83047  -1513754.51646  23981220.7884   23981229.8544   23981221.071
        44.0004         40.0004
 -16960438.73248 -13157560.24848  21838915.9624   21838918.1944   21838916.441
        53.0004         48.0004
  -1455062.65948  -1126464.27947  22517101.1874   22517109.3844   22517100.468
        50.0004         45.0004
 -20442310.83949 -15856403.69148  20455724.3154   20455730.9664   20455723.454
        57.0004         52.0004
 -12323888.29548  -9594828.31848  21758501.7984   21758505.3534   21758501.549
        53.0004         49.0004
 15  1  1  0  3 24.0000000  0 10G25G17G32G01G20G09G23G06G03G31
  -4100535.54747  -3168807.41246  23601874.2544   23601881.3284   23601876.049
        44.0004         39.0004
  -2273959.06347  -1733523.22146  24372169.1074   24372176.9394   24372167.185
        44.0004         39.0004
  -6410274.84048  -4975184.56747  22706329.1614   22706334.9444   22706328.696
        50.0004         45.0004
  -6166268.43847  -4751584.43246  23784819.6314   23784828.0724   23784818.563
        44.0004         39.0004
 -25276401.60449 -19632906.84348  20369300.1944   20369304.4574   20369300.553
        55.0004         51.0004
  -1962856.83047  -1516622.82246  23980521.1214   23980529.4894   23980520.517
        44.0004         40.0004
 -16963010.01248 -13159563.84148  21838426.4054   21838428.9634   21838427.228
        53.0004         48.0004
  -1457252.86548  -1128170.93047  22516683.9864   22516692.7814   22516683.650
        50.0004         45.0004
 -20441409.69849 -15855701.50448  20455895.8104   20455902.3154   20455894.838
        57.0004         52.0004
 -12322896.32848  -9594055.35548  21758690.6424   21758694.1034   21758690.260
        53.0004         49.0004
 15  1  1  0  3 25.0000000  0 10G25G17G32G01G20G09G23G06G03G31
  -4099922.71847  -3168329.88046  23601991.2464   23601998.7474   23601992.821
        44.0004         39.0004
  -2271043.87747  -1731251.65246  24372723.8224   24372731.7304   24372722.224
        44.0004         39.0004
  -6407124.02148  -4972729.37947  22706928.3504   22706935.1974   22706928.274
        50.0004         45.0004
  -6162519.78547  -4748663.40346  23785533.6604   23785541.1644   23785532.026
        44.0004         39.0004
 -25276996.71149 -19633370.56348  20369186.8654   20369191.1944   20369187.352
        55.0004         51.0004
  -1966537.33347  -1519490.73846  23979820.7364   23979829.1974   23979819.832
        44.0004         40.0004
 -16965580.55948 -13161566.86248  21837937.9544   21837939.8334   21837938.118
        53.0004         48.0004
  -1459442.18448  -1129876.89447  22516267.6764   22516275.4784   22516266.996
        50.0004         45.0004
 -20440507.64049 -15854998.60048  20456067.4804   20456074.0114   20456066.425
        57.0004         52.0004
 -12321903.35348  -9593281.60848  21758879.6174   21758883.3244   21758879.109
        53.0004         49.0004
 15  1  1  0  3 26.0000000  0 10G25G17G32G01G20G09G23G06G03G31
  -4099309.18347  -3167851.79646  23602107.5564   23602115.1844   23602109.483
        44.0004         39.0004
  -2268128.38447  -1728979.84446  24373279.0424   24373285.5144   24373277.134
        44.0004         39.0004
  -6403972.93248  -4970273.98247  22707527.4734   22707534.4154   22707527.958
        50.0004         45.0004
  -6158770.91447  -4745742.20846  23786247.3424   23786255.1744   23786245.633
        44.0004         40.0004
 -25277591.20549 -19633833.80548  20369073.6354   20369078.1484   20369074.260
        55.0004         51.0004
  -1970217.68047  -1522358.53546  23979120.5754   23979128.8184   23979119.349
        44.0004         40.0004
 -16968150.73248 -13163569.59248  21837448.6144   21837450.3994   21837449.129
        53.0004         48.0004
  -1461630.95948  -1131582.43247  22515851.0184   22515858.7814   22515850.494
        50.0004         45.0004
 -20439605.00049 -15854295.24248  20456239.2174   20456245.8874   20456238.148
        57.0004         52.0004
 -12320909.70448  -9592507.33648  21759068.4794   21759071.9464   21759068.151
        53.0004         49.0004
 15  1  1  0  3 27.0000000  0 10G25G17G32G01G20G09G23G06G03G31
  -4098695.01947  -3167373.22546  23602224.4044   23602231.4864   23602226.202
        44.0004         39.0004
  -2265212.63247  -1726707.83546  24373832.7274   24373839.7264   24373831.373
        44.0004         39.0004
  -6400821.66648  -4967818.44947  22708127.7804   22708134.0284   22708127.610
        50.0004         45.0004
  -6155021.94947  -4742820.93846  23786960.9864   23786968.5364   23786959.376
        44.0004         40.0004
 -25278185.17149 -19634296.63448  20368960.4384   20368965.0574   20368961.262
        55.0004         51.0004
  -1973897.93347  -1525226.25846  23978419.3514   23978428.5414   23978418.879
        44.0004         40.0004
 -16970720.59948 -13165572.08548  21836959.2064   21836961.9664   21836960.223
        53.0004         48.0004
  -1463819.27748  -1133287.61547  22515434.5524   22515442.4824   22515433.960
        50.0004         45.0004
 -20438701.86249 -15853591.49848  20456410.9964   20456417.4614   20456409.928
        57.0004         52.0004
 -12319915.47448  -9591732.61248  21759257.7224   21759261.2964   21759257.320
        53.0004         49.0004
 15  1  1  0  3 28.0000000  0 10G25G17G32G01G20G09G23G06G03G31
  -4098079.91447  -3166893.92146  23602340.4874   23602347.8734   23602342.831
        44.0004         40.0004
  -2262296.33147  -1724435.39846  24374387.6574   24374394.6674   24374385.782
        44.0004         39.0004
  -6397669.88748  -4965362.52047  22708727.6344   22708733.6954   22708727.476
        50.0004         45.0004
  -6151272.56047  -4739899.33746  23787673.8984   23787681.9354   23787673.077
        44.0004         40.0004
 -25278778.27649 -19634758.79548  20368847.9174   20368852.1514   20368848.287
        55.0004         51.0004
  -1977577.80447  -1528093.68346  23977719.3444   23977728.1734   23977718.646
        44.0004         40.0004
 -16973289.84848 -13167574.09448  21836470.4044   21836473.0604   21836471.425
        53.0004         48.0004
  -1466006.79748  -1134992.17247  22515017.4164   22515027.2214   22515017.604
        50.0004         45.0004
 -20437797.89349 -15852887.10648  20456583.1394   20456589.8404   20456581.881
        57.0004         52.0004
 -12318920.33748  -9590957.18048  21759447.3214   21759451.0914   21759446.686
        53.0004         49.0004
 15  1  1  0  3 29.0000000  0 10G25G17G32G01G20G09G23G06G03G31
  -4097463.97347  -3166413.96646  23602457.9314   23602465.6454   23602459.636
        44.0004         39.0004
  -2259379.60147  -1722162.62446  24374943.1844   24374950.0844   24374940.226
        44.0004         39.0004
  -6394517.68848  -4962906.25547  22709327.0234   22709333.9404   22709327.463
        50.0004         45.0004
  -6147522.81547  -4736977.45946  23788387.0434   23788395.4054   23788386.738
        44.0004         40.0004
 -25279370.62849 -19635220.36548  20368734.9604   20368739.6884   20368735.476
        55.0004         51.0004
  -1981257.37047  -1530960.86946  23977019.4174   23977028.3764   23977018.440
        44.0004         40.0004
 -16975858.57548 -13169575.69948  21835982.0464   21835983.5924   21835982.636
        53.0004         48.0004
  -1468193.63048  -1136696.19947  22514602.5134   22514610.2614   22514601.342
        50.0004         45.0004
 -20436893.21749 -15852182.16148  20456755.0354   20456761.7334   20456754.029
        57.0004         52.0004
 -12317924.38548  -9590181.11048  21759636.9154   21759640.1194   21759636.211
        53.0004         49.0004
 15  1  1  0  3 30.0000000  0 10G25G17G32G01G20G09G23G06G03G31
  -4096847.30647  -3165933.44746  23602575.8604   23602583.4094   23602576.740
        44.0004         40.0004
  -2256462.47047  -1719889.53646  24375498.5854   24375505.4074   24375495.128
        44.0004         39.0004
  -6391365.19348  -4960449.76547  22709927.8004   22709934.0214   22709927.504
        50.0004         45.0004
  -6143772.85147  -4734055.41146  23789100.2704   23789109.4374   23789100.616
        44.0004         40.0004
 -25279962.33449 -19635681.43548  20368622.4854   20368626.9164   20368622.863
        55.0004         51.0004
  -1984936.74147  -1533827.90646  23976319.4884   23976328.8314   23976318.580
        44.0004         40.0004
 -16978426.88748 -13171576.98148  21835493.3274   21835495.5014   21835493.871
        53.0004         48.0004
  -1470379.88348  -1138399.77547  22514186.5364   22514193.5804   22514185.287
        50.0004         45.0004
 -20435987.92849 -15851476.74348  20456927.4684   20456934.1854   20456926.343
        57.0004         52.0004
 -12316927.74248  -9589404.50348  21759826.3934   21759830.1984   21759825.907
        53.0004         49.0004
 15  1  1  0  3 31.0000000  0 10G25G17G32G01G20G09G23G06G03G31
  -4096229.76247  -3165452.24446  23602693.9124   23602701.6974   23602694.050
        44.0004         40.0004
  -2253544.91647  -1717616.12046  24376054.3334   24376061.0104   24376050.489
        44.0004         39.0004
  -6388212.28048  -4957992.94947  22710527.1634   22710533.6054   22710527.557
        50.0004         45.0004
  -6140022.54447  -4731133.09546  23789812.9794   23789823.2254   23789814.453
        44.0004         40.0004
 -25280553.27749 -19636141.91048  20368510.1114   20368514.5534   20368510.402
        55.0004         51.0004
  -1988615.79147  -1536694.69246  23975619.4134   23975628.8494   23975618.597
        44.0004         40.0004
 -16980994.67148 -13173577.84948  21835004.7144   21835006.5384   21835005.157
        53.0004         48.0004
  -1472565.42748  -1140102.79247  22513770.4974   22513778.4374   22513769.372
        50.0004         45.0004
 -20435081.89749 -15850770.74348  20457099.9634   20457106.5034   20457098.782
        57.0004         52.0004
 -12315930.27348  -9588627.25348  21760015.7964   21760019.9284   21760015.757
        53.0004         49.0004
 15  1  1  0  3 32.0000000  0 10G25G17G32G01G20G09G23G06G03G31
  -4095611.27947  -3164970.30946  23602811.9054   23602819.1384   23602811.692
        44.0004         40.0004
  -2250626.71747  -1715342.20046  24376609.8554   24376616.6734   24376605.728
        44.0004         39.0004
  -6385058.85248  -4955535.73347  22711127.6754   22711134.4564   22711127.815
        50.0004         45.0004
  -6136271.78047  -4728210.42246  23790526.4764   23790536.7264   23790528.182
        44.0004         40.0004
 -25281143.36549 -19636601.71748  20368397.6164   20368402.1394   20368398.155
        55.0004         51.0004
  -1992294.44947  -1539561.17446  23974919.7214   23974928.9554   23974918.699
        44.0004         40.0004
 -16983561.81648 -13175578.21448  21834515.9134   21834517.8654   21834516.559
        53.0004         48.0004
  -1474750.20048  -1141805.21347  22513354.1304   22513362.1034   22513353.656
        50.0004         45.0004
 -20434175.04649 -15850064.10448  20457272.4744   20457279.0554   20457271.438
        57.0004         52.0004
 -12314931.90148  -9587849.30048  21760205.7054   21760209.8314   21760205.714
        53.0004         49.0004
 15  1  1  0  3 33.0000000  0 10G25G17G32G01G20G09G23G06G03G31
  -4094992.24747  -3164487.94746  23602930.3314   23602937.4154   23602929.444
        44.0004         40.0004
  -2247708.40047  -1713068.18846  24377165.5014   24377172.7644   24377161.639
        44.0004         39.0004
  -6381905.32648  -4953078.44047  22711727.3844   22711734.0014   22711727.937
        50.0004         45.0004
  -6132520.97447  -4725287.71746  23791240.2274   23791250.0594   23791242.180
        44.0004         39.0004
 -25281732.98449 -19637061.16248  20368285.4564   20368289.9594   20368285.999
        55.0004         51.0004
  -1995973.09747  -1542427.64946  23974219.6294   23974228.6694   23974218.795
        44.0004         40.0004
 -16986128.74548 -13177578.42048  21834027.1274   21834029.7304   21834028.063
        53.0004         48.0004
  -1476934.56148  -1143507.30847  22512938.4254   22512947.1784   22512937.935
        50.0004         45.0004
 -20433267.76649 -15849357.13348  20457445.1894   20457451.9104   20457444.243
        57.0004         52.0004
 -12313933.01648  -9587070.95248  21760396.3484   21760399.8844   21760395.787
        53.0004         49.0004
 15  1  1  0  3 34.0000000  0 10G25G17G32G01G20G09G23G06G03G31
  -4094372.25047  -3164004.83346  23603048.1044   23603055.7944   23603047.289
        44.0004         40.0004
  -2244789.46747  -1710793.69746  24377720.7314   24377727.9694   24377717.395
        44.0004         39.0004
  -6378751.25448  -4950620.71947  22712328.1944   22712334.1124   22712328.174
        50.0004         45.0004
  -6128769.69447  -4722364.64446  23791953.1464   23791963.5704   23791955.969
        44.0004         39.0004
 -25282321.72649 -19637519.92048  20368173.3374   20368177.9824   20368173.920
        55.0004         51.0004
  -1999651.31847  -1545293.79046  23973519.4254   23973529.0484   23973519.097
        44.0004         40.0004
 -16988695.01648 -13179578.10748  21833538.8614   21833541.0004   21833539.683
        53.0004         48.0004
  -1479118.12248  -1145208.77947  22512523.4574   22512530.5464   22512522.394
        50.0004         45.0004
 -20432359.63349 -15848649.49548  20457618.0164   20457624.5474   20457617.197
        57.0004         52.0004
 -12312933.19648  -9586291.86948  21760586.4824   21760590.3964   21760585.996
        53.0004         49.0004
 15  1  1  0  3 35.0000000  0 10G25G17G32G01G20G09G23G06G03G31
  -4093752.10447  -3163521.60446  23603165.7294   23603173.5314   23603165.153
        44.0004         40.0004
  -2241870.74947  -1708519.37446  24378276.1304   24378283.5934   24378273.381
        44.0004         39.0004
  -6375597.44748  -4948163.20647  22712928.2714   22712934.6584   22712928.323
        50.0004         45.0004
  -6125018.76947  -4719441.84646  23792666.9964   23792676.6854   23792669.654
        44.0004         39.0004
 -25282910.39249 -19637978.62148  20368061.4854   20368066.0564   20368061.849
        55.0004         51.0004
  -2003329.90847  -1548160.22046  23972819.5064   23972828.8274   23972819.467
        44.0004         40.0004
 -16991261.44848 -13181577.92248  21833050.3394   21833052.7704   21833051.332
        53.0004         48.0004
  -1481301.65848  -1146910.23747  22512108.6244   22512115.3754   22512106.826
        50.0004         45.0004
 -20431451.46449 -15847941.83148  20457790.7924   20457797.4144   20457790.110
        57.0004         52.0004
 -12311933.24848  -9585512.69348  21760776.5814   21760780.4404   21760776.266
        53.0004         49.0004
 15  1  1  0  3 36.0000000  0 10G25G17G32G01G20G09G23G06G03G31
  -4093131.38647  -3163037.93046  23603283.3724   23603291.5664   23603283.237
        44.0004         40.0004
  -2238951.86147  -1706244.92046  24378830.9684   24378838.9914   24378829.317
        44.0004         39.0004
  -6372443.51648  -4945705.59547  22713527.6024   22713533.5164   22713528.381
        50.0004         45.0004
  -6121267.81047  -4716519.02646  23793381.2694   23793390.0934   23793383.164
        44.0004         39.0004
 -25283498.59149 -19638436.95848  20367949.5534   20367953.8574   20367949.915
        55.0004         51.0004
  -2007008.48747  -1551026.64046  23972119.4184   23972128.5394   23972119.756
        44.0004         40.0004
 -16993827.63948 -13183577.55048  21832562.3874   21832564.4174   21832562.883
        53.0004         48.0004
  -1483484.79148  -1148611.38447  22511692.2244   22511700.0474   22511691.402
        50.0004         45.0004
 -20430542.85849 -15847233.82648  20457963.6334   20457970.3304   20457963.104
        57.0004         52.0004
 -12310932.77848  -9584733.10548  21760966.6434   21760971.0364   21760966.533
        53.0004         49.0004
 15  1  1  0  3 37.0000000  0 10G25G17G32G01G20G09G23G06G03G31
  -4092510.69947  -3162554.28246  23603401.8994   23603409.5764   23603401.526
        44.0004         40.0004
  -2236033.35947  -1703970.76546  24379386.6314   24379394.0274   24379385.170
        44.0004         39.0004
  -6369290.05048  -4943248.35147  22714128.7914   22714135.0904   22714128.442
        50.0004         45.0004
  -6117517.36147  -4713596.60346  23794095.3354   23794104.0454   23794096.744
        44.0004         39.0004
 -25284086.90149 -19638895.38248  20367837.3824   20367841.8884   20367837.945
        55.0004         51.0004
  -2010687.65047  -1553893.51846  23971418.9764   23971427.8824   23971419.825
        44.0004         40.0004
 -16996394.17348 -13185577.44448  21832073.7694   21832076.2964   21832074.364
        53.0004         48.0004
  -1485668.11548  -1150312.67447  22511277.1194   22511283.9764   22511275.930
        50.0004         45.0004
 -20429634.40249 -15846525.93748  20458136.6184   20458143.1154   20458136.093
        57.0004         52.0004
 -12309932.38048  -9583953.57848  21761157.2044   21761161.7904   21761156.830
        53.0004         49.0004
 15  1  1  0  3 38.0000000  0 10G25G17G32G01G20G09G23G06G03G31
  -4091889.57847  -3162070.29346  23603520.3424   23603527.7944   23603520.017
        44.0004         40.0004
  -2233114.80347  -1701696.56846  24379942.3524   24379948.9694   24379941.169
        44.0004         39.0004
  -6366136.56548  -4940791.08847  22714728.1884   22714734.9554   22714728.444
        50.0004         45.0004
  -6113766.98247  -4710674.23346  23794808.6084   23794817.8644   23794810.381
        44.0004         39.0004
 -25284674.86249 -19639353.53248  20367725.7324   20367730.2644   20367726.012
        55.0004         51.0004
  -2014366.89347  -1556760.45746  23970719.1534   23970727.4074   23970719.846
        44.0004         40.0004
 -16998960.58548 -13187577.24348  21831585.5324   21831588.0894   21831585.813
        53.0004         48.0004
  -1487851.14648  -1152013.73747  22510861.8314   22510869.0144   22510860.588
        50.0004         45.0004
 -20428725.62349 -15845817.79548  20458309.5084   20458316.0434   20458309.130
        57.0004         52.0004
 -12308931.57748  -9583173.73148  21761347.9554   21761352.0354   21761347.143
        53.0004         49.0004
 15  1  1  0  3 39.0000000  0 10G25G17G32G01G20G09G23G06G03G31
  -4091267.40047  -3161585.47846  23603638.3474   23603645.7374   23603638.337
        44.0004         40.0004
  -2230195.58447  -1699421.85346  24380497.7834   24380504.2194   24380496.974
        44.0004         39.0004
  -6362982.45848  -4938333.34247  22715328.2254   22715333.9424   22715328.460
        50.0004         45.0004
  -6110016.07647  -4707751.45246  23795522.1074   23795532.0494   23795524.022
        44.0004         39.0004
 -25285261.85149 -19639810.92748  20367613.8104   20367618.6494   20367614.292
        55.0004         51.0004
  -2018045.62147  -1559626.99546  23970019.5894   23970027.0844   23970020.004
        44.0004         40.0004
 -17001526.26448 -13189576.47048  21831097.0884   21831099.6154   21831097.493
        53.0004         48.0004
  -1490033.26448  -1153714.08047  22510446.3444   22510454.3114   22510445.265
        50.0004         45.0004
 -20427815.89849 -15845108.91848  20458482.6104   20458489.1394   20458482.293
        57.0004         52.0004
 -12307929.73948  -9582393.08048  21761538.6094   21761542.4654   21761537.695
        53.0004         49.0004
 15  1  1  0  3 40.0000000  0 10G25G17G32G01G20G09G23G06G03G31
  -4090644.39247  -3161100.02046  23603757.3974   23603764.3864   23603756.777
        44.0004         40.0004
  -2227275.88447  -1697146.76346  24381053.1864   24381059.7254   24381052.549
        44.0004         39.0004
  -6359827.96948  -4935875.30147  22715928.9914   22715934.8124   22715928.719
        50.0004         45.0004
  -6106264.82347  -4704828.40046  23796236.2494   23796246.4984   23796237.567
        44.0004         39.0004
 -25285848.10149 -19640267.74548  20367502.3334   20367507.1354   20367502.800
        55.0004         51.0004
  -2021724.07247  -1562493.31846  23969319.3204   23969327.2304   23969320.065
        45.0004         40.0004
 -17004091.42648 -13191575.29648  21830608.7214   21830611.3304   21830609.288
        53.0004         48.0004
  -1492214.71248  -1155413.90847  22510030.7504   22510038.5524   22510030.336
        50.0004         45.0004
 -20426905.47849 -15844399.50048  20458655.7344   20458662.6224   20458655.511
        57.0004         52.0004
 -12306927.11348  -9581611.81448  21761729.3814   21761733.4274   21761728.366
        53.0004         49.0004
 15  1  1  0  3 41.0000000  0 10G25G17G32G01G20G09G23G06G03G31
  -4090020.12547  -3160613.57846  23603875.6854   23603883.4164   23603875.465
        44.0004         40.0004
  -2224355.30847  -1694870.98946  24381608.6014   24381615.0884   24381607.956
        44.0004         39.0004
  -6356672.65548  -4933416.61147  22716529.2734   22716535.4474   22716529.155
        50.0004         45.0004
  -6102512.84347  -4701904.77946  23796950.8374   23796960.0944   23796951.070
        44.0004         39.0004
 -25286433.18749 -19640723.65548  20367391.0464   20367395.6684   20367391.502
        55.0004         51.0004
  -2025401.80147  -1565359.07746  23968619.3194   23968627.0384   23968620.157
        45.0004         40.0004
 -17006655.65748 -13193573.39348  21830120.8604   21830123.0554   21830121.341
        53.0004         48.0004
  -1494395.05748  -1157112.87647  22509617.0834   22509622.9184   22509615.371
        50.0004         45.0004
 -20425993.93949 -15843689.20948  20458829.5344   20458836.0074   20458829.009
        57.0004         52.0004
 -12305923.27148  -9580829.59648  21761920.2514   21761924.2084   21761919.386
        53.0004         49.0004
 15  1  1  0  3 42.0000000  0 10G25G17G32G01G20G09G23G06G03G31
  -4089395.11747  -3160126.55946  23603994.5524   23604003.2444   23603994.376
        44.0004         40.0004
  -2221434.41747  -1692594.97346  24382164.6044   24382170.4144   24382163.413
        44.0004         39.0004
  -6353517.04348  -4930957.69447  22717129.5554   22717135.6184   22717129.585
        50.0004         45.0004
  -6098760.61947  -4698980.97346  23797664.9624   23797673.6184   23797664.724
        44.0004         39.0004
 -25287017.62449 -19641179.06048  20367280.2194   20367284.3564   20367280.360
        55.0004         51.0004
  -2029079.33647  -1568224.68746  23967919.4444   23967927.0824   23967920.195
        45.0004         40.0004
 -17009219.45948 -13195571.16148  21829632.8474   21829635.7354   21829633.441
        53.0004         48.0004
  -1496574.81748  -1158811.39047  22509200.6104   22509208.9204   22509200.637
        50.0004         45.0004
 -20425081.76349 -15842978.42248  20459002.9034   20459009.4404   20459002.669
        57.0004         52.0004
 -12304918.72248  -9580046.83648  21762111.2704   21762115.4694   21762110.553
        53.0004         49.0004
 15  1  1  0  3 43.0000000  0 10G25G17G32G01G20G09G23G06G03G31
  -4088769.37147  -3159638.96446  23604113.9244   23604122.1514   23604113.213
        44.0004         40.0004
  -2218513.13147  -1690318.65246  24382720.0844   24382725.7144   24382718.658
        44.0004         39.0004
  -6350361.12648  -4928498.54047  22717729.6424   22717736.4344   22717730.305
        50.0004         45.0004
  -6095008.16447  -4696056.98546  23798378.9974   23798387.9534   23798378.245
        44.0004         39.0004
 -25287601.40449 -19641633.95448  20367168.7874   20367173.3514   20367169.314
        55.0004         51.0004
  -2032756.66647  -1571090.13646  23967219.7074   23967227.5854   23967220.220
        45.0004         40.0004
 -17011782.84748 -13197568.60548  21829145.2904   21829147.8044   21829145.638
        53.0004         48.0004
  -1498753.99348  -1160509.44647  22508786.5674   22508794.4684   22508786.026
        50.0004         45.0004
 -20424168.97149 -15842267.15448  20459176.5644   20459183.1604   20459176.374
        57.0004         52.0004
 -12303913.45948  -9579263.51448  21762302.6944   21762306.5564   21762301.933
        53.0004         49.0004
 15  1  1  0  3 44.0000000  0 10G25G17G32G01G20G09G23G06G03G31
  -4088142.98747  -3159150.87246  23604232.4464   23604241.4854   23604232.317
        44.0004         40.0004
  -2215591.60747  -1688042.14446  24383276.3544   24383282.1694   24383273.969
        44.0004         39.0004
  -6347204.99648  -4926039.21247  22718330.5084   22718336.3054   22718330.851
        50.0004         45.0004
  -6091255.58547  -4693132.90146  23799093.3664   23799102.3224   23799092.112
        44.0004         39.0004
 -25288184.63649 -19642088.42248  20367057.9774   20367062.3284   20367058.437
        55.0004         51.0004
  -2036433.90947  -1573955.51946  23966519.9844   23966528.0334   23966520.264
        45.0004         40.0004
 -17014345.90848 -13199565.79048  21828657.2454   21828660.2474   21828657.838
        53.0004         48.0004
  -1500932.67248  -1162207.11547  22508371.9804   22508379.7794   22508371.601
        50.0004         45.0004
 -20423255.66549 -15841555.48648  20459350.3814   20459357.0534   20459350.112
        57.0004         52.0004
 -12302907.59248  -9578479.72148  21762493.8774   21762497.9524   21762493.405
        53.0004         49.0004
 15  1  1  0  3 45.0000000  0 10G25G17G32G01G20G09G23G06G03G31
  -4087515.78347  -3158662.14146  23604351.8034   23604360.7364   23604351.623
        44.0004         40.0004
  -2212669.65547  -1685765.30046  24383831.9694   24383838.4504   24383829.808
        44.0004         39.0004
  -6344048.48748  -4923579.59047  22718931.3324   22718937.6174   22718931.524
        50.0004         45.0004
  -6087502.69147  -4690208.57146  23799807.1194   23799816.0414   23799805.728
        44.0004         39.0004
 -25288767.14649 -19642542.32348  20366946.8314   20366951.4124   20366947.668
        55.0004         51.0004
  -2040110.87347  -1576820.68246  23965820.1564   23965828.6034   23965820.519
        45.0004         40.0004
 -17016908.47848 -13201562.59548  21828169.7794   21828172.4044   21828170.103
        53.0004         48.0004
  -1503110.70448  -1163904.28247  22507957.7294   22507964.5844   22507957.201
        50.0004         45.0004
 -20422341.67149 -15840843.28048  20459524.3074   20459530.8984   20459523.895
        57.0004         52.0004
 -12301900.95148  -9577695.32448  21762685.8674   21762689.6204   21762685.122
        53.0004         49.0004
 15  1  1  0  3 46.0000000  0 10G25G17G32G01G20G09G23G06G03G31
  -4086887.73247  -3158172.74946  23604471.1564   23604480.3344   23604471.197
        44.0004         40.0004
  -2209747.18147  -1683488.04846  24384388.9134   24384395.0454   24384385.993
        44.0004         39.0004
  -6340891.57048  -4921119.66147  22719531.6664   22719538.4264   22719532.063
        50.0004         45.0004
  -6083749.46047  -4687283.97946  23800521.3174   23800530.2324   23800519.682
        44.0004         39.0004
 -25289348.89749 -19642995.63848  20366836.3744   20366840.7924   20366837.041
        55.0004         51.0004
  -2043787.51947  -1579685.60046  23965120.4954   23965128.5504   23965120.599
        45.0004         40.0004
 -17019470.52248 -13203558.99448  21827682.1914   21827684.7494   21827682.533
        53.0004         48.0004
  -1505288.03548  -1165600.90747  22507543.8164   22507550.2624   22507543.045
        50.0004         45.0004
 -20421426.94549 -15840130.51148  20459698.6054   20459705.1684   20459697.899
        57.0004         52.0004
 -12300893.50048  -9576910.30248  21762877.3794   21762881.4994   21762876.879
        53.0004         49.0004
 15  1  1  0  3 47.0000000  0 10G25G17G32G01G20G09G23G06G03G31
  -4086259.09547  -3157682.90446  23604590.3914   23604600.0074   23604590.735
        44.0004         40.0004
  -2206824.49147  -1681210.63046  24384945.6754   24384952.3924   24384942.593
        44.0004         39.0004
  -6337734.48448  -4918659.59147  22720132.8134   22720138.7234   22720132.696
        50.0004         45.0004
  -6079996.14747  -4684359.32446  23801235.7144   23801244.1504   23801233.684
        44.0004         39.0004
 -25289930.13349 -19643448.54848  20366725.5404   20366730.2004   20366726.481
        55.0004         51.0004
  -2047464.13047  -1582550.48846  23964420.9434   23964428.3764   23964420.734
        45.0004         40.0004
 -17022032.30048 -13205555.18248  21827194.7724   21827197.5104   21827195.038
        53.0004         48.0004
  -1507464.92148  -1167297.18547  22507129.5634   22507136.4434   22507128.785
        50.0004         45.0004
 -20420511.76149 -15839417.38048  20459872.5294   20459879.1054   20459872.008
        57.0004         52.0004
 -12299885.48548  -9576124.83548  21763069.0704   21763073.0704   21763068.710
        53.0004         49.0004
 15  1  1  0  3 48.0000000  0 10G25G17G32G01G20G09G23G06G03G31
  -4085629.62647  -3157192.40946  23604710.2814   23604720.1554   23604710.488
        44.0004         40.0004
  -2203901.42247  -1678932.91846  24385502.3524   24385509.1784   24385499.415
        44.0004         39.0004
  -6334577.01948  -4916199.22747  22720733.7104   22720740.0464   22720733.466
        50.0004         45.0004
  -6076242.54547  -4681434.44246  23801949.9724   23801959.5204   23801947.958
        44.0004         39.0004
 -25290510.66049 -19643900.90348  20366615.1164   20366619.9154   20366616.133
        55.0004         51.0004
  -2051140.48247  -1585415.17546  23963721.3604   23963728.8094   23963720.892
        45.0004         40.0004
 -17024593.57948 -13207550.97948  21826707.3474   21826709.4674   21826707.680
        53.0004         48.0004
  -1509641.15848  -1168992.95047  22506715.3394   22506723.1734   22506714.862
        50.0004         45.0004
 -20419595.87649 -15838703.69948  20460046.8584   20460053.5464   20460046.239
        57.0004         52.0004
 -12298876.69648  -9575338.75948  21763261.0034   21763265.0494   21763260.697
        53.0004         49.0004
 15  1  1  0  3 49.0000000  0 10G25G17G32G01G20G09G23G06G03G31
  -4084999.44047  -3156701.35446  23604830.5004   23604839.6684   23604830.445
        44.0004         40.0004
  -2200977.96547  -1676654.90246  24386058.3154   24386065.8344   24386056.019
        44.0004         39.0004
  -6331419.24948  -4913738.62647  22721334.4604   22721341.3414   22721334.413
        50.0004         45.0004
  -6072488.69547  -4678509.36746  23802664.4444   23802674.0004   23802662.303
        44.0004         39.0004
 -25291090.52049 -19644352.74148  20366504.9074   20366509.3364   20366505.835
        55.0004         51.0004
  -2054816.61747  -1588279.69346  23963021.6614   23963029.2084   23963021.084
        45.0004         40.0004
 -17027154.44648 -13209546.45748  21826220.1664   21826222.3754   21826220.419
        53.0004         48.0004
  -1511816.80848  -1170688.25947  22506301.0214   22506307.9314   22506300.905
        50.0004         46.0004
 -20418679.37749 -15837989.54148  20460221.2624   20460227.8074   20460220.666
        57.0004         52.0004
 -12297867.20748  -9574552.14348  21763453.1974   21763457.5304   21763452.889
        53.0004         49.0004
 15  1  1  0  3 50.0000000  0 10G25G17G32G01G20G09G23G06G03G31
  -4084368.85347  -3156209.98746  23604950.8334   23604959.2584   23604950.689
        44.0004         40.0004
  -2198054.50947  -1674376.88846  24386614.4564   24386622.1034   24386612.962
        44.0004         39.0004
  -6328261.54448  -4911278.07547  22721935.7064   22721942.3674   22721935.504
        50.0004         45.0004
  -6068734.96747  -4675584.38746  23803378.6314   23803387.9014   23803376.486
        44.0004         39.0004
 -25291670.08649 -19644804.35148  20366394.2894   20366398.9164   20366395.529
        55.0004         51.0004
  -2058492.91147  -1591144.33346  23962321.7484   23962330.1224   23962321.409
        45.0004         40.0004
 -17029715.23048 -13211541.87448  21825732.6714   21825734.7904   21825733.210
        53.0004         48.0004
  -1513992.22048  -1172383.38447  22505887.4394   22505894.2794   22505886.862
        50.0004         46.0004
 -20417762.61349 -15837275.18048  20460395.7464   20460402.3194   20460395.058
        57.0004         52.0004
 -12296857.36248  -9573765.25248  21763645.6504   21763649.2434   21763645.110
        53.0004         49.0004
 15  1  1  0  3 51.0000000  0 10G25G17G32G01G20G09G23G06G03G31
  -4083737.63647  -3155718.12846  23605070.5014   23605078.8594   23605070.755
        44.0004         40.0004
  -2195130.77047  -1672098.65446  24387171.1464   24387178.0214   24387169.816
        44.0004         39.0004
  -6325103.63148  -4908817.36447  22722535.9614   22722542.6874   22722536.694
        50.0004         45.0004
  -6064981.11947  -4672659.31246  23804093.1704   23804101.9884   23804090.573
        44.0004         39.0004
 -25292249.09849 -19645255.52548  20366284.3704   20366288.9164   20366285.297
        55.0004         51.0004
  -2062169.11047  -1594008.90246  23961622.1134   23961631.0504   23961621.828
        45.0004         40.0004
 -17032275.69448 -13213537.03548  21825245.5464   21825247.7014   21825245.981
        53.0004         48.0004
  -1516167.14448  -1174078.12847  22505473.3164   22505480.4634   22505473.045
        50.0004         46.0004
 -20416845.34049 -15836560.42048  20460570.1284   20460576.7724   20460569.591
        57.0004         52.0004
 -12295846.91548  -9572977.88648  21763838.0074   21763841.6484   21763837.500
        53.0004         49.0004
 15  1  1  0  3 52.0000000  0 10G25G17G32G01G20G09G23G06G03G31
  -4083105.66447  -3155225.67946  23605190.9094   23605199.5284   23605191.017
        44.0004         40.0004
  -2192206.65947  -1669820.13246  24387727.1524   24387734.1604   24387726.793
        44.0004         39.0004
  -6321945.40148  -4906356.40447  22723137.8354   22723143.9434   22723137.856
        50.0004         45.0004
  -6061227.01347  -4669734.03746  23804807.4214   23804816.6834   23804805.130
        44.0004         39.0004
 -25292827.44949 -19645706.19248  20366174.3634   20366178.9484   20366175.207
        55.0004         51.0004
  -2065845.09247  -1596873.29846  23960922.9654   23960931.8884   23960922.340
        45.0004         40.0004
 -17034835.72348 -13215531.86448  21824758.4354   21824760.5384   21824758.901
        53.0004         48.0004
  -1518341.46648  -1175772.40447  22505059.9974   22505067.0254   22505059.410
        50.0004         46.0004
 -20415927.42749 -15835845.16648  20460745.1504   20460751.5334   20460744.271
        57.0004         52.0004
 -12294835.75148  -9572189.96648  21764030.1824   21764034.0804   21764030.091
        53.0004         49.0004
 15  1  1  0  3 53.0000000  0 10G25G17G32G01G20G09G23G06G03G31
  -4082472.81747  -3154732.54946  23605311.2984   23605319.4724   23605311.276
        44.0004         40.0004
  -2189282.07347  -1667541.23846  24388283.7934   24388291.0874   24388283.435
        44.0004         39.0004
  -6318786.72848  -4903895.09547  22723738.4654   22723744.6194   22723739.002
        50.0004         45.0004
  -6057472.53447  -4666808.47246  23805521.8514   23805530.9794   23805519.207
        44.0004         39.0004
 -25293405.00249 -19646156.23148  20366063.9994   20366068.7334   20366065.172
        55.0004         51.0004
  -2069520.72747  -1599737.42646  23960223.6044   23960232.4494   23960223.148
        45.0004         40.0004
 -17037395.19448 -13217526.25448  21824271.2994   21824273.5344   21824271.875
        53.0004         48.0004
  -1520515.07148  -1177466.12047  22504646.1944   22504653.2474   22504645.763
        50.0004         46.0004
 -20415008.75649 -15835129.31848  20460919.8544   20460926.5584   20460919.063
        57.0004         52.0004
 -12293823.74148  -9571401.38448  21764222.8674   21764226.2194   21764222.866
        53.0004         49.0004
 15  1  1  0  3 54.0000000  0 10G25G17G32G01G20G09G23G06G03G31
  -4081839.58847  -3154239.12146  23605432.1384   23605439.4344   23605431.777
        44.0004         40.0004
  -2186357.45947  -1665262.32646  24388840.3434   24388846.8004   24388840.120
        44.0004         39.0004
  -6315628.09548  -4901433.82447  22724339.3924   22724346.0514   22724340.050
        50.0004         45.0004
  -6053718.19647  -4663883.01746  23806236.3574   23806245.7394   23806233.540
        44.0004         39.0004
 -25293982.26649 -19646606.04848  20365954.5554   20365959.0594   20365955.262
        55.0004         51.0004
  -2073196.51547  -1602601.67346  23959523.7184   23959533.5044   23959523.764
        45.0004         40.0004
 -17039954.59448 -13219520.59248  21823784.3504   21823786.5194   21823784.795
        53.0004         48.0004
  -1522688.43648  -1179159.65347  22504232.1864   22504239.3074   22504232.187
        50.0004         46.0004
 -20414089.82149 -15834413.26548  20461094.5374   20461101.1454   20461093.995
        57.0004         52.0004
 -12292811.37948  -9570612.53048  21764415.4734   21764419.2334   21764415.657
        53.0004         49.0004
 15  1  1  0  3 55.0000000  0 10G25G17G32G01G20G09G23G06G03G31
  -4081205.46247  -3153744.99646  23605552.5884   23605560.1234   23605552.307
        44.0004         40.0004
  -2183432.34347  -1662983.01946  24389397.4894   24389403.3714   24389396.908
        44.0004         39.0004
  -6312469.02148  -4898972.20447  22724939.8644   22724946.9994   22724941.124
        50.0004         45.0004
  -6049963.45947  -4660957.25146  23806950.5704   23806960.0734   23806948.025
        44.0004         39.0004
 -25294558.70549 -19647055.21848  20365844.6554   20365849.2374   20365845.499
        55.0004         51.0004
  -2076871.95447  -1605465.64746  23958824.5334   23958834.2124   23958824.275
        45.0004         40.0004
 -17042513.42348 -13221514.48048  21823297.6904   21823299.7114   21823297.869
        53.0004         48.0004
  -1524861.04648  -1180852.59447  22503818.9464   22503826.4364   22503818.773
        50.0004         46.0004
 -20413170.11449 -15833696.60848  20461269.7194   20461276.4084   20461269.065
        57.0004         52.0004
 -12291798.15448  -9569822.99948  21764608.3564   21764612.0504   21764608.567
        53.0004         49.0004
 15  1  1  0  3 56.0000000  0 10G25G17G32G01G20G09G23G06G03G31
  -4080570.59347  -3153250.29246  23605673.2124   23605681.5564   23605672.835
        44.0004         40.0004
  -2180506.89047  -1660703.45146  24389954.8194   24389959.5604   24389953.808
        44.0004         39.0004
  -6309309.63848  -4896510.35047  22725541.4244   22725548.3644   22725542.160
        50.0004         45.0004
  -6046208.50247  -4658031.31146  23807665.5724   23807675.0264   23807662.715
        44.0004         39.0004
 -25295134.50649 -19647503.89448  20365735.4724   20365739.7944   20365735.892
        55.0004         51.0004
  -2080547.19447  -1608329.46646  23958125.2584   23958134.5784   23958124.786
        45.0004         40.0004
 -17045071.83448 -13223508.04548  21822810.6264   21822812.8774   21822810.990
        53.0004         48.0004
  -1527033.08548  -1182545.08947  22503406.2784   22503412.9284   22503405.303
        50.0004         46.0004
 -20412249.79049 -15832979.47348  20461444.7964   20461451.4744   20461444.183
        57.0004         52.0004
 -12290784.24748  -9569032.94248  21764801.1304   21764804.7594   21764801.587
        53.0004         49.0004
 15  1  1  0  3 57.0000000  0 10G25G17G32G01G20G09G23G06G03G31
  -4079935.33847  -3152755.28746  23605794.1244   23605802.9404   23605793.581
        44.0004         40.0004
  -2177581.42247  -1658423.86846  24390511.5914   24390516.6914   24390510.661
        44.0004         39.0004
  -6306150.30348  -4894048.52847  22726142.4714   22726149.6214   22726143.076
        50.0004         45.0004
  -6042453.66747  -4655105.46746  23808380.9044   23808389.5094   23808377.354
        44.0004         39.0004
 -25295710.01349 -19647952.33848  20365625.5614   20365630.2894   20365626.312
        55.0004         51.0004
  -2084222.60747  -1611193.42146  23957426.1334   23957434.7744   23957425.341
        45.0004         40.0004
 -17047630.18248 -13225501.55948  21822323.8384   21822325.8844   21822324.124
        53.0004         48.0004
  -1529204.88448  -1184237.39447  22502991.5014   22503000.1004   22502991.949
        50.0004         46.0004
 -20411329.21249 -15832262.13848  20461620.0714   20461626.4984   20461619.299
        57.0004         52.0004
 -12289769.98648  -9568242.60648  21764994.0364   21764997.8554   21764994.602
        53.0004         49.0004
 15  1  1  0  3 58.0000000  0 10G25G17G32G01G20G09G23G06G03G31
  -4079299.13847  -3152259.54546  23605915.5244   23605924.1614   23605914.600
        44.0004         40.0004
  -2174655.37047  -1656143.83046  24391068.2354   24391073.0864   24391067.564
        44.0004         39.0004
  -6302990.45448  -4891586.30547  22726744.6934   22726750.2244   22726744.157
        50.0004         45.0004
  -6038698.39447  -4652179.28246  23809095.5104   23809104.3544   23809092.367
        44.0004         39.0004
 -25296284.64749 -19648400.10248  20365516.2854   20365520.8124   20365516.975
        55.0004         51.0004
  -2087897.61347  -1614057.05546  23956726.3474   23956734.8724   23956725.889
        45.0004         40.0004
 -17050187.89948 -13227494.58248  21821836.8994   21821839.2614   21821837.361
        53.0004         48.0004
  -1531375.90048  -1185929.09547  22502579.7314   22502587.1154   22502578.721
        50.0004         46.0004
 -20410407.80549 -15831544.15748  20461795.2554   20461801.8534   20461794.636
        57.0004         52.0004
 -12288754.80948  -9567451.55848  21765187.3454   21765190.9544   21765187.700
        53.0004         49.0004
 15  1  1  0  3 59.0000000  0 10G25G17G32G01G20G09G23G06G03G31
  -4078662.13447  -3151763.17546  23606037.0924   23606045.7234   23606035.800
        44.0004         40.0004
  -2171728.89247  -1653863.46146  24391624.2824   24391629.4564   24391624.174
        44.0004         39.0004
  -6299830.21548  -4889123.78947  22727345.6904   22727352.5794   22727345.503
        50.0004         45.0004
  -6034942.80847  -4649252.85446  23809810.4104   23809818.7284   23809807.361
        44.0004         39.0004
 -25296858.55149 -19648847.30348  20365407.1034   20365411.7184   20365407.833
        55.0004         51.0004
  -2091572.32547  -1616920.46246  23956026.9344   23956035.4164   23956026.496
        45.0004         40.0004
 -17052745.11248 -13229487.21648  21821350.7184   21821352.8514   21821350.728
        53.0004         48.0004
  -1533546.24148  -1187620.26947  22502166.9234   22502173.0954   22502165.721
        50.0004         46.0004
 -20409485.70149 -15830825.63648  20461970.7454   20461977.4244   20461970.117
        57.0004         52.0004
 -12287738.84948  -9566659.90448  21765380.7104   21765384.4264   21765380.916
        53.0004         49.0004
 15  1  1  0  4  0.0000000  0 10G25G17G32G01G20G09G23G06G03G31
  -4078024.55747  -3151266.36146  23606159.1454   23606166.8394   23606157.154
        44.0004         40.0004
  -2168802.22647  -1651582.94646  24392181.6114   24392186.6304   24392181.281
        44.0004         39.0004
  -6296669.86148  -4886661.17747  22727946.6904   22727953.1324   22727946.804
        50.0004         45.0004
  -6031187.17047  -4646326.38646  23810525.3424   23810533.1524   23810522.162
        44.0004         39.0004
 -25297431.98649 -19649294.13648  20365297.9644   20365302.4544   20365298.853
        55.0004         51.0004
  -2095247.03647  -1619783.86946  23955327.7944   23955335.4604   23955327.082
        45.0004         40.0004
 -17055302.09048 -13231479.66748  21820864.0614   21820866.3024   21820864.157
        53.0004         48.0004
  -1535716.17148  -1189311.12147  22501753.4734   22501761.4004   22501752.847
        50.0004         46.0004
 -20408563.15549 -15830106.77048  20462146.4084   20462152.9764   20462145.613
        57.0004         52.0004
 -12286722.36648  -9565867.83848  21765573.8114   21765577.6024   21765574.236
        53.0004         49.0004
 15  1  1  0  4  1.0000000  0 10G25G17G32G01G20G09G23G06G03G31
  -4077386.80647  -3150769.41146  23606280.2134   23606287.6434   23606278.605
        44.0004         40.0004
  -2165875.76847  -1649302.59546  24392738.4504   24392743.5124   24392737.721
        44.0004         39.0004
  -6293509.75648  -4884198.75547  22728548.3594   22728554.9254   22728548.135
        50.0004         45.0004
  -6027431.87947  -4643400.18946  23811239.6334   23811248.2994   23811237.139
        44.0004         39.0004
 -25298005.32649 -19649740.89248  20365188.7724   20365193.5374   20365189.778
        55.0004         51.0004
  -2098922.09247  -1622647.54546  23954629.1374   23954635.9404   23954627.684
        45.0004         40.0004
 -17057859.19748 -13233472.21548  21820376.7504   21820379.2914   21820377.452
        53.0004         48.0004
  -1537886.07148  -1191001.94947  22501340.6994   22501348.2494   22501339.896
        50.0004         46.0004
 -20407640.55549 -15829387.85848  20462321.7964   20462328.5114   20462321.182
        57.0004         52.0004
 -12285705.73748  -9565075.65848  21765767.7644   21765771.1734   21765767.585
        53.0004         49.0004
 15  1  1  0  4  2.0000000  0 10G25G17G32G01G20G09G23G06G03G31
  -4076748.11847  -3150271.73046  23606401.4954   23606409.0684   23606400.131
        44.0004         40.0004
  -2162948.76747  -1647021.81946  24393295.1994   24393300.9594   24393294.620
        44.0004         39.0004
  -6290349.16948  -4881735.95847  22729148.7074   22729155.7764   22729149.623
        50.0004         45.0004
  -6023676.13147  -4640473.63546  23811953.8444   23811962.9884   23811951.886
        44.0004         39.0004
 -25298577.82149 -19650186.99248  20365080.2224   20365084.4674   20365080.882
        55.0004         51.0004
  -2102596.74347  -1625510.90546  23953929.6364   23953936.7664   23953928.355
        45.0004         40.0004
 -17060415.69448 -13235464.29148  21819890.7224   21819893.2534   21819890.860
        53.0004         48.0004
  -1540055.18348  -1192692.16447  22500927.9154   22500935.2724   22500927.272
        50.0004         46.0004
 -20406717.13949 -15828668.31448  20462497.6014   20462504.1134   20462496.975
        57.0004         52.0004
 -12284688.21348  -9564282.78448  21765961.3104   21765964.7344   21765961.106
        53.0004         49.0004
 15  1  1  0  4  3.0000000  0 10G25G17G32G01G20G09G23G06G03G31
  -4076108.83147  -3149773.58446  23606522.9104   23606530.7744   23606521.870
        44.0004         40.0004
  -2160021.51647  -1644740.84846  24393851.0164   24393858.4044   24393851.135
        44.0004         39.0004
  -6287188.41748  -4879273.03647  22729751.6104   22729757.7474   22729751.124
        50.0004         45.0004
  -6019920.31947  -4637547.03046  23812668.3054   23812677.7064   23812666.778
        44.0004         39.0004
 -25299149.79549 -19650632.68548  20364970.9104   20364975.5024   20364972.093
        55.0004         51.0004
  -2106271.34347  -1628374.22546  23953229.9114   23953237.4604   23953229.069
        45.0004         40.0004
 -17062971.91548 -13237456.14948  21819404.3824   21819406.3164   21819404.313
        53.0004         48.0004
  -1542223.85848  -1194382.04247  22500515.3534   22500522.4844   22500514.615
        50.0004         46.0004
 -20405793.24649 -15827948.39648  20462673.3874   20462680.0004   20462672.786
        57.0004         52.0004
 -12283670.12648  -9563489.46948  21766154.8014   21766158.5494   21766154.766
        53.0004         48.0004
 15  1  1  0  4  4.0000000  0 10G25G17G32G01G20G09G23G06G03G31
  -4075468.72247  -3149274.79746  23606644.4364   23606652.1494   23606643.665
        44.0004         40.0004
  -2157093.82847  -1642459.53646  24394408.3484   24394414.4524   24394407.974
        44.0004         39.0004
  -6284027.26748  -4876809.80347  22730351.9334   22730358.8584   22730352.655
        50.0004         45.0004
  -6016164.19747  -4634620.18046  23813382.9974   23813392.0584   23813381.670
        44.0004         39.0004
 -25299721.04949 -19651077.81848  20364862.4864   20364867.0464   20364863.401
        55.0004         51.0004
  -2109945.67047  -1631237.33246  23952531.1044   23952538.5184   23952529.838
        45.0004         40.0004
 -17065527.61648 -13239447.60348  21818918.2184   21818920.2594   21818917.862
        53.0004         48.0004
  -1544391.86648  -1196071.40247  22500102.3854   22500110.3624   22500102.044
        50.0004         46.0004
 -20404868.65849 -15827227.93748  20462849.3284   20462855.9714   20462848.787
        57.0004         52.0004
 -12282651.26448  -9562695.54948  21766348.8644   21766352.5264   21766348.664
        53.0004         49.0004
 15  1  1  0  4  5.0000000  0 10G25G17G32G01G20G09G23G06G03G31
  -4074827.72747  -3148775.31746  23606766.1824   23606774.1994   23606765.603
        44.0004         40.0004
  -2154165.64147  -1640177.83646  24394964.7224   24394971.6394   24394964.798
        44.0004         39.0004
  -6280865.65348  -4874346.20847  22730954.0714   22730960.9214   22730954.476
        50.0004         45.0004
  -6012407.66847  -4631693.01746  23814098.4934   23814106.5994   23814096.550
        44.0004         39.0004
 -25300291.49549 -19651522.32148  20364753.8614   20364758.5484   20364754.803
        55.0004         51.0004
  -2113619.63347  -1634100.15446  23951832.3144   23951839.9474   23951830.979
        45.0004         40.0004
 -17068082.74248 -13241438.60848  21818431.6974   21818434.5204   21818431.620
        53.0004         48.0004
  -1546559.12948  -1197760.17847  22499690.6324   22499697.6984   22499689.713
        50.0004         46.0004
 -20403943.29349 -15826506.87448  20463025.5404   20463031.9814   20463024.934
        57.0004         52.0004
 -12281631.54148  -9561900.96148  21766542.9544   21766546.5174   21766542.761
        53.0004         49.0004
 15  1  1  0  4  6.0000000  0 10G25G17G32G01G20G09G23G06G03G31
  -4074185.57247  -3148274.93446  23606887.7294   23606896.1724   23606887.730
        44.0004         40.0004
  -2151236.66547  -1637895.52246  24395521.1964   24395528.6024   24395521.089
        44.0004         39.0004
  -6277703.33948  -4871882.06347  22731555.2654   22731561.7854   22731556.257
        50.0004         45.0004
  -6008650.52447  -4628765.37346  23814813.1924   23814821.1044   23814811.603
        44.0004         39.0004
 -25300860.86549 -19651965.98648  20364645.6914   20364650.2754   20364646.423
        55.0004         51.0004
  -2117292.99547  -1636962.50946  23951133.1534   23951140.9064   23951132.164
        45.0004         40.0004
 -17070637.03248 -13243428.96448  21817945.5054   21817948.3474   21817945.611
        53.0004         48.0004
  -1548725.37548  -1199448.15747  22499277.4874   22499286.1114   22499277.460
        50.0004         46.0004
 -20403016.90749 -15825785.01448  20463201.6784   20463208.3344   20463201.279
        57.0004         52.0004
 -12280610.69948  -9561105.50048  21766737.5624   21766740.9734   21766737.033
        53.0004         49.0004
 15  1  1  0  4  7.0000000  0 10G25G17G32G01G20G09G23G06G03G31
  -4073542.90347  -3147774.15346  23607010.0584   23607019.0614   23607010.018
        44.0004         40.0004
  -2148307.55747  -1635613.10446  24396078.5574   24396086.4724   24396077.618
        44.0004         39.0004
  -6274540.92048  -4869417.84047  22732157.8294   22732163.8324   22732157.910
        50.0004         45.0004
  -6004893.34747  -4625837.70646  23815527.6494   23815536.3264   23815526.763
        44.0004         39.0004
 -25301429.81849 -19652409.32648  20364537.2184   20364541.9684   20364538.111
        55.0004         51.0004
  -2120966.36247  -1639824.86846  23950433.9824   23950442.3064   23950433.323
        45.0004         40.0004
 -17073191.12948 -13245419.17148  21817460.1724   21817462.2674   21817459.652
        53.0004         48.0004
  -1550891.26948  -1201135.86547  22498866.1064   22498873.8594   22498865.149
        50.0004         46.0004
 -20402090.12449 -15825062.84448  20463378.1814   20463384.5254   20463377.620
        57.0004         52.0004
 -12279589.37948  -9560309.66848  21766931.3904   21766935.0264   21766931.400
        53.0004         49.0004
 15  1  1  0  4  8.0000000  0 10G25G17G32G01G20G09G23G06G03G31
  -4072899.61547  -3147272.88746  23607132.2204   23607141.1064   23607132.430
        44.0004         40.0004
  -2145378.21847  -1633330.50746  24396636.3304   24396643.7174   24396634.607
        44.0004         39.0004
  -6271378.32148  -4866953.47747  22732759.1264   22732766.1774   22732759.760
        50.0004         45.0004
  -6001136.08347  -4622909.96946  23816242.3524   23816251.0714   23816241.822
        44.0004         39.0004
 -25301998.23249 -19652852.24348  20364428.9724   20364433.3044   20364429.913
        55.0004         51.0004
  -2124639.66547  -1642687.17646  23949734.7614   23949743.3824   23949734.529
        45.0004         40.0004
 -17075744.91448 -13247409.13148  21816974.1594   21816976.3424   21816973.729
        53.0004         48.0004
  -1553056.69848  -1202823.21247  22498453.7434   22498461.2134   22498453.074
        50.0004         46.0004
 -20401162.82749 -15824340.27548  20463554.5414   20463561.1444   20463554.025
        57.0004         52.0004
 -12278567.47548  -9559513.37848  21767126.0054   21767129.8524   21767125.866
        53.0004         49.0004
 15  1  1  0  4  9.0000000  0 10G25G17G32G01G20G09G23G06G03G31
  -4072254.80147  -3146770.43146  23607255.4224   23607264.1284   23607255.221
        44.0004         40.0004
  -2142447.72647  -1631047.01146  24397194.0264   24397202.3034   24397191.956
        44.0004         39.0004
  -6268214.62748  -4864488.26147  22733361.6074   22733368.0334   22733361.894
        50.0004         45.0004
  -5997377.78447  -4619981.42546  23816957.4654   23816966.6584   23816957.186
        44.0004         39.0004
 -25302565.20549 -19653294.04148  20364321.0804   20364325.8734   20364322.046
        55.0004         51.0004
  -2128311.96847  -1645548.70446  23949035.4794   23949044.1644   23949035.744
        45.0004         40.0004
 -17078297.48248 -13249398.14048  21816488.2294   21816490.2774   21816488.033
        53.0004         48.0004
  -1555220.72548  -1204509.46547  22498041.7334   22498049.3614   22498041.203
        50.0004         46.0004
 -20400234.12849 -15823616.60948  20463731.4064   20463737.7534   20463730.714
        57.0004         52.0004
 -12277544.07148  -9558715.91948  21767320.8494   21767324.3254   21767320.570
        53.0004         49.0004
 15  1  1  0  4 10.0000000  0 10G25G17G32G01G20G09G23G06G03G31
  -4071608.79947  -3146267.04846  23607378.3174   23607386.9544   23607378.457
        44.0004         40.0004
  -2139516.42047  -1628762.87946  24397752.9664   24397760.9064   24397749.877
        44.0004         39.0004
  -6265050.18848  -4862022.46547  22733964.0594   22733970.1264   22733964.135
        50.0004         45.0004
  -5993618.81547  -4617052.35746  23817672.8634   23817681.6364   23817672.608
        44.0004         39.0004
 -25303131.07449 -19653734.97748  20364213.4844   20364218.0534   20364214.302
        55.0004         51.0004
  -2131983.64047  -1648409.74046  23948337.2564   23948345.2524   23948337.249
        45.0004         40.0004
 -17080849.19948 -13251386.49248  21816001.9374   21816005.1004   21816002.500
        53.0004         48.0004
  -1557383.74048  -1206194.92747  22497630.4154   22497637.7764   22497629.503
        50.0004         46.0004
 -20399304.37549 -15822892.12848  20463908.1824   20463914.7234   20463907.568
        57.0004         52.0004
 -12276519.52148  -9557917.56848  21767515.3894   21767519.1864   21767515.473
        53.0004         48.0004
 15  1  1  0  4 11.0000000  0 10G25G17G32G01G20G09G23G06G03G31
  -4070962.77747  -3145763.65146  23607501.0574   23607509.9564   23607501.572
        44.0004         40.0004
  -2136585.47347  -1626479.02946  24398311.7694   24398318.8924   24398307.893
        44.0004         39.0004
  -6261886.17248  -4859557.00147  22734565.8014   22734572.2114   22734566.319
        50.0004         45.0004
  -5989860.33347  -4614123.67246  23818387.5034   23818396.5694   23818387.936
        44.0004         39.0004
 -25303697.01849 -19654175.97348  20364105.6864   20364110.2694   20364106.542
        55.0004         51.0004
  -2135655.81947  -1651271.17546  23947638.3514   23947646.2584   23947638.424
        45.0004         40.0004
 -17083401.20948 -13253375.07148  21815516.8714   21815518.8674   21815517.018
        53.0004         48.0004
  -1559546.86948  -1207880.48047  22497218.3584   22497225.7294   22497217.767
        50.0004         46.0004
 -20398374.71949 -15822167.72348  20464085.1464   20464091.5404   20464084.474
        57.0004         52.0004
 -12275494.99448  -9557119.23648  21767710.4244   21767714.1474   21767710.302
        53.0004         49.0004
 15  1  1  0  4 12.0000000  0 10G25G17G32G01G20G09G23G06G03G31
  -4070316.20047  -3145259.82346  23607624.8864   23607633.0084   23607624.769
        44.0004         40.0004
  -2133654.35147  -1624195.04346  24398869.7344   24398876.9424   24398866.144
        44.0004         39.0004
  -6258722.01748  -4857091.41947  22735167.9784   22735174.6654   22735168.459
        50.0004         45.0004
  -5986101.79547  -4611194.94246  23819102.7364   23819111.8684   23819103.040
        44.0004         39.0004
 -25304262.47849 -19654616.58948  20363998.0754   20364002.9734   20363998.722
        55.0004         51.0004
  -2139327.98347  -1654132.59546  23946939.3824   23946947.5804   23946939.758
        45.0004         40.0004
 -17085952.97048 -13255363.45348  21815031.1534   21815033.6064   21815031.583
        53.0004         48.0004
  -1561709.59948  -1209565.72347  22496806.9794   22496815.1464   22496806.094
        50.0004         46.0004
 -20397444.62349 -15821442.97048  20464262.1394   20464268.5094   20464261.459
        57.0004         52.0004
 -12274469.92048  -9556320.47748  21767906.0134   21767909.1244   21767905.302
        53.0004         49.0004
 15  1  1  0  4 13.0000000  0 10G25G17G32G01G20G09G23G06G03G31
  -4069668.71347  -3144755.28546  23607748.5674   23607755.8444   23607748.189
        44.0004         40.0004
  -2130722.71947  -1621910.65846  24399427.8974   24399435.1784   24399424.546
        44.0004         39.0004
  -6255557.40048  -4854625.48547  22735770.0694   22735776.2034   22735770.774
        50.0004         45.0004
  -5982342.86647  -4608265.90746  23819818.0504   23819827.4564   23819818.571
        44.0004         39.0004
 -25304827.12449 -19655056.57048  20363890.6214   20363895.4204   20363891.121
        55.0004         51.0004
  -2142999.76747  -1656993.71746  23946240.6324   23946249.3634   23946241.164
        45.0004         40.0004
 -17088504.13648 -13257351.37348  21814546.1334   21814548.1914   21814546.208
        53.0004         48.0004
  -1563871.57048  -1211250.37347  22496395.5934   22496402.5524   22496394.723
        50.0004         46.0004
 -20396513.74549 -15820717.60948  20464439.2864   20464445.7404   20464438.535
        57.0004         52.0004
 -12273443.99948  -9555521.05648  21768100.9704   21768104.4814   21768100.434
        53.0004         49.0004
